,%time,field.transforms0.header.seq,field.transforms0.header.stamp,field.transforms0.header.frame_id,field.transforms0.child_frame_id,field.transforms0.transform.translation.x,field.transforms0.transform.translation.y,field.transforms0.transform.translation.z,field.transforms0.transform.rotation.x,field.transforms0.transform.rotation.y,field.transforms0.transform.rotation.z,field.transforms0.transform.rotation.w
0,1649114709411949157,0,1317398079239670991,world,base_link,0.0,0.0,0.0,0.0020423651338902,0.0190003329560419,0.7650731688120116,0.643659741211276
11,1649114709511631727,0,1317398079339673995,world,base_link,-0.0885649827541783,0.5354143842123449,-0.0074234008800004,0.0030228228837481,0.0194309275937465,0.7655553981679665,0.6430693850048737
23,1649114709622036218,0,1317398079449843883,world,base_link,-0.1914515688549727,1.12136464798823,-0.0129699706999986,0.0037417915449259,0.0191810329494677,0.7659435944136599,0.6426106886348131
34,1649114709722020149,0,1317398079549899101,world,base_link,-0.2896318646380678,1.6519818264059722,-0.0120239257799994,0.004222440114198,0.0188365783819974,0.766506811675702,0.6419459961469428
45,1649114709822823286,0,1317398079649661064,world,base_link,-0.3872865163721144,2.1818239358253777,-0.0122680663999972,0.005583426982229,0.0190260875618867,0.7671074669118714,0.6412121080760045
57,1649114709932435989,0,1317398079759722948,world,base_link,-0.4945071529364213,2.7698847707360983,-0.0158233642499965,0.0072755320460674,0.0193102554811239,0.767603293520704,0.6405929787648849
68,1649114710032681226,0,1317398079859652042,world,base_link,-0.596108608180657,3.311259693466127,-0.016975402829999,0.008006710297554,0.0194553799326775,0.7680154329185739,0.6400856783125066
80,1649114710142944812,0,1317398079969841003,world,base_link,-0.710871946066618,3.912316205445677,-0.0136871337900004,0.0077975921777551,0.0197982495114941,0.7684730007554336,0.6395283214858037
91,1649114710242692708,0,1317398080069680929,world,base_link,-0.8186954471748322,4.464126334525645,-0.0064010620099992,0.0079670371659415,0.0198489837698751,0.7688232792576056,0.6391035201230559
103,1649114710353284835,0,1317398080179646015,world,base_link,-0.9383370915893464,5.081078744493425,-0.0040969848599985,0.0087829659662021,0.0187595581020609,0.7692302013944026,0.638635917993483
113,1649114710452822923,0,1317398080279638051,world,base_link,-1.0511732766171915,5.649260878097266,-0.0039672851499972,0.0096899367896577,0.0169223648650807,0.7695994874253931,0.6382290871207279
124,1649114710552636861,0,1317398080379646062,world,base_link,-1.165557706495747,6.228106155525893,-0.0073776245099992,0.0106452639413848,0.0151674928389406,0.7699859374762253,0.6377917227476831
136,1649114710662857532,0,1317398080489717960,world,base_link,-1.294504885096103,6.877037771977484,-0.0078659057599992,0.0104172314894308,0.0143421735445953,0.7704014150726126,0.6373126728696273
147,1649114710762570142,0,1317398080589646100,world,base_link,-1.4156032832106575,7.481707996688783,-0.0026702880799973,0.007333910686632,0.01538991064488,0.7707660773924712,0.6368901148121285
159,1649114710872768878,0,1317398080699630022,world,base_link,-1.5522452468285337,8.162032569292933,0.0080413818400018,0.0027863340249119,0.018590057436752,0.7710389433378011,0.6365104822104086
170,1649114710972643852,0,1317398080799640893,world,base_link,-1.678741474635899,8.79364373954013,0.0156478881900028,-0.000188422132966,0.0204710481833436,0.7712535383135272,0.6361987742225224
181,1649114711072223186,0,1317398080899650096,world,base_link,-1.8088110188255089,9.435772578697652,0.0145645141599999,-0.0010787141759468,0.0197383541424407,0.7716697181589104,0.6357161944044072
193,1649114711183214187,0,1317398081009690999,world,base_link,-1.9578001553891229,10.15652247518301,-0.0047302246100002,0.0011491196145841,0.0163394376574347,0.7719864847673321,0.6354278634414199
203,1649114711282568454,0,1317398081109601974,world,base_link,-2.093859165324829,10.827932783402504,-0.027236938469997,0.0040497460454648,0.0142875012281,0.7722668717760324,0.6351246693546749
215,1649114711392690420,0,1317398081219624996,world,base_link,-2.242673541768454,11.587950445245951,-0.0419692993099971,0.0044817549881219,0.0154340333557842,0.7726810612095749,0.6345909565496847
226,1649114711492616653,0,1317398081319645881,world,base_link,-2.376784532563761,12.29767840867862,-0.0469741821300004,0.0011287833786222,0.0188010189133987,0.7727950492798263,0.6343761182015704
238,1649114711601662397,0,1317398081429598093,world,base_link,-2.5295979662332684,13.09673666814342,-0.0566635131799984,-0.0018728400972039,0.0216026993419349,0.7729140626975065,0.6341401008732591
249,1649114711701716899,0,1317398081529654026,world,base_link,-2.6739512039348483,13.83775057643652,-0.0716400146500007,-0.0026218974749976,0.0228033617243443,0.7730330235503715,0.6339503741210901
260,1649114711801606416,0,1317398081629601955,world,base_link,-2.8197425904218107,14.593855983577669,-0.0938186645499996,-0.0016168690069228,0.0233359193433316,0.7730921641801518,0.633862229736293
272,1649114711912926673,0,1317398081739624023,world,base_link,-2.987557325512171,15.446129443123937,-0.1224441528299991,-0.0002914982671934,0.0227316395646063,0.77299076363124,0.6340098318892677
283,1649114712012742042,0,1317398081839612960,world,base_link,-3.1360501986928284,16.232771772891283,-0.1495971679700005,0.0002083733136548,0.0207600973072285,0.7728303139525327,0.6342730333037867
295,1649114712123034954,0,1317398081949678897,world,base_link,-3.300118688493967,17.115845347288996,-0.1748580932599992,0.0032332323363429,0.0200174588300544,0.7724796036934409,0.634715770584181
305,1649114712223317623,0,1317398082049709081,world,base_link,-3.446290106745437,17.932000023312867,-0.1927490234299966,0.0063870776835563,0.0191648882435184,0.7722664485800229,0.6349775151096899
317,1649114712332714080,0,1317398082159647941,world,base_link,-3.619702164665796,18.85114774107933,-0.2128677368099971,0.0085366552488663,0.0169601041455064,0.7718855412232588,0.6354779237983113
328,1649114712432562112,0,1317398082259574890,world,base_link,-3.7772833495400846,19.70112065412104,-0.2213668823199981,0.008495521867011,0.0162033851235259,0.771821185833116,0.6355763789804562
339,1649114712532446384,0,1317398082359594106,world,base_link,-3.939415968256071,20.56916592735797,-0.2237091064399976,0.0081463899989303,0.0162653829329257,0.7719082649361227,0.6354736061956745
351,1649114712642995595,0,1317398082469732046,world,base_link,-4.120142779662274,21.541111790575087,-0.2257766723599985,0.0081113252846891,0.0154313380520296,0.7719032983879854,0.6355008876042574
362,1649114712742729902,0,1317398082569617033,world,base_link,-4.290864710696042,22.43959934823215,-0.2290573120099992,0.008107609583669,0.0137576799625194,0.7718737582191512,0.6355752467501633
374,1649114712852638483,0,1317398082679593086,world,base_link,-4.476287218858488,23.44884028332308,-0.2318038940399986,0.0072681074222792,0.0120462852237062,0.7719105580194944,0.6355754495296685
384,1649114712952752113,0,1317398082779612064,world,base_link,-4.65128318418283,24.37006625952199,-0.2315216064399976,0.0066583772033844,0.0114371106088018,0.7718953063444128,0.6356119056133268
396,1649114713062885522,0,1317398082889604091,world,base_link,-4.8456655002664775,25.38913988834247,-0.2309036254799963,0.0063392227772019,0.011136114868608,0.7719775470618571,0.63552062754294
407,1649114713163186788,0,1317398082989825963,world,base_link,-5.024436806910671,26.323269291315228,-0.2299499511699991,0.0063705171177798,0.0110893852994664,0.7720354511908267,0.6354507881417005
418,1649114713262634277,0,1317398083089576959,world,base_link,-5.205077373073436,27.26339811226353,-0.226852416989999,0.00572393679187,0.0111507831071521,0.7721527616305528,0.635313315845033
430,1649114713372686147,0,1317398083199584007,world,base_link,-5.405876150471158,28.30640385719016,-0.2235717773399983,0.0047351857352873,0.0115192052141242,0.7722631493074471,0.6351806940934452
441,1649114713472785472,0,1317398083299561023,world,base_link,-5.590516692958772,29.262087770272046,-0.2214279174799998,0.0040510980736668,0.0116833001498329,0.7723762950112423,0.6350448393670426
453,1649114713582672834,0,1317398083409584999,world,base_link,-5.795153469545767,30.321455386001617,-0.2213897704999965,0.0043863271367617,0.0114639441848703,0.7723917395328528,0.6350278252323982
464,1649114713682810544,0,1317398083509615898,world,base_link,-5.98368034651503,31.29149793973193,-0.2235717773399983,0.0044918814326388,0.0106914668508721,0.7724516003004913,0.6349677477880129
475,1649114713782613515,0,1317398083609576940,world,base_link,-6.173770198831335,32.26723936293274,-0.2218170165999993,0.0043071388481964,0.0109616304436132,0.7725491365316547,0.6348457472939036
486,1649114713892701148,0,1317398083719604015,world,base_link,-6.383723258157261,33.35056509822607,-0.21883392334,0.0034560711372346,0.0121876213877103,0.7727761265523054,0.6345522639531116
497,1649114713992761135,0,1317398083819546937,world,base_link,-6.577087497222237,34.342374950647354,-0.2168579101499972,0.0021074501480154,0.0131998629168094,0.7728823145320202,0.6344085829782558
509,1649114714102667093,0,1317398083929575920,world,base_link,-6.792300427216105,35.44194059912115,-0.2181625366199995,0.0010390309833483,0.0140068183343276,0.7730559099217854,0.6341823788073624
520,1649114714202992916,0,1317398084029737949,world,base_link,-6.991176239796914,36.44428795063868,-0.2211685180599971,0.0008232522899044,0.0142365113071464,0.7732181535439232,0.633979756010864
532,1649114714312721252,0,1317398084139569997,world,base_link,-7.203277373220772,37.55629272107035,-0.2344818115199984,0.0016184035168345,0.0139346676367525,0.7733406661633806,0.6338354832808658
543,1649114714412610530,0,1317398084239552021,world,base_link,-7.390346781816333,38.57081989152357,-0.2487335204999965,0.001673785816115,0.0137552317826425,0.7734474903837882,0.6337089013566619
554,1649114714512665510,0,1317398084339576005,world,base_link,-7.586631896789186,39.58599536214024,-0.2540588378899997,0.0014480820812692,0.0140983638399044,0.7736062535408746,0.6335080928273731
566,1649114714624228715,0,1317398084449598073,world,base_link,-7.805500317364931,40.70037410641089,-0.2551422119099982,0.0006279258492754,0.0148416728725842,0.7738617133837221,0.6331803684687967
576,1649114714723431587,0,1317398084549599885,world,base_link,-8.007051781751215,41.71264127688482,-0.2562332153299991,-0.0002565664844119,0.0155553115667618,0.7740364484142684,0.6329498739883955
588,1649114714832626104,0,1317398084659543037,world,base_link,-8.229424980701879,42.82342758821324,-0.2593460082999996,-0.0009151476349805,0.0151074563245975,0.7742070577456611,0.6327514195993661
599,1649114714932627439,0,1317398084759555101,world,base_link,-8.436167405219749,43.82857654104009,-0.2736968994099982,0.000342570290165,0.0135638448317305,0.7743361625098403,0.6326289688186207
611,1649114715043208360,0,1317398084869721889,world,base_link,-8.666971237049438,44.93135823076591,-0.29354095459,0.0016078735396838,0.0115021059596142,0.7743759700554562,0.6326191376348375
622,1649114715142922401,0,1317398084969672918,world,base_link,-8.875848077819683,45.93943351320922,-0.3022689819299984,0.001566943117285,0.0110540533776832,0.7744303257251969,0.6325606873576292
633,1649114715242712736,0,1317398085069590091,world,base_link,-9.08356365095824,46.95075497077778,-0.3074874877899987,0.0005295251823829,0.0118922333390186,0.7743679277941453,0.6326235901332585
645,1649114715352550029,0,1317398085179549932,world,base_link,-9.311915809405036,48.06336999218911,-0.3164672851499972,-0.0006685206765829,0.0123221215555608,0.7743142183660635,0.6326809698707773
656,1649114715452831745,0,1317398085279772996,world,base_link,-9.517063900711946,49.07681894861162,-0.3272018432599992,-0.000481844043807,0.0135520648176844,0.7742751764262369,0.6327037699710779
667,1649114715562691926,0,1317398085389530897,world,base_link,-9.744080637348816,50.18983615422621,-0.3400268554700005,-0.0008552947421505,0.013274913238263,0.774170559528195,0.6328372538885666
678,1649114715662943840,0,1317398085489763975,world,base_link,-9.950594012858346,51.20179892750457,-0.3571548461899994,0.0008552778269442,0.0131831021250462,0.7740206615351576,0.6330225034190147
689,1649114715762570858,0,1317398085589530944,world,base_link,-10.157648937776685,52.2099068579264,-0.3758087158199998,0.0013990820332723,0.0119382477080673,0.7740034908716038,0.6330672293917101
701,1649114715872358560,0,1317398085699522018,world,base_link,-10.38581186113879,53.32188306609169,-0.3888244628899997,0.0025220807068488,0.011639834789808,0.773963430035267,0.6331182846222486
712,1649114715971742391,0,1317398085799509048,world,base_link,-10.597612131386995,54.326256684958935,-0.3994293212900004,0.0040396637137838,0.0112050053251431,0.7739399310130962,0.6331469909556443
724,1649114716082908391,0,1317398085909544944,world,base_link,-10.82648390007671,55.436573303770274,-0.405364990229998,0.0055830840570127,0.0110429324591102,0.7738740209939229,0.6332186687439129
735,1649114716182823657,0,1317398086009665012,world,base_link,-11.037550226901658,56.44363893195987,-0.4057159423799987,0.0052854960700853,0.0121961941180629,0.7738172960945827,0.633269380789247
747,1649114716292933225,0,1317398086119570016,world,base_link,-11.266416436294094,57.56180953606963,-0.4076766967699967,0.0032644973498172,0.0147885338746089,0.7737985184769178,0.6332507363800057
757,1649114716392749786,0,1317398086219512939,world,base_link,-11.476943314890375,58.57830630103126,-0.4151763915999993,0.0013926965124581,0.0171034060023237,0.7737006071820535,0.6333189594080264
768,1649114716492564439,0,1317398086319509029,world,base_link,-11.684289647382684,59.59686991851777,-0.4284744262700002,0.0013388703335864,0.0181712867505295,0.7736395681363852,0.6333639004378186
780,1649114716602649927,0,1317398086429521083,world,base_link,-11.908873453969136,60.71576541662216,-0.4535522460899983,0.0036845446829649,0.0183352767353897,0.7735277690904719,0.6334864104331154
791,1649114716702761411,0,1317398086529572010,world,base_link,-12.110506020137109,61.73396218428388,-0.4749755859299966,0.0054792163355747,0.0180323880116341,0.7734956510904064,0.6335213405365079
803,1649114716812473535,0,1317398086639507055,world,base_link,-12.334934298880398,62.853930686134845,-0.4942092895499996,0.0063693826746318,0.0159438103251634,0.7735307511444223,0.6335261659241908
814,1649114716912435293,0,1317398086739523887,world,base_link,-12.539299724274317,63.87494047638029,-0.510948181149999,0.0083064202435051,0.0147458558698327,0.7735013944057763,0.6335685882126135
825,1649114717012597799,0,1317398086839589118,world,base_link,-12.743871749262324,64.89797170925885,-0.5234985351499972,0.0076959935214926,0.0132213997992232,0.7733695683091197,0.6337708395661891
837,1649114717123271226,0,1317398086949579000,world,base_link,-12.972615474020133,66.02507362235337,-0.5284423828099989,0.004586609205751,0.0125406770810294,0.7730868873378138,0.6341595690838967
847,1649114717223320722,0,1317398087049614906,world,base_link,-13.17787118058186,67.04928035102785,-0.5342788696300005,0.0031863440001152,0.0127769629293837,0.7730592525028533,0.6341971212091269
859,1649114717332551956,0,1317398087159513950,world,base_link,-13.399729168741032,68.17293810006231,-0.5479965209899973,0.0033265905627783,0.0131844178684658,0.7731045186258697,0.6341328789780261
870,1649114717432579278,0,1317398087259489059,world,base_link,-13.600808468298055,69.1962629025802,-0.5570526122999979,0.0034468694038839,0.0140200237054682,0.7730396807281963,0.6341933538332446
882,1649114717542836427,0,1317398087369647026,world,base_link,-13.821612745523453,70.32044351380318,-0.5678329467699967,0.0032774994431875,0.0149695261021317,0.7731256170291556,0.6340677815336186
893,1649114717641685724,0,1317398087469645023,world,base_link,-14.0240790565731,71.34040748747066,-0.5725936889599978,0.0030936534680481,0.0161309882215694,0.7732017475908325,0.6339473779815621
904,1649114717741665601,0,1317398087569519996,world,base_link,-14.228689297684468,72.35456458991393,-0.5741653442400008,0.0027065515637139,0.017229418900821,0.7734051018800896,0.6336721313809069
916,1649114717852335214,0,1317398087679558992,world,base_link,-14.452715759282,73.46852914104238,-0.5815200805599972,0.0033978736463392,0.0171447974540883,0.7735942402429803,0.633440180157391
927,1649114717952906608,0,1317398087779481887,world,base_link,-14.65845758060459,74.47544175293297,-0.5917434692400008,0.0047850069142853,0.0158735082735414,0.7737521961704739,0.6332714065590588
938,1649114718062656402,0,1317398087889482975,world,base_link,-14.885230734595098,75.58334040502086,-0.5992889404300001,0.0054961621650366,0.0148594008960197,0.7739735700379059,0.6330196705389538
949,1649114718162799835,0,1317398087989665985,world,base_link,-15.095343268825673,76.5856939139776,-0.5976257324199992,0.0042694361720153,0.0145887720000985,0.7741507448846374,0.6328187448557946
960,1649114718262780904,0,1317398088089498043,world,base_link,-15.3045339374803,77.58859163103625,-0.594734191889998,0.0024749974562789,0.0155042462134737,0.7743370050197711,0.6325786080748814
972,1649114718372510910,0,1317398088199479103,world,base_link,-15.53471498680301,78.68785851215944,-0.593559265129997,0.0002794567587275,0.0163201543425296,0.7745500615232007,0.6323019663582913
983,1649114718472485780,0,1317398088299508094,world,base_link,-15.742254289914854,79.68543234700337,-0.6022338867200006,-0.0005165221638174,0.0162653821167373,0.7746808393474358,0.6321429962416755
995,1649114718582511186,0,1317398088409467935,world,base_link,-15.96954278612975,80.77650652220473,-0.6177978515599989,0.0004635921434037,0.0155602811619109,0.7748615487502564,0.63193927160831
1006,1649114718682820558,0,1317398088509558916,world,base_link,-16.17450960970018,81.76328302873299,-0.6282424926699974,0.0009317444166118,0.0153126663818637,0.7750525474384239,0.6317105372002508
1017,1649114718792901992,0,1317398088619462966,world,base_link,-16.397867834893987,82.83656236622483,-0.6414794921799967,0.0009682788648642,0.015544823839879,0.7752156688720897,0.6315046220124008
1028,1649114718892728090,0,1317398088719444036,world,base_link,-16.597563282120973,83.80046997312456,-0.6518325805599972,0.0012861232632153,0.0160846505257374,0.7754197489767273,0.6312399249107158
1039,1649114718992779731,0,1317398088819473028,world,base_link,-16.795916719245724,84.75107486499473,-0.662109375,0.0011905850427003,0.0171108350928301,0.7756008010147359,0.630990649134345
1051,1649114719102469921,0,1317398088929492950,world,base_link,-17.012532222783193,85.7765618013218,-0.6704788207999997,0.0001046310450426,0.017930504160187,0.7757535985031301,0.6307811351668264
1062,1649114719202975273,0,1317398089029623031,world,base_link,-17.20626437489409,86.69088209886104,-0.6779022216800001,-0.0001622002671842,0.0186471051228388,0.7760301537265106,0.6304200660423328
1074,1649114719312494516,0,1317398089139467000,world,base_link,-17.418034140835516,87.6729285037145,-0.6836318969699988,0.0001887614516204,0.0190763734787688,0.7767058490242512,0.6295745233374125
1085,1649114719412491321,0,1317398089239500045,world,base_link,-17.6055441518547,88.54605634743348,-0.6891632079999965,0.0006865486374565,0.0192340672234543,0.7776857197972955,0.6283585763975648
1096,1649114719512427568,0,1317398089339464902,world,base_link,-17.792518749600276,89.39659278420731,-0.6942749023399983,0.0010268528015989,0.0189376743808495,0.7787324176475338,0.6270694792183685
1108,1649114719623793601,0,1317398089449558973,world,base_link,-17.99441138736438,90.30988818593325,-0.6989669799799998,0.0012227010777763,0.019043858141902,0.7797550564756197,0.6257938065927534
1118,1649114719722359895,0,1317398089549647092,world,base_link,-18.179645922151398,91.11652232706548,-0.6937408447199971,0.0003571186246208,0.0191624896194312,0.780715804152926,0.6245922706884256
1130,1649114719832435369,0,1317398089659482955,world,base_link,-18.378749361261725,91.97727078106254,-0.6943969726499972,-0.0003291437654553,0.019086914420628,0.7817234715435667,0.6233329731372758
1141,1649114719932480573,0,1317398089759433984,world,base_link,-18.56010698818136,92.73606458725408,-0.6940917968699978,-0.0011568447151014,0.0192460333520723,0.7826068854549014,0.6222175783028753
1153,1649114720042789697,0,1317398089869589090,world,base_link,-18.754179627634585,93.5428677322343,-0.6985092163100006,-0.0019800299143446,0.0189291428319559,0.7835146335509581,0.6210817869207674
1164,1649114720142764806,0,1317398089969526052,world,base_link,-18.930313644814305,94.24960174970327,-0.6982345580999976,-0.0028058092547812,0.0183410043961419,0.7842557956198439,0.6201601261197403
1175,1649114720242651700,0,1317398090069453954,world,base_link,-19.100828910595737,94.92845418630168,-0.6977996826099968,-0.0030510237943883,0.0173591031840203,0.7850846772372237,0.6191376279614872
1187,1649114720352308511,0,1317398090179425954,world,base_link,-19.282313983072527,95.6445812387392,-0.6991729736299988,-0.0021432988782746,0.0155826005907933,0.7859466515069152,0.6180942078791984
1198,1649114720451820611,0,1317398090279436111,world,base_link,-19.44148953049444,96.26695748372003,-0.7032089233400001,-0.0014160781385991,0.013465159234065,0.7867068620161388,0.6171782542071832
1209,1649114720562689304,0,1317398090389451026,world,base_link,-19.608777235262096,96.92009113403036,-0.7012939453099989,-0.0010139488397583,0.0117018220512648,0.7874298329965296,0.6162923797804809
1220,1649114720662712097,0,1317398090489729881,world,base_link,-19.754640537896197,97.48633056180552,-0.6954421996999969,-0.0010494034929064,0.0107004586227737,0.7877393478571432,0.6159148632523607
1231,1649114720762410640,0,1317398090589430093,world,base_link,-19.896603030734692,98.02857515029608,-0.6877746581999986,-0.0019670223149093,0.0099226691187315,0.7875459828442554,0.6161728624068481
1243,1649114720872548341,0,1317398090699426889,world,base_link,-20.047813368728384,98.6032992838882,-0.6757049560499979,-0.0038816910034798,0.0089972610066847,0.7866710389219598,0.6172946284318173
1254,1649114720972575426,0,1317398090799473047,world,base_link,-20.17747263982892,99.10584841156378,-0.666801452629997,-0.0054063190454372,0.0084290853536664,0.7851186275336918,0.6192644531491306
1266,1649114721082370996,0,1317398090909435033,world,base_link,-20.30880959285423,99.636099381838,-0.6596527099599996,-0.0064857886583598,0.0087241740611887,0.7827646391908455,0.622222904564638
1277,1649114721182840824,0,1317398091009524106,world,base_link,-20.41887559252791,100.0990557745099,-0.6549682617200006,-0.0074694929214626,0.0095728948014917,0.7799323865951363,0.6257459857646956
1288,1649114721291957616,0,1317398091119411945,world,base_link,-20.532586532761343,100.58834163891152,-0.6444396972599975,-0.008047600584688,0.0102187757998835,0.7760547329505899,0.6305314141349101
1299,1649114721392836093,0,1317398091219418048,world,base_link,-20.62615958822425,101.01321680052206,-0.6375274658199999,-0.0080533350184154,0.0105328742859233,0.7720179606626255,0.6354624070459864
1311,1649114721502790451,0,1317398091329417943,world,base_link,-20.717858722317036,101.465003750287,-0.6279602050699964,-0.0078601136075941,0.0103780711696961,0.766946622255335,0.6415788282541787
1322,1649114721602509975,0,1317398091429425001,world,base_link,-20.792668807669543,101.86768179899082,-0.6253967285099975,-0.0066446722275636,0.0100058629648451,0.7614568633225314,0.6481042943356637
1333,1649114721702576875,0,1317398091529438972,world,base_link,-20.85983314400073,102.26543412124738,-0.6204910278299991,-0.0050671468238349,0.0088446969247343,0.754956345384038,0.6556958227133618
1345,1649114721812446117,0,1317398091639468908,world,base_link,-20.921158617711622,102.69717549951748,-0.620895385739999,-0.0026665308223023,0.0080523501318335,0.7465487839376487,0.6652766059857704
1356,1649114721912479162,0,1317398091739422082,world,base_link,-20.96643792954273,103.08592764288188,-0.61376953125,-0.0011760651172431,0.0080450587750978,0.7378713969083163,0.674892358472605
1368,1649114722022723913,0,1317398091849543094,world,base_link,-21.002963310224004,103.50531595572828,-0.6109008788999972,-3.5320020491443294e-05,0.0086584194342772,0.7271687844575817,0.6864041006840501
1379,1649114722122840642,0,1317398091949455976,world,base_link,-21.024048713152297,103.88320751395077,-0.6053466796799967,0.0010863172115523,0.009025766883358,0.716450711281166,0.6975784785612256
1390,1649114722232661962,0,1317398092059441089,world,base_link,-21.033178794197735,104.2934094062075,-0.5993881225600006,0.0025057254808893,0.0094535215803096,0.7031408200638257,0.7109833608668459
1401,1649114722332375764,0,1317398092159377098,world,base_link,-21.02806779020466,104.66374850971624,-0.5903930663999972,0.0035735483825013,0.0104512186371549,0.6897524257394464,0.7239610438190067
1413,1649114722443017005,0,1317398092269391059,world,base_link,-21.006265582051128,105.0645364415832,-0.5860595703099989,0.0045508335165522,0.0110500852829244,0.6739181707902863,0.7387093370252059
1424,1649114722542998790,0,1317398092369493961,world,base_link,-20.974680049577728,105.42442416911943,-0.5805358886699992,0.0045545930272589,0.0105634818424621,0.6585598116174866,0.7524404581467298
1435,1649114722642925977,0,1317398092469645977,world,base_link,-20.930822193273343,105.77942946366966,-0.5792922973599985,0.0036056781103153,0.0095930517519935,0.6417095515524113,0.7668792759553824
1447,1649114722752514123,0,1317398092579394102,world,base_link,-20.86404773080721,106.16392700141296,-0.5764312744099982,0.0028983859163868,0.0097830043212423,0.6222294090865531,0.7827684553259215
1458,1649114722852212429,0,1317398092679374933,world,base_link,-20.784177377587184,106.50668618874624,-0.5755996704099999,0.0023423155059707,0.010235298489648,0.6039614026127847,0.7969443998027064
1470,1649114722963006258,0,1317398092789361000,world,base_link,-20.680105009814724,106.87559317843989,-0.5753860473599985,0.0028319053195216,0.0104837617913798,0.5827796669056872,0.8125576477347678
1480,1649114723062493324,0,1317398092889386892,world,base_link,-20.569234828464687,107.20315499743448,-0.576385498039997,0.0034466816716802,0.0098458065316685,0.5632621998327311,0.8262123665975883
1492,1649114723172362565,0,1317398092999448060,world,base_link,-20.43115283350926,107.55778625886887,-0.5791778564399976,0.0040457480900902,0.0083051629752826,0.5412376961691959,0.8408188939574366
1503,1649114723272491216,0,1317398093099374055,world,base_link,-20.29131563671399,107.87717444030568,-0.5850067138599968,0.0039520167747737,0.0058174496927889,0.5203160095850362,0.8539448395604884
1515,1649114723382447719,0,1317398093209357976,world,base_link,-20.118481462006457,108.2263349480927,-0.5967330932599992,0.002930652456349,0.0027127414675592,0.4962023070429209,0.8681977440624878
1526,1649114723482311487,0,1317398093309374094,world,base_link,-19.943817593739368,108.5375749808736,-0.6067047119099982,0.0016137372954443,0.0004762287705271,0.4731544531402473,0.8809778842466212
1537,1649114723582460403,0,1317398093409389019,world,base_link,-19.751343271113,108.83885006513448,-0.6090240478499993,0.0016202448645553,-7.605151324465211e-05,0.4496671258822583,0.8931947407612381
1549,1649114723692917823,0,1317398093519603013,world,base_link,-19.51438517263159,109.15752753103152,-0.6083374023399983,0.0025995704464785,0.0009424613438433,0.4237795694885082,0.9057611332378112
1560,1649114723792727470,0,1317398093619369983,world,base_link,-19.28137924033217,109.43994519999252,-0.6097335815399987,0.0016443946076361,0.0020693803848708,0.3993536661335713,0.9167931407776092
1571,1649114723902630567,0,1317398093729367017,world,base_link,-19.004528912948444,109.73934411955996,-0.6119079589799981,0.0008004175126678,0.0029055173859767,0.3718656285476432,0.9282816768661286
1582,1649114724002609491,0,1317398093829355955,world,base_link,-18.73451882484369,109.99788899347186,-0.6109466552699985,0.000230633384979,0.0038865893058809,0.3467395753489849,0.9379533613771076
1594,1649114724112462997,0,1317398093939351081,world,base_link,-18.41734228353016,110.26845183549447,-0.6077423095699999,-2.858882283579095e-05,0.0059995373854827,0.3181039745051556,0.9480368485126844
1605,1649114724212353467,0,1317398094039438009,world,base_link,-18.11336355702952,110.50400657439604,-0.6071090698199981,-0.0021051879804455,0.0061262280431913,0.2920080371356958,0.9563939270832328
1616,1649114724312532901,0,1317398094139372110,world,base_link,-17.792645421926863,110.7263754811138,-0.612800598139998,-0.0041602772589228,0.0040212640873188,0.266643901864445,0.9637777498608135
1628,1649114724422694921,0,1317398094249499082,world,base_link,-17.420611997600645,110.95533142192288,-0.6262054443299974,-0.0044730864598037,0.0007814633528695,0.2393785338839309,0.9709157009381044
1639,1649114724522638559,0,1317398094349488973,world,base_link,-17.062736177933402,111.1487637157552,-0.6318283080999976,-0.0043372860931156,-0.000635334501503,0.2164413413284699,0.9762857829874152
1651,1649114724632505178,0,1317398094459561109,world,base_link,-16.647406627656892,111.34148032963276,-0.6318664550699964,-0.0014933984594432,-0.0007573048989658,0.1941198523485519,0.980976390732472
1661,1649114724732560396,0,1317398094559371948,world,base_link,-16.250450903200544,111.4997544521466,-0.6318969726499972,0.0019736358503183,-0.0007381017173988,0.1768476716044678,0.9842359783179352
1673,1649114724842738151,0,1317398094669327974,world,base_link,-15.7961149396142,111.66542278788984,-0.6348724365199985,0.0042844046900598,-0.0016629188842773,0.1605004681912553,0.9870250646704084
1684,1649114724942618370,0,1317398094769328117,world,base_link,-15.36571233230643,111.8127485369332,-0.6298675537099996,0.002950091748413,-0.0009641728178237,0.1468720672705633,0.9891506271469096
1695,1649114725042699098,0,1317398094869486093,world,base_link,-14.916389796882868,111.95529268868268,-0.625984191889998,-0.000896718684782,0.0006326635250078,0.1344710870597465,0.9909169099260716
1707,1649114725152529001,0,1317398094979481935,world,base_link,-14.401326394290663,112.10240103537215,-0.6218872070299994,-0.0040120998178423,0.002204591832145,0.1217088187519257,0.99255529129007
1718,1649114725252487421,0,1317398095079386949,world,base_link,-13.911563441273756,112.22359334444629,-0.615440368649999,-0.0028118121355447,0.0036834755246148,0.1106558706142978,0.9938479783242334
1729,1649114725352207899,0,1317398095179339885,world,base_link,-13.402503155171871,112.3312504910864,-0.6118087768499976,0.0006243279902047,0.0038057318176874,0.1007225822772479,0.9949070750775146
1741,1649114725462649583,0,1317398095289328098,world,base_link,-12.819013639818875,112.44060663878918,-0.6130447387700002,0.0033145873744223,0.002833309737049,0.0911147822290141,0.9958308502581302
1751,1649114725562428474,0,1317398095389322996,world,base_link,-12.269510258571245,112.5427570375614,-0.6272048950200002,0.0042323014740281,0.0001329675852537,0.0841138483694512,0.9964471538703572
1763,1649114725672763109,0,1317398095499511957,world,base_link,-11.64195080823265,112.65367903374135,-0.6418228149399994,0.0027933337487466,-0.002610890009258,0.078072839859505,0.9969403253034756
1774,1649114725772462368,0,1317398095599435091,world,base_link,-11.05159525515046,112.74531354056673,-0.6461105346599965,0.0037853896702272,-0.0028588751617379,0.0747995532452775,0.9971873066240672
1785,1649114725871731281,0,1317398095699315071,world,base_link,-10.440571335610002,112.8297256003134,-0.6414871215799991,0.0064146080396299,-0.0005451277688469,0.0732464312204935,0.9972930943072226
1797,1649114725982441663,0,1317398095809330940,world,base_link,-9.751819621422328,112.92785172676668,-0.6412506103499993,0.007746191610132,0.000144125587203,0.0732919615108704,0.9972804340411194
1808,1649114726082748174,0,1317398095909323930,world,base_link,-9.108746920130216,113.02316408604383,-0.6430969238199964,0.0074892664270792,0.0005499644043187,0.0740976440093278,0.99722271713986
1820,1649114726192883014,0,1317398096019680976,world,base_link,-8.384506740258075,113.1359827928245,-0.64599609375,0.0052295680718164,0.0003550980307078,0.0748811723863466,0.9971786878715456
1831,1649114726292227506,0,1317398096119311094,world,base_link,-7.710373625392094,113.23674513678998,-0.6539306640599989,0.005117238743,-0.0005662621727472,0.0754033343206413,0.9971398248932436
1841,1649114726392493724,0,1317398096219324111,world,base_link,-7.022007166408002,113.3394659627229,-0.6588516235299977,0.0048738770480939,-0.0008697376907259,0.0757654846197924,0.9971133738042016
1853,1649114726502629280,0,1317398096329293966,world,base_link,-6.249301364994608,113.45529103139415,-0.659393310539997,0.004752696965331,-0.0006634948092502,0.0760480885200684,0.9970926034620042
1864,1649114726602541685,0,1317398096429306030,world,base_link,-5.533107051393017,113.56896191928536,-0.6553115844699988,0.0040225128676052,-4.941114587538354e-05,0.076378515164934,0.99707077951867
1876,1649114726712517261,0,1317398096539365053,world,base_link,-4.733148527680896,113.69436801038682,-0.6493453979500003,0.0044232339373621,0.0007145563187165,0.0766290309959794,0.9970496055961408
1887,1649114726811520099,0,1317398096639317035,world,base_link,-3.996860834537074,113.8086577435024,-0.6428298950200002,0.0047475605747655,0.001798152854539,0.0763308913842703,0.9970696175971784
1898,1649114726912745952,0,1317398096739305973,world,base_link,-3.255961778690107,113.92261584755032,-0.6379470825200002,0.0036520733608729,0.0024550583615061,0.0757091037936516,0.9971202368076632
1910,1649114727022480010,0,1317398096849419116,world,base_link,-2.432987124659121,114.04608739865944,-0.6366500854500003,0.0027914213573264,0.0029236857317792,0.074861822212225,0.9971857237263342
1921,1649114727122717142,0,1317398096949486970,world,base_link,-1.6752536887070164,114.15681662084536,-0.6362152099599996,0.0037646578886822,0.0042764437510225,0.074148615735565,0.9972309272000768
1933,1649114727233051300,0,1317398097059369087,world,base_link,-0.8326912496704608,114.27788062253968,-0.6359634399399994,0.005080674435891,0.0049947044335101,0.0734455624931099,0.9972737783702974
1943,1649114727332815885,0,1317398097159342050,world,base_link,-0.0587711610132828,114.39288304373622,-0.6342163085899983,0.0028822227179116,0.005899477568359,0.0724957022030002,0.9973471121523936
1954,1649114727432773590,0,1317398097259280920,world,base_link,0.7212186926044524,114.509700241033,-0.64208984375,0.0017213555062655,0.0034059866056257,0.0721055849439675,0.9973897035814796
1966,1649114727542757749,0,1317398097369410991,world,base_link,1.5855816764524209,114.63912952458486,-0.6491012573199981,0.0026778689717327,0.0007807082878804,0.0717705257226889,0.9974172703286364
1977,1649114727642432212,0,1317398097469369888,world,base_link,2.3758729471592237,114.7587833153084,-0.6488876342699967,0.0031434705596029,-0.0001182959073611,0.0714200235562869,0.997441369121082
1989,1649114727752295017,0,1317398097579299926,world,base_link,3.249909458332695,114.89554894017056,-0.6426162719699988,0.0011919610387328,0.0008255928328229,0.0709036227242848,0.9974821170877848
2000,1649114727852189302,0,1317398097679285049,world,base_link,4.045529984170571,115.02307440666482,-0.6319274902299981,-0.0004585535996718,0.0026422292972422,0.0705514721693304,0.9975045353920338
2012,1649114727962438106,0,1317398097789282083,world,base_link,4.922285915468819,115.15564253740013,-0.6219863891599999,-0.0016032556482783,0.0055872565204044,0.0705731064463417,0.9974896735216936
2023,1649114728062709093,0,1317398097889281988,world,base_link,5.720809150254354,115.28013783413915,-0.6176071167000003,-0.0033200321172374,0.0080440753676058,0.0706118338913977,0.997465908767169
2033,1649114728162795782,0,1317398097989392042,world,base_link,6.516723031643778,115.4034128235653,-0.6155700683600003,-0.004936137216156,0.008643230510104,0.0706678980707455,0.9974502380058842
2045,1649114728272238254,0,1317398098099277973,world,base_link,7.387306587770581,115.53316274052486,-0.6158142089799981,-0.0034642798132426,0.0059439387175909,0.071191428549719,0.9974389449279326
2056,1649114728372155427,0,1317398098199254989,world,base_link,8.175775460898876,115.64564029872416,-0.6259078979500003,-0.0017897138337415,0.000377503127714,0.0717831398230751,0.9974185857767652
2068,1649114728482668638,0,1317398098309254884,world,base_link,9.0407450448256,115.7715690974146,-0.6271514892499965,-0.0003693910122874,-0.0028926586036363,0.0721005909819406,0.9973931024709052
2079,1649114728582475662,0,1317398098409276962,world,base_link,9.827318794443272,115.8859542729333,-0.6105880737299998,1.3312905677039802e-05,-1.757886635394093e-05,0.0726835144409226,0.9973550552547804
2090,1649114728682203531,0,1317398098509313106,world,base_link,10.61173568596132,115.99980610329658,-0.590538024899999,0.001013795557424,0.0042175685995154,0.0732388849306371,0.9973049935038896
2102,1649114728792280912,0,1317398098619259119,world,base_link,11.467095939442515,116.1239335029386,-0.5802536010699981,0.0017859174487904,0.0057573765956794,0.0735235525719854,0.9972752630697286
2113,1649114728892512559,0,1317398098719317913,world,base_link,12.240788022289053,116.23913177801296,-0.5773239135699981,0.0014190960211185,0.0054466337670048,0.073561813408481,0.997274776556164
2124,1649114729002617597,0,1317398098829262018,world,base_link,13.08763683307916,116.3670022659935,-0.5755386352499983,-0.0001018531234749,0.0048710934405624,0.0732005214610394,0.9973053422761088
2135,1649114729102406501,0,1317398098929244041,world,base_link,13.855094729340635,116.48195396922527,-0.5741348266599999,-0.0010371179997126,0.0045764705752782,0.0723094667726077,0.997371205378614
2147,1649114729212607860,0,1317398099039243936,world,base_link,14.695206793840043,116.60552232153714,-0.5689315795900001,-0.0014461172524709,0.0047976065550939,0.0712801469164644,0.9974437489762528
2158,1649114729312652111,0,1317398099139250993,world,base_link,15.455815520486794,116.71831850381568,-0.5639419555599972,-0.0017741810943695,0.0043801298641425,0.0702799626307614,0.9975161119482916
2169,1649114729412509441,0,1317398099239223003,world,base_link,16.21278956462629,116.83098867209628,-0.560836791989999,-0.0026646389978392,0.0041517747798591,0.0693184404495439,0.997582385709988
2181,1649114729522312402,0,1317398099349289894,world,base_link,17.04315211426001,116.95374315790832,-0.5587310790999993,-0.0037815334316658,0.0044222181634499,0.0682531109259932,0.9976510696833556
2192,1649114729622420310,0,1317398099449373960,world,base_link,17.79443405359052,117.06312978127971,-0.5499267578099989,-0.0036237619682683,0.0051990296240977,0.0672622259216081,0.9977152055592998
2204,1649114729732741117,0,1317398099559281110,world,base_link,18.61254991753958,117.1776953241788,-0.5431671142499965,-0.0037909770577473,0.0052825553467662,0.0662202247696821,0.9977838467991996
2214,1649114729832533359,0,1317398099659173965,world,base_link,19.353499556076716,117.2794804549776,-0.5388107299799998,-0.0038971453145944,0.0046968632526869,0.065351537205259,0.9978436392135254
2226,1649114729942566633,0,1317398099769251108,world,base_link,20.16477705608122,117.38589389948174,-0.5350418090799991,-0.0035484053982269,0.0043125639544505,0.064820956853555,0.997881282600219
2237,1649114730042717456,0,1317398099869374036,world,base_link,20.89938042033464,117.48110770527272,-0.5277328491199995,-0.0026414179001671,0.0050387726554764,0.0642134312344443,0.9979199712054582
2248,1649114730142737865,0,1317398099969331979,world,base_link,21.629713836242445,117.57446955796333,-0.5193634033199999,-0.0025906375869349,0.0054849598617008,0.0635382757787034,0.997960966833512
2260,1649114730252194166,0,1317398100079255104,world,base_link,22.428622319130227,117.67895246623084,-0.5114288329999965,-0.003169090245501,0.0058184096220727,0.0628142035888464,0.9980032458885016
2271,1649114730352150201,0,1317398100179215908,world,base_link,23.142553019919436,117.77360031567514,-0.5056533813399966,-0.0040941892594895,0.0062431101236715,0.0621493362212136,0.9980389377161362
2283,1649114730462444305,0,1317398100289216995,world,base_link,23.910024289623838,117.8739497368224,-0.5033111572199971,-0.0047330319008278,0.0066126853459088,0.0616737056011148,0.9980632368938196
2293,1649114730563093185,0,1317398100389209985,world,base_link,24.59052480792161,117.96328386291862,-0.499801635739999,-0.0047083789131864,0.0069852022816313,0.061254133653032,0.9980866541676184
2305,1649114730672525882,0,1317398100499327898,world,base_link,25.33134060946759,118.0595294078812,-0.4978027343699978,-0.0045308118255683,0.0057544422386926,0.0610965594623082,0.9981049887464702
2316,1649114730771984815,0,1317398100599149942,world,base_link,25.999853667337447,118.14488555956632,-0.4957885742200005,-0.0043047511035422,0.0042876272001589,0.0610703382423667,0.9981149729153912
2327,1649114730872041225,0,1317398100699223995,world,base_link,26.66529001481831,118.23131062462926,-0.4935073852499982,-0.0052025880552995,0.0034180107669206,0.0610056624043514,0.9981180087717736
2339,1649114730982334136,0,1317398100809225082,world,base_link,27.39452633832116,118.3253079163842,-0.4879379272399973,-0.0050132502486091,0.0029812865635256,0.0608932535864562,0.9981272418484662
2350,1649114731082180976,0,1317398100909200906,world,base_link,28.05492459051311,118.40782347414644,-0.4827880859299966,-0.0044510967028357,0.0030883922610739,0.0608504227388113,0.998132193461313
2362,1649114731192518234,0,1317398101019558906,world,base_link,28.77913396689109,118.49937836872414,-0.4780502319299984,-0.0040275733997046,0.0036127596796336,0.0606851002251269,0.998142297085277
2373,1649114731292357683,0,1317398101119256019,world,base_link,29.43047814699821,118.5844713607803,-0.4772186279300001,-0.0057966680575786,0.0031248709739586,0.0605347380025522,0.9981443679727842
2384,1649114731402324438,0,1317398101229166030,world,base_link,30.14324507769197,118.67755782417952,-0.4733657836899994,-0.0072264952409729,0.0031510363358232,0.0605853140252098,0.9981318893117328
2395,1649114731502249240,0,1317398101329197883,world,base_link,30.787915234803226,118.75740811927244,-0.4696121215799991,-0.0063712059119664,0.0039290441232374,0.0606226398118167,0.9981326895206626
2406,1649114731602204322,0,1317398101429162025,world,base_link,31.429482890525836,118.83621220709756,-0.4678497314399976,-0.0059980652774527,0.0041488302623676,0.0602279208405067,0.998158007517653
2418,1649114731712728500,0,1317398101539228916,world,base_link,32.13109795167111,118.92655860260128,-0.4647827148399983,-0.0075623033612426,0.0042238531209951,0.0585105511681991,0.9982492103852016
2429,1649114731812480449,0,1317398101639157056,world,base_link,32.76671524089761,119.00852790893988,-0.4613723754799963,-0.009683851856979,0.0042035687127755,0.056041870533346,0.9983726066806984
2441,1649114731922073602,0,1317398101749133110,world,base_link,33.46382830559742,119.08730973908678,-0.4626159667899969,-0.0080685718025247,0.0026139280638555,0.0529605215857018,0.9985605883883636
2452,1649114732022321701,0,1317398101849288940,world,base_link,34.10123188456055,119.1526313056238,-0.4639816284099964,-0.006702343464302,0.0010934468595499,0.0498987524579728,0.9987311938000084
2464,1649114732132833242,0,1317398101959369897,world,base_link,34.80717801232822,119.22576833656058,-0.4626159667899969,-0.0072395981960613,0.0001845018891379,0.0460244293671621,0.998914063410081
2475,1649114732232620477,0,1317398102059179067,world,base_link,35.45427970576566,119.29017473151907,-0.4585647582999996,-0.0089876027691551,0.0003002840575326,0.0430043123341643,0.999034414795914
2485,1649114732332852363,0,1317398102159178972,world,base_link,36.10472966497764,119.3466365262866,-0.4499359130799973,-0.0097047504398513,0.0007056783202763,0.0403853705252025,0.9991367982836736
2497,1649114732442481994,0,1317398102269167900,world,base_link,36.82466548110824,119.40307505754754,-0.4435958862299998,-0.0105983313339185,0.0003251558494129,0.0380340491013496,0.9992201863230976
2508,1649114732541958332,0,1317398102369322061,world,base_link,37.48600332054775,119.45492289215326,-0.4404678344699988,-0.0118915599337606,0.0005008056228027,0.0361227783306286,0.999276480700785
2520,1649114732652357339,0,1317398102479320049,world,base_link,38.22486663807649,119.508920466993,-0.4340286254799963,-0.011701016049173,0.0018441211935335,0.0346214591151302,0.9993302957527004
2531,1649114732752179384,0,1317398102579169034,world,base_link,38.90464821306523,119.5552733456716,-0.4269027709899973,-0.0109114818418846,0.0035630652408543,0.0337404122040553,0.9993647125621375
2543,1649114732862254619,0,1317398102689168930,world,base_link,39.66836365091149,119.61142644891515,-0.4217224121100003,-0.011501762830507,0.0056145514398327,0.0327583597222896,0.99938134670016
2554,1649114732962477922,0,1317398102789171934,world,base_link,40.36734134948347,119.6623638952151,-0.4245147704999965,-0.0116540064285174,0.0052680841431032,0.0320432885390722,0.9994046523221848
2565,1649114733063226699,0,1317398102889163970,world,base_link,41.07151457550936,119.70906755328178,-0.4297332763599968,-0.0110149597037327,0.0038780196438416,0.0316971903501424,0.9994292970241936
2576,1649114733172536134,0,1317398102999439954,world,base_link,41.85397280298639,119.75650537433104,-0.4320526122999979,-0.0079854411591377,0.0020304695293385,0.0315704086590298,0.9994675678680556
2587,1649114733272004842,0,1317398103099160909,world,base_link,42.569178048172034,119.79765985673292,-0.4316177368099971,-0.004237420799031,0.0004918549993363,0.0312429272324208,0.9995027172757368
2599,1649114733382220268,0,1317398103209153890,world,base_link,43.36037529364694,119.84753296151756,-0.4311904907199988,-0.0034767269863359,-0.0006130903465767,0.0308608040791914,0.999517457206864
2610,1649114733482127428,0,1317398103309153079,world,base_link,44.080225849407725,119.89614701271056,-0.4255447387700002,-0.0045381845514631,0.000394877098504,0.0305874878637781,0.999521712890339
2621,1649114733582021951,0,1317398103409131050,world,base_link,44.80060271336697,119.943144001998,-0.4158935546799966,-0.005140114583658,0.0032389635698516,0.0306593978570953,0.9995114254775184
2633,1649114733692395687,0,1317398103519362926,world,base_link,45.59005995467305,120.00175131019203,-0.3448410034099964,-0.0037230411357786,0.0041686736610979,0.0305628100197856,0.9995172213465372
2644,1649114733792306900,0,1317398103619149923,world,base_link,46.30676931864582,120.06575428554788,-0.2350540161099985,-0.0035878165452991,0.0044800808988477,0.0300899538267958,0.9995307154491444
2656,1649114733902485847,0,1317398103729150056,world,base_link,47.09184671239928,120.12887335941195,-0.1680450439399976,-0.0043352035914247,0.0040453091362313,0.0291645932931779,0.9995570358823236
2666,1649114734002495765,0,1317398103829152107,world,base_link,47.80586478940677,120.1864698654972,-0.0934906005799973,-0.0045563079742767,0.0034414755498507,0.0280724234519819,0.9995895834517364
2678,1649114734112745285,0,1317398103939141035,world,base_link,48.59056544967461,120.2400100263767,-0.0440139770499996,-0.0042068374395022,0.0036000849406381,0.0269182496625719,0.9996223035438342
2689,1649114734212796211,0,1317398104039166927,world,base_link,49.310641012503766,120.28681833064184,0.0110855102600027,-0.0038401466723543,0.0035697588270822,0.0260321066898474,0.9996473575800318
2700,1649114734312464237,0,1317398104139143943,world,base_link,50.033590224571526,120.33277435414492,0.0462799072300015,-0.0040082630561196,0.0036813921296012,0.0250179830495153,0.9996721871210557
2712,1649114734422334671,0,1317398104249313116,world,base_link,50.83319270587526,120.38447080180048,0.0836486816399997,-0.0052593295300923,0.0033536196704297,0.0241273659968735,0.9996894332231652
2723,1649114734521998405,0,1317398104349144935,world,base_link,51.56253919843584,120.42750562448056,0.1088638305700016,-0.0050527791129705,0.0026974035204678,0.0235261504939112,0.9997068138611546
2735,1649114734632467031,0,1317398104459327936,world,base_link,52.37043545488268,120.47695348225534,0.138465881350001,-0.0058778710992701,0.0025446910344893,0.0231427133422665,0.9997116534271456
2746,1649114734732741355,0,1317398104559192895,world,base_link,53.10749723378103,120.52140154270457,0.1564712524399993,-0.0058888840750263,0.0022473253194985,0.0224622141549854,0.99972782271402
2757,1649114734842321157,0,1317398104669109106,world,base_link,53.92441077611875,120.56890104152262,0.1809158325200002,-0.0057492195522037,0.0031253606792238,0.0219044037483691,0.9997386536948514
2768,1649114734942356109,0,1317398104769134044,world,base_link,54.67256021325011,120.6086681257002,0.1985321045000034,-0.0068108766069483,0.0039564489866196,0.0213674538921129,0.9997406615645028
2779,1649114735042569637,0,1317398104869278907,world,base_link,55.4260634490056,120.65046438388526,0.2126312255900018,-0.0084109091265749,0.0047911900915141,0.0205644987463392,0.9997416678804996
2791,1649114735152355909,0,1317398104979387044,world,base_link,56.26072635676246,120.69311882415786,0.2289581298900032,-0.0080305250028415,0.0052592319311407,0.0194759564245475,0.9997642413434392
2802,1649114735252347230,0,1317398105079202890,world,base_link,57.023341134539805,120.72880729613826,0.2363052368200016,-0.0073783471325274,0.0051302441119735,0.0186021907343078,0.9997865767696764
2814,1649114735362477302,0,1317398105189122915,world,base_link,57.86912953713909,120.7704591699876,0.2379837036200029,-0.0076784122456723,0.004533390133452,0.0174400450638235,0.9998081491903612
2825,1649114735461232662,0,1317398105289130926,world,base_link,58.64309720264282,120.8044268307276,0.239044189460003,-0.0072960217193302,0.0028045544489939,0.0166395929574879,0.9998309989631362
2837,1649114735572605133,0,1317398105399110078,world,base_link,59.50003270315938,120.83746427902952,0.2435989379900007,-0.0059648548301584,0.0007626986353758,0.0164997405828592,0.9998457867883151
2847,1649114735672338008,0,1317398105499269008,world,base_link,60.28515803872142,120.86857163440436,0.2461929321300004,-0.0052978768817166,-0.0009575892017222,0.015941119248408,0.999858438100402
2858,1649114735771922349,0,1317398105599109888,world,base_link,61.075654369429685,120.89934301329777,0.2541580200200002,-0.0046034185064648,-0.00131756859283,0.0160500402176366,0.9998597245414328
2870,1649114735882346391,0,1317398105709105968,world,base_link,61.95226624945644,120.9301814129576,0.2674865722700019,-0.0024606833161733,-0.0008085866045601,0.0162464932126794,0.9998646621836432
2881,1649114735982274770,0,1317398105809119939,world,base_link,62.75441877520643,120.96258422080427,0.2797622680700016,-0.0023098683367212,0.0001262963976537,0.0163302722195952,0.9998639761321142
2893,1649114736092178106,0,1317398105919178009,world,base_link,63.64106166979764,121.00040540052578,0.2865295410200019,-0.0025530931322137,0.0008824734333655,0.0167061728889336,0.9998567931176456
2904,1649114736192486763,0,1317398106019401073,world,base_link,64.45156232570298,121.03413371695206,0.294227600100001,-0.0031844102229673,0.0018774210557003,0.0175467338696887,0.9998392105494852
2916,1649114736302279472,0,1317398106129113912,world,base_link,65.34798801178113,121.07032881584018,0.3021087646500007,-0.0028073815754605,0.0037704202021937,0.0184243786846148,0.9998192060619132
2926,1649114736402097463,0,1317398106229084968,world,base_link,66.16632675274741,121.10500348126516,0.3082199096700009,-0.0026306518844622,0.0054378099658739,0.0192684781037547,0.9997960970342918
2937,1649114736502340555,0,1317398106329097032,world,base_link,66.9859035363188,121.1423043445684,0.3148422241199995,-0.0034459332072736,0.0057848252271692,0.0201233336385022,0.999774831041818
2949,1649114736612627983,0,1317398106439047098,world,base_link,67.8883038116619,121.18395410384984,0.3212280273500028,-0.0029183543758201,0.0037968939752317,0.0208813542972267,0.9997704915862398
2960,1649114736712506055,0,1317398106539124965,world,base_link,68.71085799287539,121.22219485789536,0.3206405639700023,-0.002664229639015,0.0007337406759966,0.0219344172273132,0.9997555925554752
2972,1649114736822277784,0,1317398106649281024,world,base_link,69.61852850648575,121.27091623377056,0.3232040405300012,-0.0032813996998028,-0.0011591613267587,0.0228114615842363,0.9997337275401984
2983,1649114736922281265,0,1317398106749234914,world,base_link,70.44730806071311,121.31559407012536,0.3372650146500007,-0.0041843560069184,-0.0003086113698339,0.0236648677421423,0.9997111432601802
2995,1649114737032458305,0,1317398106859083890,world,base_link,71.3619340750156,121.36508178664371,0.3540725707999996,-0.0040264905477183,0.0012588226394556,0.0241035295427641,0.9997005664712874
3006,1649114737132213354,0,1317398106959142923,world,base_link,72.19412244402338,121.40988285420462,0.3645935058600003,-0.0036904865111124,0.0021081189662961,0.0243925180185601,0.9996934236096832
3017,1649114737232436895,0,1317398107059170007,world,base_link,73.02569323231,121.4550029700622,0.3724441528400035,-0.0036264169856588,0.0020749193999118,0.0247426562857411,0.9996851228108056
3028,1649114737342111825,0,1317398107169044971,world,base_link,73.94100300152786,121.50561849446969,0.3815307617200005,-0.0042213214195271,0.0022637722571049,0.0249806391966314,0.9996764593837192
3039,1649114737442356824,0,1317398107269088029,world,base_link,74.77272747899406,121.55095312558116,0.3905715942400007,-0.0029633902933593,0.0029219114254215,0.0253198918612357,0.9996707377070344
3051,1649114737552143573,0,1317398107379023075,world,base_link,75.6861186317401,121.59852878330275,0.4011154174799998,-0.0018211327756028,0.0039066910894922,0.0258693331106288,0.9996560402681296
3062,1649114737652350902,0,1317398107479310989,world,base_link,76.51340560941026,121.64393844688313,0.4068527221700009,-0.0004369558319393,0.0033466811197526,0.0262381739910453,0.9996500222681431
3074,1649114737762448072,0,1317398107589067935,world,base_link,77.42061966634355,121.69270413322374,0.412384033210003,-0.0001485436666712,0.002064774771686,0.0266331500717417,0.9996431313009544
3085,1649114737861809730,0,1317398107689070940,world,base_link,78.2433468856616,121.73916701739654,0.416786193850001,-0.0015063866248776,0.0014162399702352,0.0270714352304643,0.9996313632826084
3096,1649114737962269067,0,1317398107789052963,world,base_link,79.06343507149722,121.78805460501462,0.4279632568400018,-0.003793599114652,0.0027246564588767,0.0272485038865392,0.9996177788979564
3108,1649114738072305679,0,1317398107899063110,world,base_link,79.96190715557896,121.84382088808344,0.4411773681700026,-0.0065282876158765,0.0040576729296802,0.0272511477563065,0.9995990654743352
3118,1649114738172206163,0,1317398107999245882,world,base_link,80.77324494894128,121.89429514622316,0.4482269287099996,-0.0081302744046516,0.0036895772216796,0.0267332702741932,0.999602730047531
3130,1649114738282056093,0,1317398108109056949,world,base_link,81.66078574897256,121.94932469865309,0.4489669799799998,-0.009760798862816,0.00100219795991,0.0260931729607472,0.9996113588438504
3141,1649114738382213830,0,1317398108209053039,world,base_link,82.46359289658722,121.99627639632672,0.4527359008800005,-0.0102075856831574,-0.0004511722445645,0.0257650457701388,0.9996158082256348
3152,1649114738482356071,0,1317398108309101104,world,base_link,83.2632183820242,122.0415440206416,0.4640274047900021,-0.0097796432207163,-0.0006223337032388,0.0255225179367626,0.9996262163215832
3164,1649114738592036962,0,1317398108419037103,world,base_link,84.13811796787195,122.08879450848326,0.4808197021500007,-0.009187201045718,-4.359493770173095e-05,0.0252611410016123,0.9996386688157496
3175,1649114738692339181,0,1317398108519258975,world,base_link,84.92875249835197,122.13155271206053,0.493927001960003,-0.0086718615266909,-0.0002296167510729,0.0249700151919699,0.9996505611638112
3187,1649114738802039384,0,1317398108629050016,world,base_link,85.79268616670743,122.17682790616529,0.5062637329099999,-0.0079602031192304,-0.0016437449094176,0.0247092617380265,0.9996616355814276
3198,1649114738902726888,0,1317398108729065895,world,base_link,86.57353568053804,122.21836479566991,0.518836975100001,-0.0080711973881564,-0.0025195210688906,0.0244309833532137,0.9996657615616832
3209,1649114739012658119,0,1317398108838996887,world,base_link,87.42753429769073,122.2649090574123,0.5330276489300019,-0.0089747268452889,-0.0026715544063637,0.023810166725812,0.999672642936474
3220,1649114739112347126,0,1317398108939059019,world,base_link,88.19887386634946,122.30696136970072,0.5490798950200002,-0.0098463598261587,-0.0024556349559252,0.0227879342138972,0.9996888161370018
3231,1649114739212233543,0,1317398109039114952,world,base_link,88.96474622131791,122.34676152653992,0.5649261474599996,-0.0101082002866088,-0.0025776998301058,0.021268400903643,0.9997193780624408
3243,1649114739322031497,0,1317398109149022102,world,base_link,89.80106318683829,122.38782619452104,0.5770492553699995,-0.0102684296784651,-0.0042312261315369,0.0196419917769486,0.9997453917055064
3254,1649114739422263145,0,1317398109249120950,world,base_link,90.5578156383708,122.42366540664808,0.5892105102600027,-0.010861017890062,-0.0050978029775884,0.0179717206207001,0.9997665067170056
3266,1649114739532256841,0,1317398109359025955,world,base_link,91.3860410868656,122.4600453064777,0.606643676760001,-0.0110467630708395,-0.0050660191914912,0.0162988723421006,0.9997933042562268
3277,1649114739632593631,0,1317398109459209918,world,base_link,92.13549371971747,122.49010101146996,0.6244201660200019,-0.010521679830858,-0.004173070571671,0.014863160621458,0.9998254678652077
3288,1649114739742135524,0,1317398109569066047,world,base_link,92.9566570079187,122.52013511862606,0.6396255493200016,-0.0097224670440131,-0.0045874594811157,0.013508377517579,0.9998509651877772
3299,1649114739842276573,0,1317398109669011116,world,base_link,93.69929943140596,122.54817611398175,0.6526031494200026,-0.0118581353778683,-0.0070822825961984,0.0125878046269751,0.999825371289037
3310,1649114739942425489,0,1317398109769007921,world,base_link,94.43851984175852,122.5741038909182,0.6668243408199999,-0.0134219517980165,-0.0103393025960045,0.0117942970665563,0.99978689958834
3322,1649114740052011728,0,1317398109879070997,world,base_link,95.25173528515734,122.59544731443748,0.6837234497100013,-0.0112499864531086,-0.0123312332717509,0.0104055226718683,0.9998065330796392
3333,1649114740152200222,0,1317398109979218006,world,base_link,95.9901843967382,122.61077445698902,0.7039413452200023,-0.0101489219665044,-0.0113324508071669,0.0090767351360651,0.9998430815987528
3345,1649114740262256383,0,1317398110089014053,world,base_link,96.801231140038,122.63199654081836,0.7386245727600027,-0.0109649618111929,-0.0072275711024268,0.0071597215913902,0.9998881288500092
3356,1649114740362082242,0,1317398110188988924,world,base_link,97.53427783271763,122.64713176200166,0.7644042968800022,-0.011781779431333,-0.0059538200409348,0.0060540783938672,0.9998945393566028
3368,1649114740472220182,0,1317398110299017906,world,base_link,98.33784459135497,122.6572570516728,0.7816009521500007,-0.0118242999614262,-0.0080130013019548,0.0052357463060607,0.9998842756545256
3379,1649114740572439193,0,1317398110398986101,world,base_link,99.06486878963187,122.67072578286752,0.7934188842800012,-0.0131195839417896,-0.0096565061807595,0.0040197276380158,0.999859225188872
3389,1649114740672232389,0,1317398110499128103,world,base_link,99.78952036623376,122.68461720552295,0.8106231689500021,-0.0136609274425178,-0.0110144565766151,0.0027889108574719,0.9998421289303432
3401,1649114740782349348,0,1317398110608995914,world,base_link,100.58236042654607,122.69364530267194,0.833000183110002,-0.0118836709041843,-0.0126589604511902,0.0017148892535074,0.9998477825354138
3412,1649114740882207155,0,1317398110709005117,world,base_link,101.30084419518244,122.70134767098352,0.8514785766599999,-0.0115092800530928,-0.014901090019264,0.0008813513843339,0.9998223428232812
3424,1649114740992067575,0,1317398110818979978,world,base_link,102.0889534438029,122.71284110378474,0.8720397949300036,-0.0119836160910862,-0.0164638704057707,-0.0007150006733151,0.9997923897943416
