%time,field.header.seq,field.header.stamp,field.header.frame_id,field.orientation.x,field.orientation.y,field.orientation.z,field.orientation.w,field.orientation_covariance0,field.orientation_covariance1,field.orientation_covariance2,field.orientation_covariance3,field.orientation_covariance4,field.orientation_covariance5,field.orientation_covariance6,field.orientation_covariance7,field.orientation_covariance8,field.angular_velocity.x,field.angular_velocity.y,field.angular_velocity.z,field.angular_velocity_covariance0,field.angular_velocity_covariance1,field.angular_velocity_covariance2,field.angular_velocity_covariance3,field.angular_velocity_covariance4,field.angular_velocity_covariance5,field.angular_velocity_covariance6,field.angular_velocity_covariance7,field.angular_velocity_covariance8,field.linear_acceleration.x,field.linear_acceleration.y,field.linear_acceleration.z,field.linear_acceleration_covariance0,field.linear_acceleration_covariance1,field.linear_acceleration_covariance2,field.linear_acceleration_covariance3,field.linear_acceleration_covariance4,field.linear_acceleration_covariance5,field.linear_acceleration_covariance6,field.linear_acceleration_covariance7,field.linear_acceleration_covariance8
1317398079239670991,0,1317398079239670991,imu_link,0.002042365133890266,0.019000332956041928,0.7650731688120114,0.643659741211276,0.0,0.0,0.0,0.0,0.0,0.0,0.0,0.0,0.0,0.026183376206899,-0.004796068021999,0.018404150494775,0.0,0.0,0.0,0.0,0.0,0.0,0.0,0.0,0.0,-0.1709051397732,-0.038488920206222,9.8072174425491,0.0,0.0,0.0,0.0,0.0,0.0,0.0,0.0,0.0
1317398079339673995,0,1317398079339673995,imu_link,0.0030228228837481594,0.019430927593746594,0.7655553981679666,0.6430693850048735,0.0,0.0,0.0,0.0,0.0,0.0,0.0,0.0,0.0,0.018204692439936,-0.0091004116403586,0.014189673014257,0.0,0.0,0.0,0.0,0.0,0.0,0.0,0.0,0.0,-0.19356392240636,0.35448882078581,9.8436795899993,0.0,0.0,0.0,0.0,0.0,0.0,0.0,0.0,0.0
1317398079449843883,0,1317398079449843883,imu_link,0.003741791544925939,0.019181032949467734,0.7659435944136599,0.6426106886348132,0.0,0.0,0.0,0.0,0.0,0.0,0.0,0.0,0.0,0.0060059975547899,-0.012525457680913,0.011431776298587,0.0,0.0,0.0,0.0,0.0,0.0,0.0,0.0,0.0,-0.18542528803177,0.13167144972592,9.9598370944041,0.0,0.0,0.0,0.0,0.0,0.0,0.0,0.0,0.0
1317398079549899101,0,1317398079549899101,imu_link,0.004222440114198012,0.018836578381997402,0.7665068116757021,0.6419459961469428,0.0,0.0,0.0,0.0,0.0,0.0,0.0,0.0,0.0,0.0033544222222857,-0.012636782674997,0.01744645072199,0.0,0.0,0.0,0.0,0.0,0.0,0.0,0.0,0.0,-0.13301845253387,-0.12566829577299,9.6777088045481,0.0,0.0,0.0,0.0,0.0,0.0,0.0,0.0,0.0
1317398079649661064,0,1317398079649661064,imu_link,0.00558342698222908,0.01902608756188675,0.7671074669118713,0.6412121080760046,0.0,0.0,0.0,0.0,0.0,0.0,0.0,0.0,0.0,0.018715255751765,-0.017803901617337,0.018703706540465,0.0,0.0,0.0,0.0,0.0,0.0,0.0,0.0,0.0,0.058843618174037,0.039801059268097,9.7828783318158,0.0,0.0,0.0,0.0,0.0,0.0,0.0,0.0,0.0
1317398079759722948,0,1317398079759722948,imu_link,0.007275532046067486,0.019310255481123924,0.767603293520704,0.6405929787648847,0.0,0.0,0.0,0.0,0.0,0.0,0.0,0.0,0.0,0.022822564916885,-0.020879078394115,0.014773224216409,0.0,0.0,0.0,0.0,0.0,0.0,0.0,0.0,0.0,0.47385535687467,0.10240361356535,9.9022641789734,0.0,0.0,0.0,0.0,0.0,0.0,0.0,0.0,0.0
1317398079859652042,0,1317398079859652042,imu_link,0.008006710297554086,0.019455379932677506,0.768015432918574,0.6400856783125067,0.0,0.0,0.0,0.0,0.0,0.0,0.0,0.0,0.0,0.014000591273228,-0.012088868417495,0.012847810692222,0.0,0.0,0.0,0.0,0.0,0.0,0.0,0.0,0.0,0.74031706185156,0.17386194151735,10.003618707101,0.0,0.0,0.0,0.0,0.0,0.0,0.0,0.0,0.0
1317398079969841003,0,1317398079969841003,imu_link,0.007797592177755103,0.01979824951149419,0.7684730007554335,0.6395283214858037,0.0,0.0,0.0,0.0,0.0,0.0,0.0,0.0,0.0,0.0031076763841974,0.0045178086127255,0.013879831282204,0.0,0.0,0.0,0.0,0.0,0.0,0.0,0.0,0.0,0.75975665598305,0.094287794428046,9.9833546555624,0.0,0.0,0.0,0.0,0.0,0.0,0.0,0.0,0.0
1317398080069680929,0,1317398080069680929,imu_link,0.007967037165941594,0.01984898376987516,0.7688232792576057,0.6391035201230559,0.0,0.0,0.0,0.0,0.0,0.0,0.0,0.0,0.0,0.0040521472716584,-0.0027366755568685,0.011131435928417,0.0,0.0,0.0,0.0,0.0,0.0,0.0,0.0,0.0,0.71705830339619,0.083521331137859,9.7923986772453,0.0,0.0,0.0,0.0,0.0,0.0,0.0,0.0,0.0
1317398080179646015,0,1317398080179646015,imu_link,0.008782965966202122,0.018759558102060925,0.7692302013944026,0.6386359179934831,0.0,0.0,0.0,0.0,0.0,0.0,0.0,0.0,0.0,-0.0041868459148147,-0.022620936806673,0.011887067172154,0.0,0.0,0.0,0.0,0.0,0.0,0.0,0.0,0.0,0.76528657014809,0.14249436725172,9.5822964314454,0.0,0.0,0.0,0.0,0.0,0.0,0.0,0.0,0.0
1317398080279638051,0,1317398080279638051,imu_link,0.009689936789657792,0.016922364865080742,0.7695994874253931,0.6382290871207278,0.0,0.0,0.0,0.0,0.0,0.0,0.0,0.0,0.0,-0.015662801697082,-0.03622834345482,0.011012599171384,0.0,0.0,0.0,0.0,0.0,0.0,0.0,0.0,0.0,0.87067454577991,0.13156754089446,9.506786106098,0.0,0.0,0.0,0.0,0.0,0.0,0.0,0.0,0.0
1317398080379646062,0,1317398080379646062,imu_link,0.010645263941384833,0.015167492838940654,0.7699859374762253,0.6377917227476829,0.0,0.0,0.0,0.0,0.0,0.0,0.0,0.0,0.0,-0.013927636956785,-0.036095881595218,0.010679812597318,0.0,0.0,0.0,0.0,0.0,0.0,0.0,0.0,0.0,1.03274963915,0.021009483939948,9.7627395986722,0.0,0.0,0.0,0.0,0.0,0.0,0.0,0.0,0.0
1317398080489717960,0,1317398080489717960,imu_link,0.010417231489430835,0.014342173544595382,0.7704014150726124,0.6373126728696272,0.0,0.0,0.0,0.0,0.0,0.0,0.0,0.0,0.0,-0.015376760455691,-0.0035744516948488,0.01226433606212,0.0,0.0,0.0,0.0,0.0,0.0,0.0,0.0,0.0,1.2721739524229,0.11361665367603,10.267640421454,0.0,0.0,0.0,0.0,0.0,0.0,0.0,0.0,0.0
1317398080589646100,0,1317398080589646100,imu_link,0.007333910686632056,0.015389910644880083,0.770766077392471,0.6368901148121285,0.0,0.0,0.0,0.0,0.0,0.0,0.0,0.0,0.0,-0.021589694395385,0.054169801894237,0.011800691844774,0.0,0.0,0.0,0.0,0.0,0.0,0.0,0.0,0.0,1.4073084399966,0.086961942953869,10.38511994355,0.0,0.0,0.0,0.0,0.0,0.0,0.0,0.0,0.0
1317398080699630022,0,1317398080699630022,imu_link,0.002786334024911922,0.018590057436752086,0.7710389433378013,0.6365104822104087,0.0,0.0,0.0,0.0,0.0,0.0,0.0,0.0,0.0,-0.011885553268043,0.093552926082637,0.010299589356717,0.0,0.0,0.0,0.0,0.0,0.0,0.0,0.0,0.0,1.237855163969,0.011031721552646,9.9346211441912,0.0,0.0,0.0,0.0,0.0,0.0,0.0,0.0,0.0
1317398080799640893,0,1317398080799640893,imu_link,-0.00018842213296609185,0.02047104818334363,0.771253538313527,0.6361987742225222,0.0,0.0,0.0,0.0,0.0,0.0,0.0,0.0,0.0,-0.0082100489278936,0.068068778109304,0.009191285405946,0.0,0.0,0.0,0.0,0.0,0.0,0.0,0.0,0.0,1.1366050315425,0.086842869910234,9.5262945795738,0.0,0.0,0.0,0.0,0.0,0.0,0.0,0.0,0.0
1317398080899650096,0,1317398080899650096,imu_link,-0.0010787141759468627,0.019738354142440774,0.7716697181589104,0.6357161944044072,0.0,0.0,0.0,0.0,0.0,0.0,0.0,0.0,0.0,-0.021763642794173,0.0068856192696771,0.012342830566678,0.0,0.0,0.0,0.0,0.0,0.0,0.0,0.0,0.0,1.1978250610711,0.17676882103019,8.2625408764342,0.0,0.0,0.0,0.0,0.0,0.0,0.0,0.0,0.0
1317398081009690999,0,1317398081009690999,imu_link,0.00114911961458418,0.01633943765743473,0.771986484767332,0.63542786344142,0.0,0.0,0.0,0.0,0.0,0.0,0.0,0.0,0.0,-0.021333511092456,-0.059591480849296,0.007414099349001,0.0,0.0,0.0,0.0,0.0,0.0,0.0,0.0,0.0,1.520906791288,0.06555130114973,8.9804453127425,0.0,0.0,0.0,0.0,0.0,0.0,0.0,0.0,0.0
1317398081109601974,0,1317398081109601974,imu_link,0.004049746045464869,0.014287501228100071,0.7722668717760325,0.6351246693546749,0.0,0.0,0.0,0.0,0.0,0.0,0.0,0.0,0.0,0.0039189830871673,-0.068770594469015,0.0079035723270388,0.0,0.0,0.0,0.0,0.0,0.0,0.0,0.0,0.0,1.6727394017581,-0.27702418833882,10.074161927392,0.0,0.0,0.0,0.0,0.0,0.0,0.0,0.0,0.0
1317398081219624996,0,1317398081219624996,imu_link,0.004481754988121975,0.015434033355784242,0.772681061209575,0.6345909565496847,0.0,0.0,0.0,0.0,0.0,0.0,0.0,0.0,0.0,0.020663019517297,0.0056372660993459,0.010892494047997,0.0,0.0,0.0,0.0,0.0,0.0,0.0,0.0,0.0,1.9945030434295,0.02915427068781,11.235228951651,0.0,0.0,0.0,0.0,0.0,0.0,0.0,0.0,0.0
1317398081319645881,0,1317398081319645881,imu_link,0.0011287833786222147,0.018801018913398772,0.7727950492798263,0.6343761182015705,0.0,0.0,0.0,0.0,0.0,0.0,0.0,0.0,0.0,0.0082829265755056,0.080326748484618,0.0066677113340298,0.0,0.0,0.0,0.0,0.0,0.0,0.0,0.0,0.0,1.7686602861504,0.20939328554958,10.328460930786,0.0,0.0,0.0,0.0,0.0,0.0,0.0,0.0,0.0
1317398081429598093,0,1317398081429598093,imu_link,-0.0018728400972039295,0.02160269934193499,0.7729140626975065,0.634140100873259,0.0,0.0,0.0,0.0,0.0,0.0,0.0,0.0,0.0,0.0079105623071455,0.067305413471774,0.0062361817272423,0.0,0.0,0.0,0.0,0.0,0.0,0.0,0.0,0.0,1.5520309298594,0.089384493496958,8.9510309482552,0.0,0.0,0.0,0.0,0.0,0.0,0.0,0.0,0.0
1317398081529654026,0,1317398081529654026,imu_link,-0.002621897474997647,0.022803361724344332,0.7730330235503714,0.6339503741210901,0.0,0.0,0.0,0.0,0.0,0.0,0.0,0.0,0.0,0.0098102084849206,0.031129404530572,0.0047279275769265,0.0,0.0,0.0,0.0,0.0,0.0,0.0,0.0,0.0,1.5682190673302,-0.038851801268543,9.1743448110123,0.0,0.0,0.0,0.0,0.0,0.0,0.0,0.0,0.0
1317398081629601955,0,1317398081629601955,imu_link,-0.0016168690069228806,0.023335919343331662,0.7730921641801517,0.6338622297362931,0.0,0.0,0.0,0.0,0.0,0.0,0.0,0.0,0.0,0.017931992175331,-0.0049074551758924,0.0014933017501215,0.0,0.0,0.0,0.0,0.0,0.0,0.0,0.0,0.0,1.5990528187496,-0.010956106159663,9.1029412519415,0.0,0.0,0.0,0.0,0.0,0.0,0.0,0.0,0.0
1317398081739624023,0,1317398081739624023,imu_link,-0.0002914982671934196,0.022731639564606332,0.7729907636312401,0.6340098318892677,0.0,0.0,0.0,0.0,0.0,0.0,0.0,0.0,0.0,0.0051430910923809,-0.022028314274619,-0.003614124390405,0.0,0.0,0.0,0.0,0.0,0.0,0.0,0.0,0.0,1.7042463871659,0.12184099363372,9.6644862297651,0.0,0.0,0.0,0.0,0.0,0.0,0.0,0.0,0.0
1317398081839612960,0,1317398081839612960,imu_link,0.00020837331365480653,0.020760097307228526,0.7728303139525325,0.6342730333037868,0.0,0.0,0.0,0.0,0.0,0.0,0.0,0.0,0.0,-0.017626951245032,-0.033972940553707,-0.0063156276789101,0.0,0.0,0.0,0.0,0.0,0.0,0.0,0.0,0.0,1.5762318036453,0.046587008168797,9.9267347372105,0.0,0.0,0.0,0.0,0.0,0.0,0.0,0.0,0.0
1317398081949678897,0,1317398081949678897,imu_link,0.0032332323363429803,0.020017458830054412,0.7724796036934409,0.6347157705841809,0.0,0.0,0.0,0.0,0.0,0.0,0.0,0.0,0.0,0.020240598712317,-0.048711833359753,-0.010124554527953,0.0,0.0,0.0,0.0,0.0,0.0,0.0,0.0,0.0,1.5080589139026,-0.392723214734,10.077006297025,0.0,0.0,0.0,0.0,0.0,0.0,0.0,0.0,0.0
1317398082049709081,0,1317398082049709081,imu_link,0.006387077683556373,0.01916488824351849,0.7722664485800229,0.6349775151096899,0.0,0.0,0.0,0.0,0.0,0.0,0.0,0.0,0.0,0.026636032250531,-0.055772729165923,-0.0081265021519123,0.0,0.0,0.0,0.0,0.0,0.0,0.0,0.0,0.0,1.5644028793183,-0.11783450204625,10.017631859479,0.0,0.0,0.0,0.0,0.0,0.0,0.0,0.0,0.0
1317398082159647941,0,1317398082159647941,imu_link,0.008536655248866369,0.01696010414550647,0.7718855412232588,0.6354779237983114,0.0,0.0,0.0,0.0,0.0,0.0,0.0,0.0,0.0,-0.008374251261223,-0.053207357624347,-0.011085508671496,0.0,0.0,0.0,0.0,0.0,0.0,0.0,0.0,0.0,1.5797703766536,0.28553479303375,10.29836732208,0.0,0.0,0.0,0.0,0.0,0.0,0.0,0.0,0.0
1317398082259574890,0,1317398082259574890,imu_link,0.008495521867011043,0.016203385123525964,0.771821185833116,0.6355763789804563,0.0,0.0,0.0,0.0,0.0,0.0,0.0,0.0,0.0,-0.007194322147432,-0.01055768142789,-0.002690446176415,0.0,0.0,0.0,0.0,0.0,0.0,0.0,0.0,0.0,1.4599992351291,-0.040951818056346,10.718009253934,0.0,0.0,0.0,0.0,0.0,0.0,0.0,0.0,0.0
1317398082359594106,0,1317398082359594106,imu_link,0.008146389998930397,0.016265382932925707,0.7719082649361227,0.6354736061956745,0.0,0.0,0.0,0.0,0.0,0.0,0.0,0.0,0.0,-0.0035729733919708,0.0031011189200479,0.001614191907329,0.0,0.0,0.0,0.0,0.0,0.0,0.0,0.0,0.0,1.3982496682835,-0.039741973305224,10.168010251748,0.0,0.0,0.0,0.0,0.0,0.0,0.0,0.0,0.0
1317398082469732046,0,1317398082469732046,imu_link,0.008111325284689108,0.015431338052029672,0.7719032983879854,0.6355008876042574,0.0,0.0,0.0,0.0,0.0,0.0,0.0,0.0,0.0,-0.013126675311433,-0.013286718413332,0.00011397356813812,0.0,0.0,0.0,0.0,0.0,0.0,0.0,0.0,0.0,1.1774840761469,0.17514443582012,9.5147720070028,0.0,0.0,0.0,0.0,0.0,0.0,0.0,0.0,0.0
1317398082569617033,0,1317398082569617033,imu_link,0.008107609583669084,0.013757679962519465,0.7718737582191513,0.6355752467501633,0.0,0.0,0.0,0.0,0.0,0.0,0.0,0.0,0.0,-0.025513159244405,-0.018664432893165,-0.0010961362146198,0.0,0.0,0.0,0.0,0.0,0.0,0.0,0.0,0.0,1.1725291781166,0.13574041686286,9.7726287185528,0.0,0.0,0.0,0.0,0.0,0.0,0.0,0.0,0.0
1317398082679593086,0,1317398082679593086,imu_link,0.007268107422279202,0.012046285223706285,0.7719105580194944,0.6355754495296685,0.0,0.0,0.0,0.0,0.0,0.0,0.0,0.0,0.0,-0.032566737464178,-0.0085057726319527,0.0012124966667731,0.0,0.0,0.0,0.0,0.0,0.0,0.0,0.0,0.0,1.0088251040315,0.010505833989922,10.207341664307,0.0,0.0,0.0,0.0,0.0,0.0,0.0,0.0,0.0
1317398082779612064,0,1317398082779612064,imu_link,0.006658377203384414,0.011437110608801808,0.7718953063444128,0.6356119056133269,0.0,0.0,0.0,0.0,0.0,0.0,0.0,0.0,0.0,-0.020147296944352,-8.1064826794019e-05,0.00013750629828884,0.0,0.0,0.0,0.0,0.0,0.0,0.0,0.0,0.0,0.89510722820904,-0.098396779044967,10.065188395804,0.0,0.0,0.0,0.0,0.0,0.0,0.0,0.0,0.0
1317398082889604091,0,1317398082889604091,imu_link,0.006339222777201971,0.011136114868608087,0.7719775470618571,0.63552062754294,0.0,0.0,0.0,0.0,0.0,0.0,0.0,0.0,0.0,-0.008316114562894,0.00030685311460393,0.0016881110240115,0.0,0.0,0.0,0.0,0.0,0.0,0.0,0.0,0.0,0.7581266335815,-0.063359030295098,9.7263830050962,0.0,0.0,0.0,0.0,0.0,0.0,0.0,0.0,0.0
1317398082989825963,0,1317398082989825963,imu_link,0.006370517117779802,0.011089385299466471,0.7720354511908268,0.6354507881417005,0.0,0.0,0.0,0.0,0.0,0.0,0.0,0.0,0.0,-0.0024934347921369,0.00017565899853776,0.0023739356176569,0.0,0.0,0.0,0.0,0.0,0.0,0.0,0.0,0.0,0.74933314804616,-0.02591986311478,9.8994528346498,0.0,0.0,0.0,0.0,0.0,0.0,0.0,0.0,0.0
1317398083089576959,0,1317398083089576959,imu_link,0.005723936791870086,0.011150783107152125,0.7721527616305528,0.6353133158450331,0.0,0.0,0.0,0.0,0.0,0.0,0.0,0.0,0.0,-0.00746082339703,0.0094887569062763,0.0040181447471732,0.0,0.0,0.0,0.0,0.0,0.0,0.0,0.0,0.0,0.77385392363749,0.06402636718761,9.8221982522882,0.0,0.0,0.0,0.0,0.0,0.0,0.0,0.0,0.0
1317398083199584007,0,1317398083199584007,imu_link,0.004735185735287327,0.011519205214124226,0.7722631493074471,0.6351806940934451,0.0,0.0,0.0,0.0,0.0,0.0,0.0,0.0,0.0,-0.0074082595917185,0.017249112202287,0.0033670108021169,0.0,0.0,0.0,0.0,0.0,0.0,0.0,0.0,0.0,0.79893113926629,0.087441820141061,9.6935195919724,0.0,0.0,0.0,0.0,0.0,0.0,0.0,0.0,0.0
1317398083299561023,0,1317398083299561023,imu_link,0.004051098073666879,0.011683300149832957,0.7723762950112423,0.6350448393670426,0.0,0.0,0.0,0.0,0.0,0.0,0.0,0.0,0.0,-0.0048587775540455,0.011590024418712,0.0033894223829738,0.0,0.0,0.0,0.0,0.0,0.0,0.0,0.0,0.0,0.68473841141506,0.04806147765365,9.6977927365065,0.0,0.0,0.0,0.0,0.0,0.0,0.0,0.0,0.0
1317398083409584999,0,1317398083409584999,imu_link,0.004386327136761767,0.011463944184870307,0.7723917395328527,0.6350278252323983,0.0,0.0,0.0,0.0,0.0,0.0,0.0,0.0,0.0,-0.00090540659579955,-0.0048990121799862,0.0016541078448936,0.0,0.0,0.0,0.0,0.0,0.0,0.0,0.0,0.0,0.70543274147795,0.053445992558619,9.5243533431969,0.0,0.0,0.0,0.0,0.0,0.0,0.0,0.0,0.0
1317398083509615898,0,1317398083509615898,imu_link,0.004491881432638896,0.010691466850872175,0.7724516003004914,0.634967747788013,0.0,0.0,0.0,0.0,0.0,0.0,0.0,0.0,0.0,-0.0081178485871466,-0.0088878578585526,0.0016430994864053,0.0,0.0,0.0,0.0,0.0,0.0,0.0,0.0,0.0,0.77354847285017,0.10921612419136,9.7189498416628,0.0,0.0,0.0,0.0,0.0,0.0,0.0,0.0,0.0
1317398083609576940,0,1317398083609576940,imu_link,0.00430713884819644,0.010961630443613282,0.7725491365316546,0.6348457472939035,0.0,0.0,0.0,0.0,0.0,0.0,0.0,0.0,0.0,0.0012659293462057,0.0080497840317867,0.002515841534044,0.0,0.0,0.0,0.0,0.0,0.0,0.0,0.0,0.0,0.78911633051267,-0.060815954035778,10.157870413949,0.0,0.0,0.0,0.0,0.0,0.0,0.0,0.0,0.0
1317398083719604015,0,1317398083719604015,imu_link,0.0034560711372346384,0.012187621387710337,0.7727761265523053,0.6345522639531115,0.0,0.0,0.0,0.0,0.0,0.0,0.0,0.0,0.0,0.0065779167204115,0.024220965770131,0.0059431563786779,0.0,0.0,0.0,0.0,0.0,0.0,0.0,0.0,0.0,0.73382021322614,0.049604042660854,9.7992681759585,0.0,0.0,0.0,0.0,0.0,0.0,0.0,0.0,0.0
1317398083819546937,0,1317398083819546937,imu_link,0.002107450148015432,0.013199862916809468,0.7728823145320203,0.6344085829782558,0.0,0.0,0.0,0.0,0.0,0.0,0.0,0.0,0.0,-3.7876864437142e-05,0.032788858489082,0.0039004251200952,0.0,0.0,0.0,0.0,0.0,0.0,0.0,0.0,0.0,0.693304753955,0.11912294475794,9.6870683596978,0.0,0.0,0.0,0.0,0.0,0.0,0.0,0.0,0.0
1317398083929575920,0,1317398083929575920,imu_link,0.0010390309833483114,0.014006818334327662,0.7730559099217855,0.6341823788073624,0.0,0.0,0.0,0.0,0.0,0.0,0.0,0.0,0.0,0.00033228215928933,0.022994399824271,0.0051146342663312,0.0,0.0,0.0,0.0,0.0,0.0,0.0,0.0,0.0,0.65268340314602,-0.0038813397563763,9.4971999662917,0.0,0.0,0.0,0.0,0.0,0.0,0.0,0.0,0.0
1317398084029737949,0,1317398084029737949,imu_link,0.0008232522899044199,0.014236511307146479,0.7732181535439232,0.633979756010864,0.0,0.0,0.0,0.0,0.0,0.0,0.0,0.0,0.0,-0.00021135649104148,0.0073846833452072,0.0051696272201275,0.0,0.0,0.0,0.0,0.0,0.0,0.0,0.0,0.0,0.61483665965464,0.020887276658093,9.4135897301957,0.0,0.0,0.0,0.0,0.0,0.0,0.0,0.0,0.0
1317398084139569997,0,1317398084139569997,imu_link,0.0016184035168345066,0.013934667636752555,0.7733406661633805,0.6338354832808658,0.0,0.0,0.0,0.0,0.0,0.0,0.0,0.0,0.0,0.0046838840707433,-0.010886068032681,0.0044736760441575,0.0,0.0,0.0,0.0,0.0,0.0,0.0,0.0,0.0,0.5673142001757,0.051553590356241,9.7145199111279,0.0,0.0,0.0,0.0,0.0,0.0,0.0,0.0,0.0
1317398084239552021,0,1317398084239552021,imu_link,0.0016737858161150277,0.013755231782642529,0.7734474903837881,0.633708901356662,0.0,0.0,0.0,0.0,0.0,0.0,0.0,0.0,0.0,-0.0014921624518319,8.1917947270174e-05,0.0056633057061445,0.0,0.0,0.0,0.0,0.0,0.0,0.0,0.0,0.0,0.26537349594868,0.10312420066068,10.123057866408,0.0,0.0,0.0,0.0,0.0,0.0,0.0,0.0,0.0
1317398084339576005,0,1317398084339576005,imu_link,0.001448082081269223,0.01409836383990442,0.7736062535408748,0.6335080928273732,0.0,0.0,0.0,0.0,0.0,0.0,0.0,0.0,0.0,0.0031630153949487,0.0084668933448384,0.0055420707949678,0.0,0.0,0.0,0.0,0.0,0.0,0.0,0.0,0.0,0.10198634626457,0.0096645780196489,10.061337844549,0.0,0.0,0.0,0.0,0.0,0.0,0.0,0.0,0.0
1317398084449598073,0,1317398084449598073,imu_link,0.0006279258492754214,0.0148416728725842,0.773861713383722,0.6331803684687966,0.0,0.0,0.0,0.0,0.0,0.0,0.0,0.0,0.0,0.0019513040346932,0.019431290813301,0.0071223477613776,0.0,0.0,0.0,0.0,0.0,0.0,0.0,0.0,0.0,-0.016255738386112,0.14471831804477,9.8391427030801,0.0,0.0,0.0,0.0,0.0,0.0,0.0,0.0,0.0
1317398084549599885,0,1317398084549599885,imu_link,-0.000256566484411907,0.015555311566761893,0.7740364484142683,0.6329498739883955,0.0,0.0,0.0,0.0,0.0,0.0,0.0,0.0,0.0,0.00050720383719549,0.020903780066312,0.0064760224556232,0.0,0.0,0.0,0.0,0.0,0.0,0.0,0.0,0.0,-0.13786853893846,0.067758284482599,9.6437109178371,0.0,0.0,0.0,0.0,0.0,0.0,0.0,0.0,0.0
1317398084659543037,0,1317398084659543037,imu_link,-0.0009151476349805558,0.015107456324597583,0.7742070577456611,0.6327514195993661,0.0,0.0,0.0,0.0,0.0,0.0,0.0,0.0,0.0,-0.012647596731794,0.0019299188852375,0.0050243568865546,0.0,0.0,0.0,0.0,0.0,0.0,0.0,0.0,0.0,-0.059803394734608,0.081356770737952,9.4332491206143,0.0,0.0,0.0,0.0,0.0,0.0,0.0,0.0,0.0
1317398084759555101,0,1317398084759555101,imu_link,0.0003425702901650408,0.013563844831730513,0.7743361625098402,0.6326289688186207,0.0,0.0,0.0,0.0,0.0,0.0,0.0,0.0,0.0,-0.010540994936091,-0.034067482249042,0.0035601828898724,0.0,0.0,0.0,0.0,0.0,0.0,0.0,0.0,0.0,-0.0083169023922492,0.020399698704644,9.6126187503665,0.0,0.0,0.0,0.0,0.0,0.0,0.0,0.0,0.0
1317398084869721889,0,1317398084869721889,imu_link,0.0016078735396838914,0.01150210595961423,0.7743759700554563,0.6326191376348375,0.0,0.0,0.0,0.0,0.0,0.0,0.0,0.0,0.0,-0.014009517900964,-0.039891199155667,-0.00035442270558958,0.0,0.0,0.0,0.0,0.0,0.0,0.0,0.0,0.0,0.17151739807636,0.021276787686096,10.036907814027,0.0,0.0,0.0,0.0,0.0,0.0,0.0,0.0,0.0
1317398084969672918,0,1317398084969672918,imu_link,0.0015669431172850613,0.011054053377683259,0.7744303257251967,0.6325606873576292,0.0,0.0,0.0,0.0,0.0,0.0,0.0,0.0,0.0,-0.0045140318741146,-0.0075798276395028,0.00082182430362607,0.0,0.0,0.0,0.0,0.0,0.0,0.0,0.0,0.0,0.36806501840907,-0.21665630236461,10.610562354962,0.0,0.0,0.0,0.0,0.0,0.0,0.0,0.0,0.0
1317398085069590091,0,1317398085069590091,imu_link,0.0005295251823829701,0.011892233339018607,0.7743679277941453,0.6326235901332585,0.0,0.0,0.0,0.0,0.0,0.0,0.0,0.0,0.0,-0.0039304118117616,0.016526146052684,-0.00018685485262055,0.0,0.0,0.0,0.0,0.0,0.0,0.0,0.0,0.0,0.11889051392311,-0.091795871346497,9.8846173483849,0.0,0.0,0.0,0.0,0.0,0.0,0.0,0.0,0.0
1317398085179549932,0,1317398085179549932,imu_link,-0.0006685206765829031,0.012322121555560867,0.7743142183660634,0.6326809698707773,0.0,0.0,0.0,0.0,0.0,0.0,0.0,0.0,0.0,-0.0040471235944103,0.020106141036011,-0.0025765848595902,0.0,0.0,0.0,0.0,0.0,0.0,0.0,0.0,0.0,0.064150626654553,-0.094160291396891,9.757150080912,0.0,0.0,0.0,0.0,0.0,0.0,0.0,0.0,0.0
1317398085279772996,0,1317398085279772996,imu_link,-0.00048184404380709634,0.013552064817684473,0.7742751764262368,0.6327037699710778,0.0,0.0,0.0,0.0,0.0,0.0,0.0,0.0,0.0,0.022121743005626,0.010099403682942,-0.00071607979611821,0.0,0.0,0.0,0.0,0.0,0.0,0.0,0.0,0.0,-0.17956182332958,0.28968893009938,9.3786915224157,0.0,0.0,0.0,0.0,0.0,0.0,0.0,0.0,0.0
1317398085389530897,0,1317398085389530897,imu_link,-0.0008552947421505992,0.01327491323826307,0.7741705595281949,0.6328372538885666,0.0,0.0,0.0,0.0,0.0,0.0,0.0,0.0,0.0,0.0010319263848057,0.0095729442615434,-0.0039828602766222,0.0,0.0,0.0,0.0,0.0,0.0,0.0,0.0,0.0,-0.073321697932861,0.19087509998312,9.5598481736579,0.0,0.0,0.0,0.0,0.0,0.0,0.0,0.0,0.0
1317398085489763975,0,1317398085489763975,imu_link,0.0008552778269442793,0.013183102125046229,0.7740206615351576,0.6330225034190149,0.0,0.0,0.0,0.0,0.0,0.0,0.0,0.0,0.0,0.020459407208946,-0.016436058608555,-0.0052567039999124,0.0,0.0,0.0,0.0,0.0,0.0,0.0,0.0,0.0,-0.19097916001328,0.32757125429165,9.9320895491717,0.0,0.0,0.0,0.0,0.0,0.0,0.0,0.0,0.0
1317398085589530944,0,1317398085589530944,imu_link,0.0013990820332723175,0.011938247708067336,0.7740034908716037,0.6330672293917101,0.0,0.0,0.0,0.0,0.0,0.0,0.0,0.0,0.0,4.3562351740914e-05,-0.023729304805336,-0.0023698838133154,0.0,0.0,0.0,0.0,0.0,0.0,0.0,0.0,0.0,-0.0048927420941235,-0.11393011904405,10.090097011025,0.0,0.0,0.0,0.0,0.0,0.0,0.0,0.0,0.0
1317398085699522018,0,1317398085699522018,imu_link,0.0025220807068488263,0.011639834789808007,0.7739634300352668,0.6331182846222484,0.0,0.0,0.0,0.0,0.0,0.0,0.0,0.0,0.0,0.0088517589126198,-0.021689866147996,-0.00077885728198401,0.0,0.0,0.0,0.0,0.0,0.0,0.0,0.0,0.0,-0.038821586039036,-0.23206854018345,10.035844806367,0.0,0.0,0.0,0.0,0.0,0.0,0.0,0.0,0.0
1317398085799509048,0,1317398085799509048,imu_link,0.004039663713783859,0.0112050053251431,0.7739399310130963,0.6331469909556444,0.0,0.0,0.0,0.0,0.0,0.0,0.0,0.0,0.0,0.014710570577092,-0.024752127812699,-0.0017686953542473,0.0,0.0,0.0,0.0,0.0,0.0,0.0,0.0,0.0,-0.011229581570503,-0.045745562100371,9.8794764967848,0.0,0.0,0.0,0.0,0.0,0.0,0.0,0.0,0.0
1317398085909544944,0,1317398085909544944,imu_link,0.005583084057012782,0.011042932459110257,0.773874020993923,0.6332186687439127,0.0,0.0,0.0,0.0,0.0,0.0,0.0,0.0,0.0,0.014657950986581,-0.018483684051632,-0.0028378338855424,0.0,0.0,0.0,0.0,0.0,0.0,0.0,0.0,0.0,0.11057383220958,-0.027528898668804,10.213922377641,0.0,0.0,0.0,0.0,0.0,0.0,0.0,0.0,0.0
1317398086009665012,0,1317398086009665012,imu_link,0.005285496070085389,0.012196194118062977,0.7738172960945828,0.6332693807892471,0.0,0.0,0.0,0.0,0.0,0.0,0.0,0.0,0.0,0.015823060116799,0.015655771831981,-0.0032450714392699,0.0,0.0,0.0,0.0,0.0,0.0,0.0,0.0,0.0,0.19354587688621,-0.037307625025122,10.175801532922,0.0,0.0,0.0,0.0,0.0,0.0,0.0,0.0,0.0
1317398086119570016,0,1317398086119570016,imu_link,0.003264497349817273,0.014788533874608913,0.773798518476918,0.6332507363800058,0.0,0.0,0.0,0.0,0.0,0.0,0.0,0.0,0.0,0.014393728444787,0.053911924689995,-0.00026967545143895,0.0,0.0,0.0,0.0,0.0,0.0,0.0,0.0,0.0,0.18237044767285,-0.015151372097371,9.7722804130103,0.0,0.0,0.0,0.0,0.0,0.0,0.0,0.0,0.0
1317398086219512939,0,1317398086219512939,imu_link,0.0013926965124581962,0.017103406002323702,0.7737006071820536,0.6333189594080264,0.0,0.0,0.0,0.0,0.0,0.0,0.0,0.0,0.0,0.013500004621702,0.053780284505116,-0.0012904183041577,0.0,0.0,0.0,0.0,0.0,0.0,0.0,0.0,0.0,0.063818250543249,0.0013610100877484,9.1877791917447,0.0,0.0,0.0,0.0,0.0,0.0,0.0,0.0,0.0
1317398086319509029,0,1317398086319509029,imu_link,0.0013388703335864664,0.018171286750529522,0.7736395681363855,0.6333639004378186,0.0,0.0,0.0,0.0,0.0,0.0,0.0,0.0,0.0,0.017950043177193,0.016099587170293,-0.0016908991770606,0.0,0.0,0.0,0.0,0.0,0.0,0.0,0.0,0.0,-0.058661889329469,-0.044482492153524,9.0200949035604,0.0,0.0,0.0,0.0,0.0,0.0,0.0,0.0,0.0
1317398086429521083,0,1317398086429521083,imu_link,0.0036845446829649334,0.01833527673538974,0.7735277690904718,0.6334864104331154,0.0,0.0,0.0,0.0,0.0,0.0,0.0,0.0,0.0,0.029030182252701,-0.02418051921199,-0.0042893202318545,0.0,0.0,0.0,0.0,0.0,0.0,0.0,0.0,0.0,0.14037840391321,-0.091068313912114,9.4062916545104,0.0,0.0,0.0,0.0,0.0,0.0,0.0,0.0,0.0
1317398086529572010,0,1317398086529572010,imu_link,0.0054792163355747376,0.01803238801163411,0.7734956510904065,0.6335213405365079,0.0,0.0,0.0,0.0,0.0,0.0,0.0,0.0,0.0,0.017900149452807,-0.026381144526796,-0.0023454497031027,0.0,0.0,0.0,0.0,0.0,0.0,0.0,0.0,0.0,0.055535374353209,0.2065587472741,9.9797050555083,0.0,0.0,0.0,0.0,0.0,0.0,0.0,0.0,0.0
1317398086639507055,0,1317398086639507055,imu_link,0.006369382674631894,0.015943810325163437,0.7735307511444222,0.6335261659241908,0.0,0.0,0.0,0.0,0.0,0.0,0.0,0.0,0.0,-0.01560447148525,-0.033840704172645,-0.0010634254454882,0.0,0.0,0.0,0.0,0.0,0.0,0.0,0.0,0.0,0.064747494446133,0.18128019629288,10.231563945401,0.0,0.0,0.0,0.0,0.0,0.0,0.0,0.0,0.0
1317398086739523887,0,1317398086739523887,imu_link,0.008306420243505166,0.014745855869832793,0.7735013944057765,0.6335685882126135,0.0,0.0,0.0,0.0,0.0,0.0,0.0,0.0,0.0,0.01105614215772,-0.043479398884787,-0.00152253718941,0.0,0.0,0.0,0.0,0.0,0.0,0.0,0.0,0.0,0.019251641036243,0.45629533192892,10.134221933872,0.0,0.0,0.0,0.0,0.0,0.0,0.0,0.0,0.0
1317398086839589118,0,1317398086839589118,imu_link,0.007695993521492689,0.013221399799223243,0.7733695683091196,0.6337708395661891,0.0,0.0,0.0,0.0,0.0,0.0,0.0,0.0,0.0,-0.021729732818965,-0.0088308279097628,-0.0035217340262359,0.0,0.0,0.0,0.0,0.0,0.0,0.0,0.0,0.0,0.15032795531399,0.19210854684045,10.490888955467,0.0,0.0,0.0,0.0,0.0,0.0,0.0,0.0,0.0
1317398086949579000,0,1317398086949579000,imu_link,0.004586609205751041,0.012540677081029416,0.7730868873378138,0.6341595690838968,0.0,0.0,0.0,0.0,0.0,0.0,0.0,0.0,0.0,-0.036786241067809,0.030752337794843,-0.0063766388030946,0.0,0.0,0.0,0.0,0.0,0.0,0.0,0.0,0.0,0.097690104777706,-0.21020193528471,10.023111357511,0.0,0.0,0.0,0.0,0.0,0.0,0.0,0.0,0.0
1317398087049614906,0,1317398087049614906,imu_link,0.003186344000115208,0.012776962929383781,0.7730592525028533,0.6341971212091267,0.0,0.0,0.0,0.0,0.0,0.0,0.0,0.0,0.0,-0.016633561443059,0.023176948036534,-0.0011186719679107,0.0,0.0,0.0,0.0,0.0,0.0,0.0,0.0,0.0,0.025774428831276,-0.35917928138687,9.3062406288348,0.0,0.0,0.0,0.0,0.0,0.0,0.0,0.0,0.0
1317398087159513950,0,1317398087159513950,imu_link,0.0033265905627783317,0.013184417868465874,0.7731045186258695,0.6341328789780261,0.0,0.0,0.0,0.0,0.0,0.0,0.0,0.0,0.0,0.0039803595031542,0.0068447245263994,0.0011940852496432,0.0,0.0,0.0,0.0,0.0,0.0,0.0,0.0,0.0,-0.012804913269452,0.011177674275023,9.8804367457027,0.0,0.0,0.0,0.0,0.0,0.0,0.0,0.0,0.0
1317398087259489059,0,1317398087259489059,imu_link,0.0034468694038839384,0.01402002370546826,0.7730396807281964,0.6341933538332445,0.0,0.0,0.0,0.0,0.0,0.0,0.0,0.0,0.0,0.014153480861389,0.0080002082885543,-0.00036723519866436,0.0,0.0,0.0,0.0,0.0,0.0,0.0,0.0,0.0,-0.06079682513977,-0.01695488364878,9.8606690668978,0.0,0.0,0.0,0.0,0.0,0.0,0.0,0.0,0.0
1317398087369647026,0,1317398087369647026,imu_link,0.0032774994431875376,0.014969526102131793,0.7731256170291557,0.6340677815336186,0.0,0.0,0.0,0.0,0.0,0.0,0.0,0.0,0.0,0.01148025559979,0.012486943028869,0.0021795839056854,0.0,0.0,0.0,0.0,0.0,0.0,0.0,0.0,0.0,-0.096538186753834,0.040799073075942,9.7099928758324,0.0,0.0,0.0,0.0,0.0,0.0,0.0,0.0,0.0
1317398087469645023,0,1317398087469645023,imu_link,0.003093653468048122,0.01613098822156944,0.7732017475908327,0.6339473779815621,0.0,0.0,0.0,0.0,0.0,0.0,0.0,0.0,0.0,0.016498414905228,0.01679703306441,0.0025666523848715,0.0,0.0,0.0,0.0,0.0,0.0,0.0,0.0,0.0,-0.090854517133494,-0.031235878380302,9.8088908536092,0.0,0.0,0.0,0.0,0.0,0.0,0.0,0.0,0.0
1317398087569519996,0,1317398087569519996,imu_link,0.0027065515637139815,0.017229418900821015,0.7734051018800896,0.6336721313809068,0.0,0.0,0.0,0.0,0.0,0.0,0.0,0.0,0.0,0.012603887787198,0.016955312081762,0.0058724757101934,0.0,0.0,0.0,0.0,0.0,0.0,0.0,0.0,0.0,-0.3462908486367,0.089783731230034,9.7104033099249,0.0,0.0,0.0,0.0,0.0,0.0,0.0,0.0,0.0
1317398087679558992,0,1317398087679558992,imu_link,0.003397873646339201,0.017144797454088315,0.7735942402429802,0.6334401801573909,0.0,0.0,0.0,0.0,0.0,0.0,0.0,0.0,0.0,0.0071979356660566,-0.011842662778634,0.0062457283605969,0.0,0.0,0.0,0.0,0.0,0.0,0.0,0.0,0.0,-0.28555827003643,0.10032875223304,9.5573663902541,0.0,0.0,0.0,0.0,0.0,0.0,0.0,0.0,0.0
1317398087779481887,0,1317398087779481887,imu_link,0.004785006914285322,0.015873508273541417,0.7737521961704737,0.6332714065590589,0.0,0.0,0.0,0.0,0.0,0.0,0.0,0.0,0.0,1.5438226724552e-05,-0.035279398022733,0.0044702627673054,0.0,0.0,0.0,0.0,0.0,0.0,0.0,0.0,0.0,-0.27805038983546,0.14129366128758,9.703912245923,0.0,0.0,0.0,0.0,0.0,0.0,0.0,0.0,0.0
1317398087889482975,0,1317398087889482975,imu_link,0.005496162165036621,0.01485940089601973,0.773973570037906,0.6330196705389539,0.0,0.0,0.0,0.0,0.0,0.0,0.0,0.0,0.0,-0.0053660416653676,-0.02003147078945,0.0062223168237564,0.0,0.0,0.0,0.0,0.0,0.0,0.0,0.0,0.0,-0.19992850949876,0.10683809935286,10.311845419637,0.0,0.0,0.0,0.0,0.0,0.0,0.0,0.0,0.0
1317398087989665985,0,1317398087989665985,imu_link,0.00426943617201539,0.014588772000098537,0.7741507448846376,0.6328187448557946,0.0,0.0,0.0,0.0,0.0,0.0,0.0,0.0,0.0,-0.016489082533458,0.011909577773061,0.0057117514648195,0.0,0.0,0.0,0.0,0.0,0.0,0.0,0.0,0.0,-0.08283120066114,0.15440470417271,10.110208908375,0.0,0.0,0.0,0.0,0.0,0.0,0.0,0.0,0.0
1317398088089498043,0,1317398088089498043,imu_link,0.002474997456278949,0.015504246213473755,0.7743370050197711,0.6325786080748813,0.0,0.0,0.0,0.0,0.0,0.0,0.0,0.0,0.0,-0.0097098074590974,0.035453156366853,0.0064933105590296,0.0,0.0,0.0,0.0,0.0,0.0,0.0,0.0,0.0,-0.17850730160556,0.011572252264206,9.7481246852515,0.0,0.0,0.0,0.0,0.0,0.0,0.0,0.0,0.0
1317398088199479103,0,1317398088199479103,imu_link,0.00027945675872750875,0.016320154342529612,0.7745500615232009,0.6323019663582915,0.0,0.0,0.0,0.0,0.0,0.0,0.0,0.0,0.0,-0.012040264717133,0.037790622774782,0.0069205117533301,0.0,0.0,0.0,0.0,0.0,0.0,0.0,0.0,0.0,-0.32563912325148,0.1395459350934,9.6000542005285,0.0,0.0,0.0,0.0,0.0,0.0,0.0,0.0,0.0
1317398088299508094,0,1317398088299508094,imu_link,-0.0005165221638174329,0.016265382116737327,0.7746808393474358,0.6321429962416756,0.0,0.0,0.0,0.0,0.0,0.0,0.0,0.0,0.0,-0.0086794300646502,0.011313495953794,0.0048097313651058,0.0,0.0,0.0,0.0,0.0,0.0,0.0,0.0,0.0,-0.50914925796659,-0.0066221618765765,9.0321115493933,0.0,0.0,0.0,0.0,0.0,0.0,0.0,0.0,0.0
1317398088409467935,0,1317398088409467935,imu_link,0.00046359214340376594,0.015560281161910987,0.7748615487502563,0.63193927160831,0.0,0.0,0.0,0.0,0.0,0.0,0.0,0.0,0.0,0.0017879352589729,-0.015146836033857,0.0049100603119966,0.0,0.0,0.0,0.0,0.0,0.0,0.0,0.0,0.0,-0.52899823631867,-0.0337075294941,9.7812992933096,0.0,0.0,0.0,0.0,0.0,0.0,0.0,0.0,0.0
1317398088509558916,0,1317398088509558916,imu_link,0.000931744416611876,0.015312666381863786,0.7750525474384238,0.6317105372002509,0.0,0.0,0.0,0.0,0.0,0.0,0.0,0.0,0.0,0.00018995106901197,-0.0084558610271556,0.0052345536783012,0.0,0.0,0.0,0.0,0.0,0.0,0.0,0.0,0.0,-0.6477980628075,-0.014181127734058,10.043582168816,0.0,0.0,0.0,0.0,0.0,0.0,0.0,0.0,0.0
1317398088619462966,0,1317398088619462966,imu_link,0.0009682788648642093,0.015544823839879087,0.7752156688720898,0.6315046220124009,0.0,0.0,0.0,0.0,0.0,0.0,0.0,0.0,0.0,0.0041613814274542,0.0017014253711793,0.0047954345169195,0.0,0.0,0.0,0.0,0.0,0.0,0.0,0.0,0.0,-1.1291672940537,0.034933487451843,10.057993821006,0.0,0.0,0.0,0.0,0.0,0.0,0.0,0.0,0.0
1317398088719444036,0,1317398088719444036,imu_link,0.0012861232632153307,0.016084650525737418,0.7754197489767273,0.6312399249107157,0.0,0.0,0.0,0.0,0.0,0.0,0.0,0.0,0.0,0.010849945279138,0.003232346455487,0.0066036078609084,0.0,0.0,0.0,0.0,0.0,0.0,0.0,0.0,0.0,-1.3022072528897,0.025458462272691,9.8287479492477,0.0,0.0,0.0,0.0,0.0,0.0,0.0,0.0,0.0
1317398088819473028,0,1317398088819473028,imu_link,0.0011905850427003824,0.017110835092830134,0.7756008010147357,0.6309906491343451,0.0,0.0,0.0,0.0,0.0,0.0,0.0,0.0,0.0,0.015259873438104,0.014244526657182,0.0065247212941268,0.0,0.0,0.0,0.0,0.0,0.0,0.0,0.0,0.0,-1.6316230823251,0.27615991267531,10.009464660383,0.0,0.0,0.0,0.0,0.0,0.0,0.0,0.0,0.0
1317398088929492950,0,1317398088929492950,imu_link,0.00010463104504264929,0.017930504160187072,0.7757535985031301,0.6307811351668264,0.0,0.0,0.0,0.0,0.0,0.0,0.0,0.0,0.0,0.0020372499420028,0.023237131769927,0.0050572465321349,0.0,0.0,0.0,0.0,0.0,0.0,0.0,0.0,0.0,-1.6724297519666,0.18779809187912,9.8243118514271,0.0,0.0,0.0,0.0,0.0,0.0,0.0,0.0,0.0
1317398089029623031,0,1317398089029623031,imu_link,-0.00016220026718420308,0.018647105122838868,0.7760301537265105,0.6304200660423329,0.0,0.0,0.0,0.0,0.0,0.0,0.0,0.0,0.0,0.0085033768217023,0.012646832844554,0.0086909832789561,0.0,0.0,0.0,0.0,0.0,0.0,0.0,0.0,0.0,-1.9114261636443,-0.0095379322520913,9.5194715404344,0.0,0.0,0.0,0.0,0.0,0.0,0.0,0.0,0.0
1317398089139467000,0,1317398089139467000,imu_link,0.0001887614516204797,0.019076373478768813,0.7767058490242512,0.6295745233374125,0.0,0.0,0.0,0.0,0.0,0.0,0.0,0.0,0.0,0.010361512525462,3.6335646658241e-05,0.019731748769559,0.0,0.0,0.0,0.0,0.0,0.0,0.0,0.0,0.0,-2.0538744006946,0.081724597442596,9.7293698727006,0.0,0.0,0.0,0.0,0.0,0.0,0.0,0.0,0.0
1317398089239500045,0,1317398089239500045,imu_link,0.0006865486374565966,0.019234067223454318,0.7776857197972956,0.6283585763975649,0.0,0.0,0.0,0.0,0.0,0.0,0.0,0.0,0.0,0.007639812650195,-0.0050355240128466,0.029701922686408,0.0,0.0,0.0,0.0,0.0,0.0,0.0,0.0,0.0,-2.1394821826211,0.27063742282813,9.7731857794143,0.0,0.0,0.0,0.0,0.0,0.0,0.0,0.0,0.0
1317398089339464902,0,1317398089339464902,imu_link,0.0010268528015989781,0.018937674380849565,0.7787324176475339,0.6270694792183685,0.0,0.0,0.0,0.0,0.0,0.0,0.0,0.0,0.0,0.0023261172175048,-0.0089926801901051,0.031895868216962,0.0,0.0,0.0,0.0,0.0,0.0,0.0,0.0,0.0,-2.166103300059,0.23920787275876,9.7516411312064,0.0,0.0,0.0,0.0,0.0,0.0,0.0,0.0,0.0
1317398089449558973,0,1317398089449558973,imu_link,0.0012227010777763076,0.01904385814190205,0.7797550564756198,0.6257938065927533,0.0,0.0,0.0,0.0,0.0,0.0,0.0,0.0,0.0,0.00095003497671888,-0.0010263738294252,0.030487539670748,0.0,0.0,0.0,0.0,0.0,0.0,0.0,0.0,0.0,-2.2021777241376,0.27134318931636,10.030218314833,0.0,0.0,0.0,0.0,0.0,0.0,0.0,0.0,0.0
1317398089549647092,0,1317398089549647092,imu_link,0.000357118624620862,0.019162489619431254,0.7807158041529259,0.6245922706884254,0.0,0.0,0.0,0.0,0.0,0.0,0.0,0.0,0.0,-0.0068046162599081,0.010602757751225,0.030506817564461,0.0,0.0,0.0,0.0,0.0,0.0,0.0,0.0,0.0,-2.2305627799324,0.30711256414455,9.877430261005,0.0,0.0,0.0,0.0,0.0,0.0,0.0,0.0,0.0
1317398089659482955,0,1317398089659482955,imu_link,-0.00032914376545532115,0.019086914420628088,0.7817234715435666,0.6233329731372759,0.0,0.0,0.0,0.0,0.0,0.0,0.0,0.0,0.0,-0.0071026607777368,0.0098488498912158,0.029699004419933,0.0,0.0,0.0,0.0,0.0,0.0,0.0,0.0,0.0,-2.2898116134904,0.21511146271942,9.8068138085318,0.0,0.0,0.0,0.0,0.0,0.0,0.0,0.0,0.0
1317398089759433984,0,1317398089759433984,imu_link,-0.0011568447151014023,0.019246033352072346,0.7826068854549014,0.6222175783028754,0.0,0.0,0.0,0.0,0.0,0.0,0.0,0.0,0.0,-0.0068047371795819,0.011777339656969,0.029394903824509,0.0,0.0,0.0,0.0,0.0,0.0,0.0,0.0,0.0,-2.4127838788484,0.18870229297558,9.5085464388329,0.0,0.0,0.0,0.0,0.0,0.0,0.0,0.0,0.0
1317398089869589090,0,1317398089869589090,imu_link,-0.0019800299143446828,0.018929142831955965,0.7835146335509582,0.6210817869207675,0.0,0.0,0.0,0.0,0.0,0.0,0.0,0.0,0.0,-0.012324077787039,0.0071095040134492,0.02716465709319,0.0,0.0,0.0,0.0,0.0,0.0,0.0,0.0,0.0,-2.5167201728327,0.30769822168319,9.8339325967812,0.0,0.0,0.0,0.0,0.0,0.0,0.0,0.0,0.0
1317398089969526052,0,1317398089969526052,imu_link,-0.002805809254781232,0.018341004396141974,0.784255795619844,0.6201601261197401,0.0,0.0,0.0,0.0,0.0,0.0,0.0,0.0,0.0,-0.018019748430628,0.0057823058061404,0.02522228349443,0.0,0.0,0.0,0.0,0.0,0.0,0.0,0.0,0.0,-2.5694492788022,0.24616928281143,9.8538016637295,0.0,0.0,0.0,0.0,0.0,0.0,0.0,0.0,0.0
1317398090069453954,0,1317398090069453954,imu_link,-0.003051023794388313,0.017359103184020303,0.7850846772372239,0.6191376279614873,0.0,0.0,0.0,0.0,0.0,0.0,0.0,0.0,0.0,-0.017815515703571,-0.0080848961878153,0.026439116979529,0.0,0.0,0.0,0.0,0.0,0.0,0.0,0.0,0.0,-2.7937992487879,0.18328732810374,9.6305544472005,0.0,0.0,0.0,0.0,0.0,0.0,0.0,0.0,0.0
1317398090179425954,0,1317398090179425954,imu_link,-0.0021432988782746874,0.015582600590793307,0.7859466515069152,0.6180942078791984,0.0,0.0,0.0,0.0,0.0,0.0,0.0,0.0,0.0,-0.014383686971935,-0.030871593617207,0.024849426609986,0.0,0.0,0.0,0.0,0.0,0.0,0.0,0.0,0.0,-2.8528991099909,0.16580746928025,9.7114468019045,0.0,0.0,0.0,0.0,0.0,0.0,0.0,0.0,0.0
1317398090279436111,0,1317398090279436111,imu_link,-0.001416078138599188,0.013465159234065077,0.7867068620161389,0.6171782542071832,0.0,0.0,0.0,0.0,0.0,0.0,0.0,0.0,0.0,-0.023432548619255,-0.035773206666636,0.024291229710791,0.0,0.0,0.0,0.0,0.0,0.0,0.0,0.0,0.0,-2.8032918581977,0.22224193043112,9.8125512042764,0.0,0.0,0.0,0.0,0.0,0.0,0.0,0.0,0.0
1317398090389451026,0,1317398090389451026,imu_link,-0.001013948839758353,0.011701822051264875,0.7874298329965296,0.6162923797804809,0.0,0.0,0.0,0.0,0.0,0.0,0.0,0.0,0.0,-0.020942333621895,-0.025929744802131,0.019046362257893,0.0,0.0,0.0,0.0,0.0,0.0,0.0,0.0,0.0,-2.7397381172932,-0.031378392493353,10.037769298754,0.0,0.0,0.0,0.0,0.0,0.0,0.0,0.0,0.0
1317398090489729881,0,1317398090489729881,imu_link,-0.001049403492906456,0.010700458622773794,0.7877393478571433,0.6159148632523607,0.0,0.0,0.0,0.0,0.0,0.0,0.0,0.0,0.0,-0.019153835764968,-0.014141467680838,0.0096959906762472,0.0,0.0,0.0,0.0,0.0,0.0,0.0,0.0,0.0,-2.557552620683,0.11595804108042,10.181742985505,0.0,0.0,0.0,0.0,0.0,0.0,0.0,0.0,0.0
1317398090589430093,0,1317398090589430093,imu_link,-0.0019670223149093353,0.009922669118731579,0.7875459828442554,0.6161728624068481,0.0,0.0,0.0,0.0,0.0,0.0,0.0,0.0,0.0,-0.02276385274217,0.00220221838841,-0.0056723480064569,0.0,0.0,0.0,0.0,0.0,0.0,0.0,0.0,0.0,-2.2593266446004,0.08269256508094,10.067217702465,0.0,0.0,0.0,0.0,0.0,0.0,0.0,0.0,0.0
1317398090699426889,0,1317398090699426889,imu_link,-0.003881691003479897,0.008997261006684704,0.7866710389219598,0.6172946284318175,0.0,0.0,0.0,0.0,0.0,0.0,0.0,0.0,0.0,-0.034736227121082,0.015363246872124,-0.025760408224599,0.0,0.0,0.0,0.0,0.0,0.0,0.0,0.0,0.0,-2.1529739926978,-0.00148185787824,9.852537808805,0.0,0.0,0.0,0.0,0.0,0.0,0.0,0.0,0.0
1317398090799473047,0,1317398090799473047,imu_link,-0.005406319045437294,0.008429085353666448,0.7851186275336917,0.6192644531491305,0.0,0.0,0.0,0.0,0.0,0.0,0.0,0.0,0.0,-0.027424164754945,0.016688367764738,-0.047902488481867,0.0,0.0,0.0,0.0,0.0,0.0,0.0,0.0,0.0,-2.0872813989196,-0.309937247984,9.7456105192673,0.0,0.0,0.0,0.0,0.0,0.0,0.0,0.0,0.0
1317398090909435033,0,1317398090909435033,imu_link,-0.006485788658359831,0.008724174061188732,0.7827646391908454,0.6222229045646381,0.0,0.0,0.0,0.0,0.0,0.0,0.0,0.0,0.0,-0.009001465004041,0.019371223515895,-0.067675437489771,0.0,0.0,0.0,0.0,0.0,0.0,0.0,0.0,0.0,-1.9569307540906,-0.53247178602551,9.6897483788716,0.0,0.0,0.0,0.0,0.0,0.0,0.0,0.0,0.0
1317398091009524106,0,1317398091009524106,imu_link,-0.007469492921462675,0.009572894801491755,0.7799323865951364,0.6257459857646958,0.0,0.0,0.0,0.0,0.0,0.0,0.0,0.0,0.0,-0.0013099047849727,0.024419627361054,-0.089018223109668,0.0,0.0,0.0,0.0,0.0,0.0,0.0,0.0,0.0,-1.9505209263738,-0.36603784347977,9.792047157572,0.0,0.0,0.0,0.0,0.0,0.0,0.0,0.0,0.0
1317398091119411945,0,1317398091119411945,imu_link,-0.008047600584688097,0.010218775799883591,0.7760547329505899,0.6305314141349102,0.0,0.0,0.0,0.0,0.0,0.0,0.0,0.0,0.0,0.00060452157848782,0.014918795569854,-0.11058914116835,0.0,0.0,0.0,0.0,0.0,0.0,0.0,0.0,0.0,-1.9815877866465,-0.482421061617,9.7489338266991,0.0,0.0,0.0,0.0,0.0,0.0,0.0,0.0,0.0
1317398091219418048,0,1317398091219418048,imu_link,-0.008053335018415401,0.010532874285923323,0.7720179606626254,0.6354624070459863,0.0,0.0,0.0,0.0,0.0,0.0,0.0,0.0,0.0,0.003199736249347,0.0050962975157883,-0.12549220236193,0.0,0.0,0.0,0.0,0.0,0.0,0.0,0.0,0.0,-1.8061203516563,-0.56176733278827,9.7575763095447,0.0,0.0,0.0,0.0,0.0,0.0,0.0,0.0,0.0
1317398091329417943,0,1317398091329417943,imu_link,-0.007860113607594147,0.010378071169696138,0.766946622255335,0.6415788282541787,0.0,0.0,0.0,0.0,0.0,0.0,0.0,0.0,0.0,-0.0037859932516716,-0.0042009261088555,-0.14445119273262,0.0,0.0,0.0,0.0,0.0,0.0,0.0,0.0,0.0,-1.3029634242664,-0.63190473877073,9.7557259821081,0.0,0.0,0.0,0.0,0.0,0.0,0.0,0.0,0.0
1317398091429425001,0,1317398091429425001,imu_link,-0.006644672227563624,0.010005862964845192,0.7614568633225314,0.6481042943356637,0.0,0.0,0.0,0.0,0.0,0.0,0.0,0.0,0.0,0.0037058815396005,-0.020700878538621,-0.16977819221973,0.0,0.0,0.0,0.0,0.0,0.0,0.0,0.0,0.0,-0.7702643149515,-0.67931734233579,9.5799814997051,0.0,0.0,0.0,0.0,0.0,0.0,0.0,0.0,0.0
1317398091529438972,0,1317398091529438972,imu_link,-0.0050671468238349705,0.008844696924734392,0.754956345384038,0.6556958227133618,0.0,0.0,0.0,0.0,0.0,0.0,0.0,0.0,0.0,0.0015188387976228,-0.036117668923856,-0.19835195847821,0.0,0.0,0.0,0.0,0.0,0.0,0.0,0.0,0.0,-0.6009344513883,-0.78547903898434,9.5751140069021,0.0,0.0,0.0,0.0,0.0,0.0,0.0,0.0,0.0
1317398091639468908,0,1317398091639468908,imu_link,-0.0026665308223023593,0.008052350131833527,0.7465487839376487,0.6652766059857703,0.0,0.0,0.0,0.0,0.0,0.0,0.0,0.0,0.0,0.016003652378084,-0.039197513455331,-0.22953094388962,0.0,0.0,0.0,0.0,0.0,0.0,0.0,0.0,0.0,-0.63078610394899,-0.94593896839984,9.9385496378908,0.0,0.0,0.0,0.0,0.0,0.0,0.0,0.0,0.0
1317398091739422082,0,1317398091739422082,imu_link,-0.0011760651172431835,0.008045058775097844,0.7378713969083163,0.674892358472605,0.0,0.0,0.0,0.0,0.0,0.0,0.0,0.0,0.0,0.018168406816553,-0.022108285928894,-0.25677274398308,0.0,0.0,0.0,0.0,0.0,0.0,0.0,0.0,0.0,-0.65334234638835,-0.96348689100937,10.011680755226,0.0,0.0,0.0,0.0,0.0,0.0,0.0,0.0,0.0
1317398091849543094,0,1317398091849543094,imu_link,-3.5320020491443754e-05,0.00865841943427724,0.7271687844575816,0.68640410068405,0.0,0.0,0.0,0.0,0.0,0.0,0.0,0.0,0.0,0.019930935689734,-0.0084237147446149,-0.28462095283576,0.0,0.0,0.0,0.0,0.0,0.0,0.0,0.0,0.0,-0.60591338001407,-1.062061187075,9.893636325523,0.0,0.0,0.0,0.0,0.0,0.0,0.0,0.0,0.0
1317398091949455976,0,1317398091949455976,imu_link,0.0010863172115523267,0.009025766883358016,0.7164507112811661,0.6975784785612257,0.0,0.0,0.0,0.0,0.0,0.0,0.0,0.0,0.0,0.018132703115645,-0.009229508698882,-0.3083594611979,0.0,0.0,0.0,0.0,0.0,0.0,0.0,0.0,0.0,-0.36561675062982,-1.0372634248075,9.666041931644,0.0,0.0,0.0,0.0,0.0,0.0,0.0,0.0,0.0
1317398092059441089,0,1317398092059441089,imu_link,0.002505725480889303,0.009453521580309696,0.7031408200638257,0.710983360866846,0.0,0.0,0.0,0.0,0.0,0.0,0.0,0.0,0.0,0.022979112900958,-0.0046094638690521,-0.34249276162027,0.0,0.0,0.0,0.0,0.0,0.0,0.0,0.0,0.0,-0.36757140210848,-1.2215975662073,10.054417101849,0.0,0.0,0.0,0.0,0.0,0.0,0.0,0.0,0.0
1317398092159377098,0,1317398092159377098,imu_link,0.003573548382501364,0.010451218637154938,0.6897524257394463,0.7239610438190068,0.0,0.0,0.0,0.0,0.0,0.0,0.0,0.0,0.0,0.027311183390338,0.0027367462006237,-0.36953916117529,0.0,0.0,0.0,0.0,0.0,0.0,0.0,0.0,0.0,-0.42902623321114,-1.4284411543068,9.9026406773885,0.0,0.0,0.0,0.0,0.0,0.0,0.0,0.0,0.0
1317398092269391059,0,1317398092269391059,imu_link,0.004550833516552213,0.011050085282924399,0.6739181707902863,0.7387093370252058,0.0,0.0,0.0,0.0,0.0,0.0,0.0,0.0,0.0,0.016699758956244,-0.00071128369383704,-0.39200666123522,0.0,0.0,0.0,0.0,0.0,0.0,0.0,0.0,0.0,-0.41142953761633,-1.2752663001552,9.7039655084593,0.0,0.0,0.0,0.0,0.0,0.0,0.0,0.0,0.0
1317398092369493961,0,1317398092369493961,imu_link,0.004554593027258922,0.010563481842462176,0.6585598116174867,0.7524404581467297,0.0,0.0,0.0,0.0,0.0,0.0,0.0,0.0,0.0,-0.0091373647041699,-0.00139602018202,-0.41188854388206,0.0,0.0,0.0,0.0,0.0,0.0,0.0,0.0,0.0,-0.38940178920626,-1.1834704946284,9.720968462829,0.0,0.0,0.0,0.0,0.0,0.0,0.0,0.0,0.0
1317398092469645977,0,1317398092469645977,imu_link,0.0036056781103153434,0.009593051751993592,0.6417095515524112,0.7668792759553825,0.0,0.0,0.0,0.0,0.0,0.0,0.0,0.0,0.0,-0.023033411758889,0.0027698578709246,-0.44131819440253,0.0,0.0,0.0,0.0,0.0,0.0,0.0,0.0,0.0,-0.21166404035656,-1.4146559992994,9.6811771032602,0.0,0.0,0.0,0.0,0.0,0.0,0.0,0.0,0.0
1317398092579394102,0,1317398092579394102,imu_link,0.002898385916386842,0.009783004321242392,0.622229409086553,0.7827684553259215,0.0,0.0,0.0,0.0,0.0,0.0,0.0,0.0,0.0,-0.013842105757937,0.014021293133144,-0.45449952288974,0.0,0.0,0.0,0.0,0.0,0.0,0.0,0.0,0.0,-0.25902194113682,-1.8669674912267,9.7628755617397,0.0,0.0,0.0,0.0,0.0,0.0,0.0,0.0,0.0
1317398092679374933,0,1317398092679374933,imu_link,0.002342315505970703,0.010235298489648072,0.6039614026127846,0.7969443998027064,0.0,0.0,0.0,0.0,0.0,0.0,0.0,0.0,0.0,-0.0051380185265289,0.016032582738504,-0.46344340547443,0.0,0.0,0.0,0.0,0.0,0.0,0.0,0.0,0.0,-0.28721955814954,-1.5750019016735,9.8761019911714,0.0,0.0,0.0,0.0,0.0,0.0,0.0,0.0,0.0
1317398092789361000,0,1317398092789361000,imu_link,0.0028319053195216323,0.010483761791379848,0.5827796669056873,0.8125576477347679,0.0,0.0,0.0,0.0,0.0,0.0,0.0,0.0,0.0,0.0051257821897766,0.0019775929847993,-0.47721954482343,0.0,0.0,0.0,0.0,0.0,0.0,0.0,0.0,0.0,-0.32452332105122,-1.669240520306,9.8770417503769,0.0,0.0,0.0,0.0,0.0,0.0,0.0,0.0,0.0
1317398092889386892,0,1317398092889386892,imu_link,0.003446681671680293,0.009845806531668545,0.563262199832731,0.8262123665975883,0.0,0.0,0.0,0.0,0.0,0.0,0.0,0.0,0.0,-0.0013988394985754,-0.011572463397451,-0.47606757471467,0.0,0.0,0.0,0.0,0.0,0.0,0.0,0.0,0.0,-0.20547067266114,-1.6500027447911,9.8208165852429,0.0,0.0,0.0,0.0,0.0,0.0,0.0,0.0,0.0
1317398092999448060,0,1317398092999448060,imu_link,0.004045748090090253,0.008305162975282637,0.5412376961691958,0.8408188939574366,0.0,0.0,0.0,0.0,0.0,0.0,0.0,0.0,0.0,-0.0081400882815093,-0.025935037494887,-0.4816163665426,0.0,0.0,0.0,0.0,0.0,0.0,0.0,0.0,0.0,0.30535708187145,-1.4300689381409,9.4881891470978,0.0,0.0,0.0,0.0,0.0,0.0,0.0,0.0,0.0
1317398093099374055,0,1317398093099374055,imu_link,0.003952016774773748,0.0058174496927889795,0.520316009585036,0.8539448395604883,0.0,0.0,0.0,0.0,0.0,0.0,0.0,0.0,0.0,-0.027139030897813,-0.036280968184786,-0.49343641687281,0.0,0.0,0.0,0.0,0.0,0.0,0.0,0.0,0.0,0.41159463010937,-1.4711534927705,9.5287844783752,0.0,0.0,0.0,0.0,0.0,0.0,0.0,0.0,0.0
1317398093209357976,0,1317398093209357976,imu_link,0.0029306524563490585,0.002712741467559228,0.4962023070429209,0.8681977440624878,0.0,0.0,0.0,0.0,0.0,0.0,0.0,0.0,0.0,-0.04690745585778,-0.036783780215097,-0.50875363375768,0.0,0.0,0.0,0.0,0.0,0.0,0.0,0.0,0.0,0.39560133251823,-1.5269292995613,9.6303012757235,0.0,0.0,0.0,0.0,0.0,0.0,0.0,0.0,0.0
1317398093309374094,0,1317398093309374094,imu_link,0.0016137372954443628,0.000476228770527161,0.4731544531402473,0.8809778842466212,0.0,0.0,0.0,0.0,0.0,0.0,0.0,0.0,0.0,-0.0388807987223,-0.025413193067573,-0.52548722181571,0.0,0.0,0.0,0.0,0.0,0.0,0.0,0.0,0.0,0.34793219337339,-1.8888894816531,10.20228537106,0.0,0.0,0.0,0.0,0.0,0.0,0.0,0.0,0.0
1317398093409389019,0,1317398093409389019,imu_link,0.001620244864555323,-7.605151324465212e-05,0.4496671258822584,0.8931947407612382,0.0,0.0,0.0,0.0,0.0,0.0,0.0,0.0,0.0,-0.0058516534442309,-0.0099831791618975,-0.52805767857254,0.0,0.0,0.0,0.0,0.0,0.0,0.0,0.0,0.0,0.35284058369099,-2.49898749182,10.196221979846,0.0,0.0,0.0,0.0,0.0,0.0,0.0,0.0,0.0
1317398093519603013,0,1317398093519603013,imu_link,0.002599570446478552,0.0009424613438433587,0.42377956948850826,0.905761133237811,0.0,0.0,0.0,0.0,0.0,0.0,0.0,0.0,0.0,0.017462478945668,0.0094814433386579,-0.52450142571746,0.0,0.0,0.0,0.0,0.0,0.0,0.0,0.0,0.0,0.49671682316765,-1.8785587900108,10.012342912475,0.0,0.0,0.0,0.0,0.0,0.0,0.0,0.0,0.0
1317398093619369983,0,1317398093619369983,imu_link,0.0016443946076361688,0.0020693803848708062,0.39935366613357126,0.9167931407776093,0.0,0.0,0.0,0.0,0.0,0.0,0.0,0.0,0.0,-0.0032903257591625,0.023450475058824,-0.53581672849819,0.0,0.0,0.0,0.0,0.0,0.0,0.0,0.0,0.0,0.55362548084132,-1.4929806768146,9.5374951242555,0.0,0.0,0.0,0.0,0.0,0.0,0.0,0.0,0.0
1317398093729367017,0,1317398093729367017,imu_link,0.0008004175126678489,0.0029055173859767382,0.37186562854764327,0.9282816768661286,0.0,0.0,0.0,0.0,0.0,0.0,0.0,0.0,0.0,-0.012003742829082,0.022085495460184,-0.54014042939905,0.0,0.0,0.0,0.0,0.0,0.0,0.0,0.0,0.0,0.39525476735359,-2.1411417976649,9.8701746318165,0.0,0.0,0.0,0.0,0.0,0.0,0.0,0.0,0.0
1317398093829355955,0,1317398093829355955,imu_link,0.00023063338497904826,0.003886589305880935,0.34673957534898486,0.9379533613771075,0.0,0.0,0.0,0.0,0.0,0.0,0.0,0.0,0.0,-0.0011943153561774,0.025846156207334,-0.53979314673612,0.0,0.0,0.0,0.0,0.0,0.0,0.0,0.0,0.0,0.49430283498809,-2.0735260507669,10.397853574248,0.0,0.0,0.0,0.0,0.0,0.0,0.0,0.0,0.0
1317398093939351081,0,1317398093939351081,imu_link,-2.858882283579057e-05,0.005999537385482725,0.3181039745051556,0.9480368485126844,0.0,0.0,0.0,0.0,0.0,0.0,0.0,0.0,0.0,-0.0037119983739226,0.034018234089839,-0.55004187546458,0.0,0.0,0.0,0.0,0.0,0.0,0.0,0.0,0.0,0.50365513537526,-1.8917088671341,9.4475741175034,0.0,0.0,0.0,0.0,0.0,0.0,0.0,0.0,0.0
1317398094039438009,0,1317398094039438009,imu_link,-0.002105187980445547,0.006126228043191318,0.2920080371356958,0.9563939270832327,0.0,0.0,0.0,0.0,0.0,0.0,0.0,0.0,0.0,-0.036407014933257,0.016784013923027,-0.54725262927707,0.0,0.0,0.0,0.0,0.0,0.0,0.0,0.0,0.0,0.53249677917656,-1.8918010105064,9.5039165573235,0.0,0.0,0.0,0.0,0.0,0.0,0.0,0.0,0.0
1317398094139372110,0,1317398094139372110,imu_link,-0.004160277258922861,0.00402126408731885,0.266643901864445,0.9637777498608137,0.0,0.0,0.0,0.0,0.0,0.0,0.0,0.0,0.0,-0.052876428975241,-0.02669924738463,-0.52999894513365,0.0,0.0,0.0,0.0,0.0,0.0,0.0,0.0,0.0,0.62505534472446,-2.0545169487792,8.8711025895413,0.0,0.0,0.0,0.0,0.0,0.0,0.0,0.0,0.0
1317398094249499082,0,1317398094249499082,imu_link,-0.004473086459803773,0.0007814633528695984,0.23937853388393093,0.9709157009381046,0.0,0.0,0.0,0.0,0.0,0.0,0.0,0.0,0.0,-0.023270024255023,-0.047662554948327,-0.51340892283197,0.0,0.0,0.0,0.0,0.0,0.0,0.0,0.0,0.0,0.87918600048494,-2.2501287373877,9.9019529786801,0.0,0.0,0.0,0.0,0.0,0.0,0.0,0.0,0.0
1317398094349488973,0,1317398094349488973,imu_link,-0.004337286093115614,-0.0006353345015030589,0.21644134132846995,0.9762857829874153,0.0,0.0,0.0,0.0,0.0,0.0,0.0,0.0,0.0,-0.00463997498656,-0.030293309007718,-0.47430093493693,0.0,0.0,0.0,0.0,0.0,0.0,0.0,0.0,0.0,0.97268584999097,-2.2545435060904,10.434178759589,0.0,0.0,0.0,0.0,0.0,0.0,0.0,0.0,0.0
1317398094459561109,0,1317398094459561109,imu_link,-0.001493398459443293,-0.0007573048989658832,0.19411985234855197,0.9809763907324721,0.0,0.0,0.0,0.0,0.0,0.0,0.0,0.0,0.0,0.046922638148141,-0.016052691433186,-0.41674565007949,0.0,0.0,0.0,0.0,0.0,0.0,0.0,0.0,0.0,1.0820525156889,-2.3626448401043,9.900164637142,0.0,0.0,0.0,0.0,0.0,0.0,0.0,0.0,0.0
1317398094559371948,0,1317398094559371948,imu_link,0.0019736358503183037,-0.0007381017173988614,0.17684767160446788,0.9842359783179353,0.0,0.0,0.0,0.0,0.0,0.0,0.0,0.0,0.0,0.062755826147607,-0.014305221148943,-0.35685953359064,0.0,0.0,0.0,0.0,0.0,0.0,0.0,0.0,0.0,1.1558140187142,-1.73752933829,9.4231406614456,0.0,0.0,0.0,0.0,0.0,0.0,0.0,0.0,0.0
1317398094669327974,0,1317398094669327974,imu_link,0.0042844046900598395,-0.0016629188842773846,0.16050046819125535,0.9870250646704084,0.0,0.0,0.0,0.0,0.0,0.0,0.0,0.0,0.0,0.034459782854237,-0.020268854991441,-0.30547942053858,0.0,0.0,0.0,0.0,0.0,0.0,0.0,0.0,0.0,1.3462260893259,-0.88310020839701,10.015125324827,0.0,0.0,0.0,0.0,0.0,0.0,0.0,0.0,0.0
1317398094769328117,0,1317398094769328117,imu_link,0.0029500917484130956,-0.0009641728178237385,0.14687206727056332,0.9891506271469095,0.0,0.0,0.0,0.0,0.0,0.0,0.0,0.0,0.0,-0.022947240111867,0.016468627848363,-0.2777127637637,0.0,0.0,0.0,0.0,0.0,0.0,0.0,0.0,0.0,1.5096482259029,-0.76153321935898,10.346428134704,0.0,0.0,0.0,0.0,0.0,0.0,0.0,0.0,0.0
1317398094869486093,0,1317398094869486093,imu_link,-0.0008967186847820525,0.0006326635250078733,0.13447108705974659,0.9909169099260718,0.0,0.0,0.0,0.0,0.0,0.0,0.0,0.0,0.0,-0.061263644232616,0.035156376396239,-0.25284464297678,0.0,0.0,0.0,0.0,0.0,0.0,0.0,0.0,0.0,1.5602785911115,-1.103271911123,9.3441014030888,0.0,0.0,0.0,0.0,0.0,0.0,0.0,0.0,0.0
1317398094979481935,0,1317398094979481935,imu_link,-0.004012099817842312,0.0022045918321450214,0.12170881875192573,0.9925552912900701,0.0,0.0,0.0,0.0,0.0,0.0,0.0,0.0,0.0,-0.0526156138982,0.038822590414535,-0.2337350589712,0.0,0.0,0.0,0.0,0.0,0.0,0.0,0.0,0.0,1.6177997318865,-1.4325242724583,10.40320285079,0.0,0.0,0.0,0.0,0.0,0.0,0.0,0.0,0.0
1317398095079386949,0,1317398095079386949,imu_link,-0.0028118121355447355,0.003683475524614826,0.11065587061429782,0.9938479783242334,0.0,0.0,0.0,0.0,0.0,0.0,0.0,0.0,0.0,0.018955302605014,0.023024385428621,-0.22078687036053,0.0,0.0,0.0,0.0,0.0,0.0,0.0,0.0,0.0,1.5862259530401,-1.7713670713104,9.6617461797666,0.0,0.0,0.0,0.0,0.0,0.0,0.0,0.0,0.0
1317398095179339885,0,1317398095179339885,imu_link,0.0006243279902047553,0.0038057318176874465,0.10072258227724791,0.9949070750775146,0.0,0.0,0.0,0.0,0.0,0.0,0.0,0.0,0.0,0.063798166773776,-0.0002524858400259,-0.19962492378871,0.0,0.0,0.0,0.0,0.0,0.0,0.0,0.0,0.0,1.649050985829,-1.4302627728611,9.5895619744453,0.0,0.0,0.0,0.0,0.0,0.0,0.0,0.0,0.0
1317398095289328098,0,1317398095289328098,imu_link,0.0033145873744223247,0.002833309737049062,0.09111478222901412,0.9958308502581301,0.0,0.0,0.0,0.0,0.0,0.0,0.0,0.0,0.0,0.038718623809634,-0.023749728265088,-0.17132759618432,0.0,0.0,0.0,0.0,0.0,0.0,0.0,0.0,0.0,1.7888285326122,-0.91619757354361,8.6501475194877,0.0,0.0,0.0,0.0,0.0,0.0,0.0,0.0,0.0
1317398095389322996,0,1317398095389322996,imu_link,0.004232301474028178,0.00013296758525373277,0.0841138483694512,0.9964471538703571,0.0,0.0,0.0,0.0,0.0,0.0,0.0,0.0,0.0,0.012900966134396,-0.051716894727829,-0.14398684457714,0.0,0.0,0.0,0.0,0.0,0.0,0.0,0.0,0.0,1.7875193239374,-0.14805949871674,9.4154170426288,0.0,0.0,0.0,0.0,0.0,0.0,0.0,0.0,0.0
1317398095499511957,0,1317398095499511957,imu_link,0.002793333748746648,-0.0026108900092580672,0.078072839859505,0.9969403253034756,0.0,0.0,0.0,0.0,0.0,0.0,0.0,0.0,0.0,-0.023887147874622,-0.043332656928147,-0.10987618811502,0.0,0.0,0.0,0.0,0.0,0.0,0.0,0.0,0.0,1.8529430603786,-0.9426381132264,10.247338610881,0.0,0.0,0.0,0.0,0.0,0.0,0.0,0.0,0.0
1317398095599435091,0,1317398095599435091,imu_link,0.0037853896702272367,-0.002858875161737997,0.07479955324527751,0.997187306624067,0.0,0.0,0.0,0.0,0.0,0.0,0.0,0.0,0.0,0.016522341173066,-0.0074392624496205,-0.068928544533041,0.0,0.0,0.0,0.0,0.0,0.0,0.0,0.0,0.0,1.8790224486794,-1.1151242264323,10.977206750422,0.0,0.0,0.0,0.0,0.0,0.0,0.0,0.0,0.0
1317398095699315071,0,1317398095699315071,imu_link,0.006414608039629971,-0.000545127768846937,0.07324643122049351,0.9972930943072227,0.0,0.0,0.0,0.0,0.0,0.0,0.0,0.0,0.0,0.044254738568889,0.032403416083603,-0.032597447283382,0.0,0.0,0.0,0.0,0.0,0.0,0.0,0.0,0.0,1.7569748317148,-0.36976389728459,9.7992538392792,0.0,0.0,0.0,0.0,0.0,0.0,0.0,0.0,0.0
1317398095809330940,0,1317398095809330940,imu_link,0.007746191610132077,0.00014412558720306953,0.07329196151087042,0.9972804340411194,0.0,0.0,0.0,0.0,0.0,0.0,0.0,0.0,0.0,0.029406750542269,0.0069100742467252,-0.00031904269817082,0.0,0.0,0.0,0.0,0.0,0.0,0.0,0.0,0.0,1.4878801068904,0.12613977719786,9.7193981521354,0.0,0.0,0.0,0.0,0.0,0.0,0.0,0.0,0.0
1317398095909323930,0,1317398095909323930,imu_link,0.007489266427079223,0.000549964404318712,0.0740976440093279,0.9972227171398599,0.0,0.0,0.0,0.0,0.0,0.0,0.0,0.0,0.0,-0.0023430831384319,0.0061079656681701,0.015592530147824,0.0,0.0,0.0,0.0,0.0,0.0,0.0,0.0,0.0,1.6746784050872,0.50821996225536,9.463668343075,0.0,0.0,0.0,0.0,0.0,0.0,0.0,0.0,0.0
1317398096019680976,0,1317398096019680976,imu_link,0.005229568071816439,0.0003550980307078038,0.07488117238634667,0.9971786878715455,0.0,0.0,0.0,0.0,0.0,0.0,0.0,0.0,0.0,-0.029171168825582,-0.00049402807908334,0.013669816969215,0.0,0.0,0.0,0.0,0.0,0.0,0.0,0.0,0.0,1.5657603261499,0.091520550121117,9.4957565581284,0.0,0.0,0.0,0.0,0.0,0.0,0.0,0.0,0.0
1317398096119311094,0,1317398096119311094,imu_link,0.005117238743000072,-0.0005662621727472113,0.07540333432064135,0.9971398248932435,0.0,0.0,0.0,0.0,0.0,0.0,0.0,0.0,0.0,-0.0089332394015552,-0.015805828736084,0.01286959720663,0.0,0.0,0.0,0.0,0.0,0.0,0.0,0.0,0.0,1.5745620473819,-0.055887780204977,9.9253090269132,0.0,0.0,0.0,0.0,0.0,0.0,0.0,0.0,0.0
1317398096219324111,0,1317398096219324111,imu_link,0.004873877048093907,-0.0008697376907259716,0.07576548461979248,0.9971133738042016,0.0,0.0,0.0,0.0,0.0,0.0,0.0,0.0,0.0,-0.005386791447105,-0.0084181150577859,0.0098977500282529,0.0,0.0,0.0,0.0,0.0,0.0,0.0,0.0,0.0,1.4996743658694,0.1136840468994,10.096122797688,0.0,0.0,0.0,0.0,0.0,0.0,0.0,0.0,0.0
1317398096329293966,0,1317398096329293966,imu_link,0.004752696965331013,-0.0006634948092502104,0.07604808852006839,0.9970926034620043,0.0,0.0,0.0,0.0,0.0,0.0,0.0,0.0,0.0,-0.0053900532546123,0.0023229067518191,0.008071917619422,0.0,0.0,0.0,0.0,0.0,0.0,0.0,0.0,0.0,1.3856438356739,0.16273536017118,9.8766861611062,0.0,0.0,0.0,0.0,0.0,0.0,0.0,0.0,0.0
1317398096429306030,0,1317398096429306030,imu_link,0.004022512867605252,-4.941114587538346e-05,0.07637851516493402,0.9970707795186702,0.0,0.0,0.0,0.0,0.0,0.0,0.0,0.0,0.0,-0.0095319046141058,0.010695244123352,0.0064748240064099,0.0,0.0,0.0,0.0,0.0,0.0,0.0,0.0,0.0,1.2261751963048,-0.013957099797905,9.8262768652069,0.0,0.0,0.0,0.0,0.0,0.0,0.0,0.0,0.0
1317398096539365053,0,1317398096539365053,imu_link,0.004423233937362175,0.0007145563187165184,0.07662903099597942,0.9970496055961409,0.0,0.0,0.0,0.0,0.0,0.0,0.0,0.0,0.0,0.005918692149021,0.013276795417434,0.0041569599304511,0.0,0.0,0.0,0.0,0.0,0.0,0.0,0.0,0.0,0.99802456896495,-0.10166492238771,9.9145462416929,0.0,0.0,0.0,0.0,0.0,0.0,0.0,0.0,0.0
1317398096639317035,0,1317398096639317035,imu_link,0.0047475605747655325,0.001798152854539047,0.07633089138427035,0.9970696175971783,0.0,0.0,0.0,0.0,0.0,0.0,0.0,0.0,0.0,0.003882725672279,0.020147050439565,-0.0038348461879386,0.0,0.0,0.0,0.0,0.0,0.0,0.0,0.0,0.0,0.7965024488652,0.16153160747628,9.814549655553,0.0,0.0,0.0,0.0,0.0,0.0,0.0,0.0,0.0
1317398096739305973,0,1317398096739305973,imu_link,0.003652073360872938,0.002455058361506167,0.07570910379365162,0.9971202368076634,0.0,0.0,0.0,0.0,0.0,0.0,0.0,0.0,0.0,-0.01629985872015,0.01120900363204,-0.0084416262535777,0.0,0.0,0.0,0.0,0.0,0.0,0.0,0.0,0.0,0.65759994269354,0.045872036464582,9.7406083361936,0.0,0.0,0.0,0.0,0.0,0.0,0.0,0.0,0.0
