%time,field.transforms0.header.seq,field.transforms0.header.stamp,field.transforms0.header.frame_id,field.transforms0.child_frame_id,field.transforms0.transform.translation.x,field.transforms0.transform.translation.y,field.transforms0.transform.translation.z,field.transforms0.transform.rotation.x,field.transforms0.transform.rotation.y,field.transforms0.transform.rotation.z,field.transforms0.transform.rotation.w
1649114709411949157,0,1317398079239670991,world,base_link,0.0,0.0,0.0,0.0020423651338902643,0.019000332956041924,0.7650731688120116,0.643659741211276
1649114709412527084,0,1317398079250214636,/world,/map,0.0,0.0,0.0,0.0,0.0,0.0,1.0
1649114709422197580,0,1317398079260271559,/world,/map,0.0,0.0,0.0,0.0,0.0,0.0,1.0
1649114709432942152,0,1317398079270369544,/world,/map,0.0,0.0,0.0,0.0,0.0,0.0,1.0
1649114709444117307,0,1317398079280539367,/world,/map,0.0,0.0,0.0,0.0,0.0,0.0,1.0
1649114709453453063,0,1317398079290654240,/world,/map,0.0,0.0,0.0,0.0,0.0,0.0,1.0
1649114709462933540,0,1317398079300751286,/world,/map,0.0,0.0,0.0,0.0,0.0,0.0,1.0
1649114709473456859,0,1317398079310846766,/world,/map,0.0,0.0,0.0,0.0,0.0,0.0,1.0
1649114709483297109,0,1317398079320907319,/world,/map,0.0,0.0,0.0,0.0,0.0,0.0,1.0
1649114709492842435,0,1317398079330999486,/world,/map,0.0,0.0,0.0,0.0,0.0,0.0,1.0
1649114709503441095,0,1317398079341059461,/world,/map,0.0,0.0,0.0,0.0,0.0,0.0,1.0
1649114709511631727,0,1317398079339673995,world,base_link,-0.08856498275417835,0.5354143842123449,-0.007423400880000486,0.0030228228837481607,0.019430927593746594,0.7655553981679665,0.6430693850048737
1649114709512845277,0,1317398079351139704,/world,/map,0.0,0.0,0.0,0.0,0.0,0.0,1.0
1649114709523715019,0,1317398079361221215,/world,/map,0.0,0.0,0.0,0.0,0.0,0.0,1.0
1649114709533481836,0,1317398079371321423,/world,/map,0.0,0.0,0.0,0.0,0.0,0.0,1.0
1649114709544338226,0,1317398079381412806,/world,/map,0.0,0.0,0.0,0.0,0.0,0.0,1.0
1649114709554324150,0,1317398079391511052,/world,/map,0.0,0.0,0.0,0.0,0.0,0.0,1.0
1649114709563732624,0,1317398079401605624,/world,/map,0.0,0.0,0.0,0.0,0.0,0.0,1.0
1649114709573718547,0,1317398079411666332,/world,/map,0.0,0.0,0.0,0.0,0.0,0.0,1.0
1649114709584281206,0,1317398079421729736,/world,/map,0.0,0.0,0.0,0.0,0.0,0.0,1.0
1649114709593788623,0,1317398079431789635,/world,/map,0.0,0.0,0.0,0.0,0.0,0.0,1.0
1649114709604318380,0,1317398079441850045,/world,/map,0.0,0.0,0.0,0.0,0.0,0.0,1.0
1649114709613909482,0,1317398079451907054,/world,/map,0.0,0.0,0.0,0.0,0.0,0.0,1.0
1649114709622036218,0,1317398079449843883,world,base_link,-0.19145156885497272,1.12136464798823,-0.012969970699998612,0.003741791544925939,0.01918103294946773,0.7659435944136599,0.6426106886348131
1649114709624713897,0,1317398079462003671,/world,/map,0.0,0.0,0.0,0.0,0.0,0.0,1.0
1649114709634505987,0,1317398079472099712,/world,/map,0.0,0.0,0.0,0.0,0.0,0.0,1.0
1649114709644274711,0,1317398079482163844,/world,/map,0.0,0.0,0.0,0.0,0.0,0.0,1.0
1649114709654371500,0,1317398079492259825,/world,/map,0.0,0.0,0.0,0.0,0.0,0.0,1.0
1649114709665135860,0,1317398079502298159,/world,/map,0.0,0.0,0.0,0.0,0.0,0.0,1.0
1649114709674807786,0,1317398079512391353,/world,/map,0.0,0.0,0.0,0.0,0.0,0.0,1.0
1649114709684549570,0,1317398079522453660,/world,/map,0.0,0.0,0.0,0.0,0.0,0.0,1.0
1649114709695396900,0,1317398079532471515,/world,/map,0.0,0.0,0.0,0.0,0.0,0.0,1.0
1649114709705349445,0,1317398079542538949,/world,/map,0.0,0.0,0.0,0.0,0.0,0.0,1.0
1649114709715089559,0,1317398079552711599,/world,/map,0.0,0.0,0.0,0.0,0.0,0.0,1.0
1649114709722020149,0,1317398079549899101,world,base_link,-0.2896318646380678,1.6519818264059722,-0.012023925779999445,0.004222440114198015,0.0188365783819974,0.766506811675702,0.6419459961469428
1649114709724927902,0,1317398079562775746,/world,/map,0.0,0.0,0.0,0.0,0.0,0.0,1.0
1649114709735117912,0,1317398079572839272,/world,/map,0.0,0.0,0.0,0.0,0.0,0.0,1.0
1649114709745114326,0,1317398079583002014,/world,/map,0.0,0.0,0.0,0.0,0.0,0.0,1.0
1649114709755047082,0,1317398079593063349,/world,/map,0.0,0.0,0.0,0.0,0.0,0.0,1.0
1649114709766546726,0,1317398079603162558,/world,/map,0.0,0.0,0.0,0.0,0.0,0.0,1.0
1649114709776443243,0,1317398079613265634,/world,/map,0.0,0.0,0.0,0.0,0.0,0.0,1.0
1649114709786267757,0,1317398079623371472,/world,/map,0.0,0.0,0.0,0.0,0.0,0.0,1.0
1649114709796342134,0,1317398079633472411,/world,/map,0.0,0.0,0.0,0.0,0.0,0.0,1.0
1649114709806267976,0,1317398079643584528,/world,/map,0.0,0.0,0.0,0.0,0.0,0.0,1.0
1649114709816951990,0,1317398079653726245,/world,/map,0.0,0.0,0.0,0.0,0.0,0.0,1.0
1649114709822823286,0,1317398079649661064,world,base_link,-0.3872865163721144,2.1818239358253777,-0.012268066399997224,0.005583426982229081,0.01902608756188675,0.7671074669118714,0.6412121080760045
1649114709826626062,0,1317398079663785183,/world,/map,0.0,0.0,0.0,0.0,0.0,0.0,1.0
1649114709836454391,0,1317398079673885359,/world,/map,0.0,0.0,0.0,0.0,0.0,0.0,1.0
1649114709848008155,0,1317398079683973453,/world,/map,0.0,0.0,0.0,0.0,0.0,0.0,1.0
1649114709857510805,0,1317398079694089680,/world,/map,0.0,0.0,0.0,0.0,0.0,0.0,1.0
1649114709867230176,0,1317398079704215572,/world,/map,0.0,0.0,0.0,0.0,0.0,0.0,1.0
1649114709877215862,0,1317398079714319382,/world,/map,0.0,0.0,0.0,0.0,0.0,0.0,1.0
1649114709887367010,0,1317398079724426122,/world,/map,0.0,0.0,0.0,0.0,0.0,0.0,1.0
1649114709897030830,0,1317398079734488382,/world,/map,0.0,0.0,0.0,0.0,0.0,0.0,1.0
1649114709906849384,0,1317398079744593908,/world,/map,0.0,0.0,0.0,0.0,0.0,0.0,1.0
1649114709916898965,0,1317398079754752162,/world,/map,0.0,0.0,0.0,0.0,0.0,0.0,1.0
1649114709927991628,0,1317398079764877684,/world,/map,0.0,0.0,0.0,0.0,0.0,0.0,1.0
1649114709932435989,0,1317398079759722948,world,base_link,-0.49450715293642133,2.7698847707360983,-0.01582336424999653,0.007275532046067486,0.01931025548112392,0.767603293520704,0.6405929787648849
1649114709938476800,0,1317398079775010769,/world,/map,0.0,0.0,0.0,0.0,0.0,0.0,1.0
1649114709948427677,0,1317398079785091348,/world,/map,0.0,0.0,0.0,0.0,0.0,0.0,1.0
1649114709958691596,0,1317398079795222497,/world,/map,0.0,0.0,0.0,0.0,0.0,0.0,1.0
1649114709968690395,0,1317398079805340989,/world,/map,0.0,0.0,0.0,0.0,0.0,0.0,1.0
1649114709978650093,0,1317398079815463800,/world,/map,0.0,0.0,0.0,0.0,0.0,0.0,1.0
1649114709988982677,0,1317398079825547187,/world,/map,0.0,0.0,0.0,0.0,0.0,0.0,1.0
1649114709998977184,0,1317398079835637867,/world,/map,0.0,0.0,0.0,0.0,0.0,0.0,1.0
1649114710008948564,0,1317398079845766453,/world,/map,0.0,0.0,0.0,0.0,0.0,0.0,1.0
1649114710019058942,0,1317398079855861567,/world,/map,0.0,0.0,0.0,0.0,0.0,0.0,1.0
1649114710029151201,0,1317398079865966835,/world,/map,0.0,0.0,0.0,0.0,0.0,0.0,1.0
1649114710032681226,0,1317398079859652042,world,base_link,-0.596108608180657,3.311259693466127,-0.016975402829999098,0.008006710297554087,0.019455379932677506,0.7680154329185739,0.6400856783125066
1649114710039120912,0,1317398079876112302,/world,/map,0.0,0.0,0.0,0.0,0.0,0.0,1.0
1649114710049473285,0,1317398079886200494,/world,/map,0.0,0.0,0.0,0.0,0.0,0.0,1.0
1649114710059413909,0,1317398079896329486,/world,/map,0.0,0.0,0.0,0.0,0.0,0.0,1.0
1649114710069433927,0,1317398079906407906,/world,/map,0.0,0.0,0.0,0.0,0.0,0.0,1.0
1649114710079524517,0,1317398079916495070,/world,/map,0.0,0.0,0.0,0.0,0.0,0.0,1.0
1649114710090668201,0,1317398079926627210,/world,/map,0.0,0.0,0.0,0.0,0.0,0.0,1.0
1649114710099641084,0,1317398079936759297,/world,/map,0.0,0.0,0.0,0.0,0.0,0.0,1.0
1649114710109548091,0,1317398079946882018,/world,/map,0.0,0.0,0.0,0.0,0.0,0.0,1.0
1649114710119880437,0,1317398079957027663,/world,/map,0.0,0.0,0.0,0.0,0.0,0.0,1.0
1649114710129969120,0,1317398079967098928,/world,/map,0.0,0.0,0.0,0.0,0.0,0.0,1.0
1649114710140060663,0,1317398079977176374,/world,/map,0.0,0.0,0.0,0.0,0.0,0.0,1.0
1649114710142944812,0,1317398079969841003,world,base_link,-0.710871946066618,3.912316205445677,-0.013687133790000416,0.0077975921777551005,0.01979824951149419,0.7684730007554336,0.6395283214858037
1649114710150072336,0,1317398079987315948,/world,/map,0.0,0.0,0.0,0.0,0.0,0.0,1.0
1649114710161139965,0,1317398079997448729,/world,/map,0.0,0.0,0.0,0.0,0.0,0.0,1.0
1649114710171211242,0,1317398080007579183,/world,/map,0.0,0.0,0.0,0.0,0.0,0.0,1.0
1649114710181259632,0,1317398080017669551,/world,/map,0.0,0.0,0.0,0.0,0.0,0.0,1.0
1649114710191250085,0,1317398080027741786,/world,/map,0.0,0.0,0.0,0.0,0.0,0.0,1.0
1649114710201561689,0,1317398080037870054,/world,/map,0.0,0.0,0.0,0.0,0.0,0.0,1.0
1649114710211532354,0,1317398080047946022,/world,/map,0.0,0.0,0.0,0.0,0.0,0.0,1.0
1649114710221609354,0,1317398080058076447,/world,/map,0.0,0.0,0.0,0.0,0.0,0.0,1.0
1649114710231622457,0,1317398080068229972,/world,/map,0.0,0.0,0.0,0.0,0.0,0.0,1.0
1649114710241943120,0,1317398080078363489,/world,/map,0.0,0.0,0.0,0.0,0.0,0.0,1.0
1649114710242692708,0,1317398080069680929,world,base_link,-0.8186954471748322,4.464126334525645,-0.006401062009999237,0.007967037165941592,0.01984898376987516,0.7688232792576056,0.6391035201230559
1649114710251704931,0,1317398080088433145,/world,/map,0.0,0.0,0.0,0.0,0.0,0.0,1.0
1649114710261857271,0,1317398080098608176,/world,/map,0.0,0.0,0.0,0.0,0.0,0.0,1.0
1649114710272114753,0,1317398080108695464,/world,/map,0.0,0.0,0.0,0.0,0.0,0.0,1.0
1649114710282054901,0,1317398080118763242,/world,/map,0.0,0.0,0.0,0.0,0.0,0.0,1.0
1649114710292014837,0,1317398080128817787,/world,/map,0.0,0.0,0.0,0.0,0.0,0.0,1.0
1649114710302314281,0,1317398080138901984,/world,/map,0.0,0.0,0.0,0.0,0.0,0.0,1.0
1649114710312340497,0,1317398080148961245,/world,/map,0.0,0.0,0.0,0.0,0.0,0.0,1.0
1649114710322548389,0,1317398080159100364,/world,/map,0.0,0.0,0.0,0.0,0.0,0.0,1.0
1649114710332191705,0,1317398080169265525,/world,/map,0.0,0.0,0.0,0.0,0.0,0.0,1.0
1649114710342255115,0,1317398080179392275,/world,/map,0.0,0.0,0.0,0.0,0.0,0.0,1.0
1649114710352446556,0,1317398080189473110,/world,/map,0.0,0.0,0.0,0.0,0.0,0.0,1.0
1649114710353284835,0,1317398080179646015,world,base_link,-0.9383370915893465,5.081078744493425,-0.0040969848599985426,0.008782965966202117,0.018759558102060925,0.7692302013944026,0.638635917993483
1649114710362187862,0,1317398080199617382,/world,/map,0.0,0.0,0.0,0.0,0.0,0.0,1.0
1649114710372693061,0,1317398080209713272,/world,/map,0.0,0.0,0.0,0.0,0.0,0.0,1.0
1649114710383595705,0,1317398080219856428,/world,/map,0.0,0.0,0.0,0.0,0.0,0.0,1.0
1649114710392596244,0,1317398080229975400,/world,/map,0.0,0.0,0.0,0.0,0.0,0.0,1.0
1649114710403955221,0,1317398080240095252,/world,/map,0.0,0.0,0.0,0.0,0.0,0.0,1.0
1649114710413912534,0,1317398080250236792,/world,/map,0.0,0.0,0.0,0.0,0.0,0.0,1.0
1649114710423971652,0,1317398080260338505,/world,/map,0.0,0.0,0.0,0.0,0.0,0.0,1.0
1649114710433038949,0,1317398080270461043,/world,/map,0.0,0.0,0.0,0.0,0.0,0.0,1.0
1649114710444329023,0,1317398080280606072,/world,/map,0.0,0.0,0.0,0.0,0.0,0.0,1.0
1649114710452822923,0,1317398080279638051,world,base_link,-1.0511732766171917,5.649260878097266,-0.003967285149997224,0.009689936789657792,0.016922364865080745,0.7695994874253931,0.6382290871207279
1649114710454204082,0,1317398080290694046,/world,/map,0.0,0.0,0.0,0.0,0.0,0.0,1.0
1649114710464305162,0,1317398080300809662,/world,/map,0.0,0.0,0.0,0.0,0.0,0.0,1.0
1649114710474490642,0,1317398080310919241,/world,/map,0.0,0.0,0.0,0.0,0.0,0.0,1.0
1649114710484354734,0,1317398080320992855,/world,/map,0.0,0.0,0.0,0.0,0.0,0.0,1.0
1649114710494478225,0,1317398080331111987,/world,/map,0.0,0.0,0.0,0.0,0.0,0.0,1.0
1649114710504447698,0,1317398080341195401,/world,/map,0.0,0.0,0.0,0.0,0.0,0.0,1.0
1649114710514525651,0,1317398080351265658,/world,/map,0.0,0.0,0.0,0.0,0.0,0.0,1.0
1649114710524991273,0,1317398080361374808,/world,/map,0.0,0.0,0.0,0.0,0.0,0.0,1.0
1649114710535111665,0,1317398080371511659,/world,/map,0.0,0.0,0.0,0.0,0.0,0.0,1.0
1649114710544948816,0,1317398080381637635,/world,/map,0.0,0.0,0.0,0.0,0.0,0.0,1.0
1649114710552636861,0,1317398080379646062,world,base_link,-1.165557706495747,6.228106155525893,-0.007377624509999237,0.010645263941384835,0.015167492838940652,0.7699859374762253,0.6377917227476831
1649114710555062770,0,1317398080391712045,/world,/map,0.0,0.0,0.0,0.0,0.0,0.0,1.0
1649114710565319061,0,1317398080401847483,/world,/map,0.0,0.0,0.0,0.0,0.0,0.0,1.0
1649114710575345993,0,1317398080411975585,/world,/map,0.0,0.0,0.0,0.0,0.0,0.0,1.0
1649114710585382699,0,1317398080422075183,/world,/map,0.0,0.0,0.0,0.0,0.0,0.0,1.0
1649114710595783472,0,1317398080432156603,/world,/map,0.0,0.0,0.0,0.0,0.0,0.0,1.0
1649114710605517387,0,1317398080442230274,/world,/map,0.0,0.0,0.0,0.0,0.0,0.0,1.0
1649114710615579366,0,1317398080452303985,/world,/map,0.0,0.0,0.0,0.0,0.0,0.0,1.0
1649114710625788450,0,1317398080462423704,/world,/map,0.0,0.0,0.0,0.0,0.0,0.0,1.0
1649114710635600566,0,1317398080472495102,/world,/map,0.0,0.0,0.0,0.0,0.0,0.0,1.0
1649114710645501852,0,1317398080482624325,/world,/map,0.0,0.0,0.0,0.0,0.0,0.0,1.0
1649114710656075000,0,1317398080492711619,/world,/map,0.0,0.0,0.0,0.0,0.0,0.0,1.0
1649114710662857532,0,1317398080489717960,world,base_link,-1.294504885096103,6.877037771977484,-0.007865905759999237,0.010417231489430837,0.014342173544595384,0.7704014150726126,0.6373126728696273
1649114710665987014,0,1317398080502845111,/world,/map,0.0,0.0,0.0,0.0,0.0,0.0,1.0
1649114710675961256,0,1317398080512983327,/world,/map,0.0,0.0,0.0,0.0,0.0,0.0,1.0
1649114710685955047,0,1317398080523121712,/world,/map,0.0,0.0,0.0,0.0,0.0,0.0,1.0
1649114710697063684,0,1317398080533197900,/world,/map,0.0,0.0,0.0,0.0,0.0,0.0,1.0
1649114710706419944,0,1317398080543288657,/world,/map,0.0,0.0,0.0,0.0,0.0,0.0,1.0
1649114710716340303,0,1317398080553395932,/world,/map,0.0,0.0,0.0,0.0,0.0,0.0,1.0
1649114710726585149,0,1317398080563501479,/world,/map,0.0,0.0,0.0,0.0,0.0,0.0,1.0
1649114710736650705,0,1317398080573606055,/world,/map,0.0,0.0,0.0,0.0,0.0,0.0,1.0
1649114710746805906,0,1317398080583675826,/world,/map,0.0,0.0,0.0,0.0,0.0,0.0,1.0
1649114710756645441,0,1317398080593768272,/world,/map,0.0,0.0,0.0,0.0,0.0,0.0,1.0
1649114710762570142,0,1317398080589646100,world,base_link,-1.4156032832106575,7.481707996688783,-0.0026702880799973627,0.007333910686632057,0.015389910644880083,0.7707660773924712,0.6368901148121285
1649114710766625642,0,1317398080603891799,/world,/map,0.0,0.0,0.0,0.0,0.0,0.0,1.0
1649114710776648759,0,1317398080614038649,/world,/map,0.0,0.0,0.0,0.0,0.0,0.0,1.0
1649114710788157224,0,1317398080624177402,/world,/map,0.0,0.0,0.0,0.0,0.0,0.0,1.0
1649114710797214984,0,1317398080634309538,/world,/map,0.0,0.0,0.0,0.0,0.0,0.0,1.0
1649114710807258129,0,1317398080644392770,/world,/map,0.0,0.0,0.0,0.0,0.0,0.0,1.0
1649114710817594766,0,1317398080654518536,/world,/map,0.0,0.0,0.0,0.0,0.0,0.0,1.0
1649114710828369855,0,1317398080664610264,/world,/map,0.0,0.0,0.0,0.0,0.0,0.0,1.0
1649114710837631702,0,1317398080674725844,/world,/map,0.0,0.0,0.0,0.0,0.0,0.0,1.0
1649114710847728013,0,1317398080684872528,/world,/map,0.0,0.0,0.0,0.0,0.0,0.0,1.0
1649114710858103513,0,1317398080694974611,/world,/map,0.0,0.0,0.0,0.0,0.0,0.0,1.0
1649114710868432044,0,1317398080705038622,/world,/map,0.0,0.0,0.0,0.0,0.0,0.0,1.0
1649114710872768878,0,1317398080699630022,world,base_link,-1.5522452468285337,8.162032569292933,0.008041381840001804,0.0027863340249119225,0.01859005743675209,0.7710389433378011,0.6365104822104086
1649114710878473520,0,1317398080715170185,/world,/map,0.0,0.0,0.0,0.0,0.0,0.0,1.0
1649114710888584136,0,1317398080725244985,/world,/map,0.0,0.0,0.0,0.0,0.0,0.0,1.0
1649114710898571252,0,1317398080735382276,/world,/map,0.0,0.0,0.0,0.0,0.0,0.0,1.0
1649114710908439636,0,1317398080745510031,/world,/map,0.0,0.0,0.0,0.0,0.0,0.0,1.0
1649114710918648481,0,1317398080755608919,/world,/map,0.0,0.0,0.0,0.0,0.0,0.0,1.0
1649114710928641557,0,1317398080765754680,/world,/map,0.0,0.0,0.0,0.0,0.0,0.0,1.0
1649114710938609123,0,1317398080775887821,/world,/map,0.0,0.0,0.0,0.0,0.0,0.0,1.0
1649114710949709415,0,1317398080786008694,/world,/map,0.0,0.0,0.0,0.0,0.0,0.0,1.0
1649114710959702491,0,1317398080796144482,/world,/map,0.0,0.0,0.0,0.0,0.0,0.0,1.0
1649114710968925476,0,1317398080806215981,/world,/map,0.0,0.0,0.0,0.0,0.0,0.0,1.0
1649114710972643852,0,1317398080799640893,world,base_link,-1.678741474635899,8.79364373954013,0.015647888190002845,-0.00018842213296609505,0.02047104818334363,0.7712535383135272,0.6361987742225224
1649114710980104923,0,1317398080816293049,/world,/map,0.0,0.0,0.0,0.0,0.0,0.0,1.0
1649114710989821434,0,1317398080826438502,/world,/map,0.0,0.0,0.0,0.0,0.0,0.0,1.0
1649114710999859094,0,1317398080836565833,/world,/map,0.0,0.0,0.0,0.0,0.0,0.0,1.0
1649114711010195493,0,1317398080846644897,/world,/map,0.0,0.0,0.0,0.0,0.0,0.0,1.0
1649114711020188570,0,1317398080856781818,/world,/map,0.0,0.0,0.0,0.0,0.0,0.0,1.0
1649114711030238866,0,1317398080866927347,/world,/map,0.0,0.0,0.0,0.0,0.0,0.0,1.0
1649114711040416717,0,1317398080877019665,/world,/map,0.0,0.0,0.0,0.0,0.0,0.0,1.0
1649114711050716400,0,1317398080887186834,/world,/map,0.0,0.0,0.0,0.0,0.0,0.0,1.0
1649114711060674667,0,1317398080897297938,/world,/map,0.0,0.0,0.0,0.0,0.0,0.0,1.0
1649114711071060895,0,1317398080907427622,/world,/map,0.0,0.0,0.0,0.0,0.0,0.0,1.0
1649114711072223186,0,1317398080899650096,world,base_link,-1.8088110188255087,9.435772578697652,0.01456451415999993,-0.0010787141759468649,0.019738354142440778,0.7716697181589104,0.6357161944044072
1649114711080919265,0,1317398080917585254,/world,/map,0.0,0.0,0.0,0.0,0.0,0.0,1.0
1649114711091083526,0,1317398080927716845,/world,/map,0.0,0.0,0.0,0.0,0.0,0.0,1.0
1649114711101105928,0,1317398080937861365,/world,/map,0.0,0.0,0.0,0.0,0.0,0.0,1.0
1649114711111115455,0,1317398080947945103,/world,/map,0.0,0.0,0.0,0.0,0.0,0.0,1.0
1649114711121227741,0,1317398080958074468,/world,/map,0.0,0.0,0.0,0.0,0.0,0.0,1.0
1649114711131004571,0,1317398080968209605,/world,/map,0.0,0.0,0.0,0.0,0.0,0.0,1.0
1649114711141193628,0,1317398080978315506,/world,/map,0.0,0.0,0.0,0.0,0.0,0.0,1.0
1649114711152322530,0,1317398080988443757,/world,/map,0.0,0.0,0.0,0.0,0.0,0.0,1.0
1649114711162133216,0,1317398080998516473,/world,/map,0.0,0.0,0.0,0.0,0.0,0.0,1.0
1649114711172342777,0,1317398081008657891,/world,/map,0.0,0.0,0.0,0.0,0.0,0.0,1.0
1649114711182496070,0,1317398081018806416,/world,/map,0.0,0.0,0.0,0.0,0.0,0.0,1.0
1649114711183214187,0,1317398081009690999,world,base_link,-1.9578001553891227,10.15652247518301,-0.004730224610000278,0.0011491196145841783,0.016339437657434727,0.7719864847673321,0.6354278634414199
1649114711192444086,0,1317398081028886140,/world,/map,0.0,0.0,0.0,0.0,0.0,0.0,1.0
1649114711202572584,0,1317398081038972895,/world,/map,0.0,0.0,0.0,0.0,0.0,0.0,1.0
1649114711212755680,0,1317398081049055612,/world,/map,0.0,0.0,0.0,0.0,0.0,0.0,1.0
1649114711223086833,0,1317398081059153003,/world,/map,0.0,0.0,0.0,0.0,0.0,0.0,1.0
1649114711232015371,0,1317398081069242216,/world,/map,0.0,0.0,0.0,0.0,0.0,0.0,1.0
1649114711243215799,0,1317398081079376125,/world,/map,0.0,0.0,0.0,0.0,0.0,0.0,1.0
1649114711252361536,0,1317398081089457146,/world,/map,0.0,0.0,0.0,0.0,0.0,0.0,1.0
1649114711262583732,0,1317398081099532302,/world,/map,0.0,0.0,0.0,0.0,0.0,0.0,1.0
1649114711272598743,0,1317398081109663984,/world,/map,0.0,0.0,0.0,0.0,0.0,0.0,1.0
1649114711282568454,0,1317398081109601974,world,base_link,-2.0938591653248295,10.827932783402503,-0.027236938469997085,0.0040497460454648705,0.014287501228100073,0.7722668717760324,0.6351246693546749
1649114711283710479,0,1317398081120217946,/world,/map,0.0,0.0,0.0,0.0,0.0,0.0,1.0
1649114711293955326,0,1317398081130365869,/world,/map,0.0,0.0,0.0,0.0,0.0,0.0,1.0
1649114711304070949,0,1317398081140489977,/world,/map,0.0,0.0,0.0,0.0,0.0,0.0,1.0
1649114711314131975,0,1317398081150577993,/world,/map,0.0,0.0,0.0,0.0,0.0,0.0,1.0
1649114711324104309,0,1317398081160726063,/world,/map,0.0,0.0,0.0,0.0,0.0,0.0,1.0
1649114711334116697,0,1317398081170854399,/world,/map,0.0,0.0,0.0,0.0,0.0,0.0,1.0
1649114711344289779,0,1317398081180972223,/world,/map,0.0,0.0,0.0,0.0,0.0,0.0,1.0
1649114711354325771,0,1317398081191106035,/world,/map,0.0,0.0,0.0,0.0,0.0,0.0,1.0
1649114711364573478,0,1317398081201209406,/world,/map,0.0,0.0,0.0,0.0,0.0,0.0,1.0
1649114711374478816,0,1317398081211343598,/world,/map,0.0,0.0,0.0,0.0,0.0,0.0,1.0
1649114711384578704,0,1317398081221414789,/world,/map,0.0,0.0,0.0,0.0,0.0,0.0,1.0
1649114711392690420,0,1317398081219624996,world,base_link,-2.242673541768454,11.587950445245951,-0.041969299309997155,0.004481754988121972,0.01543403335578424,0.7726810612095749,0.6345909565496847
1649114711394596099,0,1317398081231501679,/world,/map,0.0,0.0,0.0,0.0,0.0,0.0,1.0
1649114711404839754,0,1317398081241638140,/world,/map,0.0,0.0,0.0,0.0,0.0,0.0,1.0
1649114711414750099,0,1317398081251781305,/world,/map,0.0,0.0,0.0,0.0,0.0,0.0,1.0
1649114711424910306,0,1317398081261872912,/world,/map,0.0,0.0,0.0,0.0,0.0,0.0,1.0
1649114711435260534,0,1317398081271965622,/world,/map,0.0,0.0,0.0,0.0,0.0,0.0,1.0
1649114711445203304,0,1317398081282040117,/world,/map,0.0,0.0,0.0,0.0,0.0,0.0,1.0
1649114711455477476,0,1317398081292132190,/world,/map,0.0,0.0,0.0,0.0,0.0,0.0,1.0
1649114711465520858,0,1317398081302264038,/world,/map,0.0,0.0,0.0,0.0,0.0,0.0,1.0
1649114711475643157,0,1317398081312376658,/world,/map,0.0,0.0,0.0,0.0,0.0,0.0,1.0
1649114711486162185,0,1317398081322502902,/world,/map,0.0,0.0,0.0,0.0,0.0,0.0,1.0
1649114711492616653,0,1317398081319645881,world,base_link,-2.376784532563761,12.297678408678621,-0.046974182130000486,0.0011287833786222136,0.018801018913398772,0.7727950492798263,0.6343761182015704
1649114711496180057,0,1317398081332634025,/world,/map,0.0,0.0,0.0,0.0,0.0,0.0,1.0
1649114711506443738,0,1317398081342729119,/world,/map,0.0,0.0,0.0,0.0,0.0,0.0,1.0
1649114711516072034,0,1317398081352808747,/world,/map,0.0,0.0,0.0,0.0,0.0,0.0,1.0
1649114711525372266,0,1317398081362899059,/world,/map,0.0,0.0,0.0,0.0,0.0,0.0,1.0
1649114711535753726,0,1317398081372923483,/world,/map,0.0,0.0,0.0,0.0,0.0,0.0,1.0
1649114711545232057,0,1317398081383016882,/world,/map,0.0,0.0,0.0,0.0,0.0,0.0,1.0
1649114711555892229,0,1317398081393076782,/world,/map,0.0,0.0,0.0,0.0,0.0,0.0,1.0
1649114711565620660,0,1317398081403139795,/world,/map,0.0,0.0,0.0,0.0,0.0,0.0,1.0
1649114711575738906,0,1317398081413201521,/world,/map,0.0,0.0,0.0,0.0,0.0,0.0,1.0
1649114711585230350,0,1317398081423261125,/world,/map,0.0,0.0,0.0,0.0,0.0,0.0,1.0
1649114711595933437,0,1317398081433345663,/world,/map,0.0,0.0,0.0,0.0,0.0,0.0,1.0
1649114711601662397,0,1317398081429598093,world,base_link,-2.5295979662332684,13.096736668143421,-0.056663513179998404,-0.001872840097203928,0.021602699341934994,0.7729140626975065,0.6341401008732591
1649114711605488300,0,1317398081443437883,/world,/map,0.0,0.0,0.0,0.0,0.0,0.0,1.0
1649114711616473436,0,1317398081453506998,/world,/map,0.0,0.0,0.0,0.0,0.0,0.0,1.0
1649114711626369714,0,1317398081463553913,/world,/map,0.0,0.0,0.0,0.0,0.0,0.0,1.0
1649114711635403633,0,1317398081473610404,/world,/map,0.0,0.0,0.0,0.0,0.0,0.0,1.0
1649114711646517038,0,1317398081483701326,/world,/map,0.0,0.0,0.0,0.0,0.0,0.0,1.0
1649114711656207084,0,1317398081493764908,/world,/map,0.0,0.0,0.0,0.0,0.0,0.0,1.0
1649114711665858030,0,1317398081503851480,/world,/map,0.0,0.0,0.0,0.0,0.0,0.0,1.0
1649114711676639795,0,1317398081513925672,/world,/map,0.0,0.0,0.0,0.0,0.0,0.0,1.0
1649114711686340808,0,1317398081523986685,/world,/map,0.0,0.0,0.0,0.0,0.0,0.0,1.0
1649114711695912361,0,1317398081534054966,/world,/map,0.0,0.0,0.0,0.0,0.0,0.0,1.0
1649114711701716899,0,1317398081529654026,world,base_link,-2.6739512039348483,13.83775057643652,-0.0716400146500007,-0.0026218974749976504,0.02280336172434433,0.7730330235503715,0.6339503741210901
1649114711706757307,0,1317398081544148463,/world,/map,0.0,0.0,0.0,0.0,0.0,0.0,1.0
1649114711716384649,0,1317398081554246427,/world,/map,0.0,0.0,0.0,0.0,0.0,0.0,1.0
1649114711727198123,0,1317398081564343027,/world,/map,0.0,0.0,0.0,0.0,0.0,0.0,1.0
1649114711737133741,0,1317398081574426395,/world,/map,0.0,0.0,0.0,0.0,0.0,0.0,1.0
1649114711746570587,0,1317398081584483396,/world,/map,0.0,0.0,0.0,0.0,0.0,0.0,1.0
1649114711757272005,0,1317398081594545726,/world,/map,0.0,0.0,0.0,0.0,0.0,0.0,1.0
1649114711767177820,0,1317398081604642373,/world,/map,0.0,0.0,0.0,0.0,0.0,0.0,1.0
1649114711777411222,0,1317398081614806084,/world,/map,0.0,0.0,0.0,0.0,0.0,0.0,1.0
1649114711787734031,0,1317398081624917477,/world,/map,0.0,0.0,0.0,0.0,0.0,0.0,1.0
1649114711798038721,0,1317398081635109984,/world,/map,0.0,0.0,0.0,0.0,0.0,0.0,1.0
1649114711801606416,0,1317398081629601955,world,base_link,-2.8197425904218107,14.593855983577669,-0.09381866454999965,-0.001616869006922882,0.023335919343331662,0.7730921641801518,0.633862229736293
1649114711808103084,0,1317398081645168369,/world,/map,0.0,0.0,0.0,0.0,0.0,0.0,1.0
1649114711818253517,0,1317398081655313658,/world,/map,0.0,0.0,0.0,0.0,0.0,0.0,1.0
1649114711828507900,0,1317398081665424849,/world,/map,0.0,0.0,0.0,0.0,0.0,0.0,1.0
1649114711838892221,0,1317398081675508436,/world,/map,0.0,0.0,0.0,0.0,0.0,0.0,1.0
1649114711848986148,0,1317398081685646567,/world,/map,0.0,0.0,0.0,0.0,0.0,0.0,1.0
1649114711858829736,0,1317398081695717979,/world,/map,0.0,0.0,0.0,0.0,0.0,0.0,1.0
1649114711869069576,0,1317398081705848554,/world,/map,0.0,0.0,0.0,0.0,0.0,0.0,1.0
1649114711879196405,0,1317398081715978404,/world,/map,0.0,0.0,0.0,0.0,0.0,0.0,1.0
1649114711889265060,0,1317398081726055129,/world,/map,0.0,0.0,0.0,0.0,0.0,0.0,1.0
1649114711899325370,0,1317398081736183786,/world,/map,0.0,0.0,0.0,0.0,0.0,0.0,1.0
1649114711909493446,0,1317398081746320209,/world,/map,0.0,0.0,0.0,0.0,0.0,0.0,1.0
1649114711912926673,0,1317398081739624023,world,base_link,-2.987557325512171,15.446129443123937,-0.1224441528299991,-0.0002914982671934189,0.022731639564606335,0.77299076363124,0.6340098318892677
1649114711919441938,0,1317398081756443795,/world,/map,0.0,0.0,0.0,0.0,0.0,0.0,1.0
1649114711929429054,0,1317398081766597205,/world,/map,0.0,0.0,0.0,0.0,0.0,0.0,1.0
1649114711940619945,0,1317398081776724946,/world,/map,0.0,0.0,0.0,0.0,0.0,0.0,1.0
1649114711950716733,0,1317398081786874681,/world,/map,0.0,0.0,0.0,0.0,0.0,0.0,1.0
1649114711960709810,0,1317398081797027159,/world,/map,0.0,0.0,0.0,0.0,0.0,0.0,1.0
1649114711970797061,0,1317398081807119522,/world,/map,0.0,0.0,0.0,0.0,0.0,0.0,1.0
1649114711980495929,0,1317398081817202415,/world,/map,0.0,0.0,0.0,0.0,0.0,0.0,1.0
1649114711990170955,0,1317398081827305976,/world,/map,0.0,0.0,0.0,0.0,0.0,0.0,1.0
1649114712000272989,0,1317398081837424345,/world,/map,0.0,0.0,0.0,0.0,0.0,0.0,1.0
1649114712010470390,0,1317398081847544080,/world,/map,0.0,0.0,0.0,0.0,0.0,0.0,1.0
1649114712012742042,0,1317398081839612960,world,base_link,-3.1360501986928284,16.232771772891283,-0.14959716797000056,0.00020837331365480485,0.02076009730722853,0.7728303139525327,0.6342730333037867
1649114712020601511,0,1317398081857676302,/world,/map,0.0,0.0,0.0,0.0,0.0,0.0,1.0
1649114712030900478,0,1317398081867816577,/world,/map,0.0,0.0,0.0,0.0,0.0,0.0,1.0
1649114712042095422,0,1317398081877947456,/world,/map,0.0,0.0,0.0,0.0,0.0,0.0,1.0
1649114712050813674,0,1317398081888100674,/world,/map,0.0,0.0,0.0,0.0,0.0,0.0,1.0
1649114712061049461,0,1317398081898250337,/world,/map,0.0,0.0,0.0,0.0,0.0,0.0,1.0
1649114712071495532,0,1317398081908378259,/world,/map,0.0,0.0,0.0,0.0,0.0,0.0,1.0
1649114712081251382,0,1317398081918512121,/world,/map,0.0,0.0,0.0,0.0,0.0,0.0,1.0
1649114712091341733,0,1317398081928591791,/world,/map,0.0,0.0,0.0,0.0,0.0,0.0,1.0
1649114712101477622,0,1317398081938689104,/world,/map,0.0,0.0,0.0,0.0,0.0,0.0,1.0
1649114712111531496,0,1317398081948824659,/world,/map,0.0,0.0,0.0,0.0,0.0,0.0,1.0
1649114712122003793,0,1317398081958947163,/world,/map,0.0,0.0,0.0,0.0,0.0,0.0,1.0
1649114712123034954,0,1317398081949678897,world,base_link,-3.300118688493967,17.115845347288996,-0.17485809325999924,0.0032332323363429803,0.020017458830054412,0.7724796036934409,0.634715770584181
1649114712131955385,0,1317398081969013964,/world,/map,0.0,0.0,0.0,0.0,0.0,0.0,1.0
1649114712142997980,0,1317398081979127589,/world,/map,0.0,0.0,0.0,0.0,0.0,0.0,1.0
1649114712151940107,0,1317398081989209137,/world,/map,0.0,0.0,0.0,0.0,0.0,0.0,1.0
1649114712162212610,0,1317398081999300148,/world,/map,0.0,0.0,0.0,0.0,0.0,0.0,1.0
1649114712172336101,0,1317398082009415227,/world,/map,0.0,0.0,0.0,0.0,0.0,0.0,1.0
1649114712182479619,0,1317398082019548844,/world,/map,0.0,0.0,0.0,0.0,0.0,0.0,1.0
1649114712192759275,0,1317398082029632046,/world,/map,0.0,0.0,0.0,0.0,0.0,0.0,1.0
1649114712202780723,0,1317398082039710037,/world,/map,0.0,0.0,0.0,0.0,0.0,0.0,1.0
1649114712212782382,0,1317398082049840906,/world,/map,0.0,0.0,0.0,0.0,0.0,0.0,1.0
1649114712223317623,0,1317398082049709081,world,base_link,-3.446290106745437,17.932000023312867,-0.19274902342999667,0.006387077683556374,0.01916488824351849,0.7722664485800229,0.6349775151096899
1649114712224212884,0,1317398082060564687,/world,/map,0.0,0.0,0.0,0.0,0.0,0.0,1.0
1649114712233854532,0,1317398082070699000,/world,/map,0.0,0.0,0.0,0.0,0.0,0.0,1.0
1649114712243718624,0,1317398082080800717,/world,/map,0.0,0.0,0.0,0.0,0.0,0.0,1.0
1649114712254002332,0,1317398082090874193,/world,/map,0.0,0.0,0.0,0.0,0.0,0.0,1.0
1649114712264106273,0,1317398082100952568,/world,/map,0.0,0.0,0.0,0.0,0.0,0.0,1.0
1649114712274076700,0,1317398082111063414,/world,/map,0.0,0.0,0.0,0.0,0.0,0.0,1.0
1649114712284147262,0,1317398082121143427,/world,/map,0.0,0.0,0.0,0.0,0.0,0.0,1.0
1649114712294532775,0,1317398082131218901,/world,/map,0.0,0.0,0.0,0.0,0.0,0.0,1.0
1649114712304685115,0,1317398082141304504,/world,/map,0.0,0.0,0.0,0.0,0.0,0.0,1.0
1649114712314864397,0,1317398082151464323,/world,/map,0.0,0.0,0.0,0.0,0.0,0.0,1.0
1649114712324775218,0,1317398082161531942,/world,/map,0.0,0.0,0.0,0.0,0.0,0.0,1.0
1649114712332714080,0,1317398082159647941,world,base_link,-3.619702164665796,18.85114774107933,-0.21286773680999715,0.008536655248866367,0.01696010414550647,0.7718855412232588,0.6354779237983113
1649114712334701299,0,1317398082171675927,/world,/map,0.0,0.0,0.0,0.0,0.0,0.0,1.0
1649114712344666719,0,1317398082181752939,/world,/map,0.0,0.0,0.0,0.0,0.0,0.0,1.0
1649114712354963541,0,1317398082191878946,/world,/map,0.0,0.0,0.0,0.0,0.0,0.0,1.0
1649114712364879131,0,1317398082202038995,/world,/map,0.0,0.0,0.0,0.0,0.0,0.0,1.0
1649114712375059127,0,1317398082212165493,/world,/map,0.0,0.0,0.0,0.0,0.0,0.0,1.0
1649114712385376691,0,1317398082222247173,/world,/map,0.0,0.0,0.0,0.0,0.0,0.0,1.0
1649114712396481752,0,1317398082232417354,/world,/map,0.0,0.0,0.0,0.0,0.0,0.0,1.0
1649114712405587911,0,1317398082242550167,/world,/map,0.0,0.0,0.0,0.0,0.0,0.0,1.0
1649114712415765047,0,1317398082252683119,/world,/map,0.0,0.0,0.0,0.0,0.0,0.0,1.0
1649114712425834178,0,1317398082262785332,/world,/map,0.0,0.0,0.0,0.0,0.0,0.0,1.0
1649114712432562112,0,1317398082259574890,world,base_link,-3.7772833495400846,19.70112065412104,-0.22136688231999813,0.00849552186701104,0.01620338512352596,0.771821185833116,0.6355763789804562
1649114712436131477,0,1317398082272868493,/world,/map,0.0,0.0,0.0,0.0,0.0,0.0,1.0
1649114712445816755,0,1317398082283007295,/world,/map,0.0,0.0,0.0,0.0,0.0,0.0,1.0
1649114712456192731,0,1317398082293102695,/world,/map,0.0,0.0,0.0,0.0,0.0,0.0,1.0
1649114712465998649,0,1317398082303191048,/world,/map,0.0,0.0,0.0,0.0,0.0,0.0,1.0
1649114712476292133,0,1317398082313303695,/world,/map,0.0,0.0,0.0,0.0,0.0,0.0,1.0
1649114712487318277,0,1317398082323462974,/world,/map,0.0,0.0,0.0,0.0,0.0,0.0,1.0
1649114712496459722,0,1317398082333547293,/world,/map,0.0,0.0,0.0,0.0,0.0,0.0,1.0
1649114712507431507,0,1317398082343685383,/world,/map,0.0,0.0,0.0,0.0,0.0,0.0,1.0
1649114712517440557,0,1317398082353826550,/world,/map,0.0,0.0,0.0,0.0,0.0,0.0,1.0
1649114712527444124,0,1317398082363950726,/world,/map,0.0,0.0,0.0,0.0,0.0,0.0,1.0
1649114712532446384,0,1317398082359594106,world,base_link,-3.939415968256071,20.56916592735797,-0.22370910643999764,0.008146389998930399,0.016265382932925707,0.7719082649361227,0.6354736061956745
1649114712537557601,0,1317398082374167713,/world,/map,0.0,0.0,0.0,0.0,0.0,0.0,1.0
1649114712547579050,0,1317398082384310597,/world,/map,0.0,0.0,0.0,0.0,0.0,0.0,1.0
1649114712557640790,0,1317398082394398983,/world,/map,0.0,0.0,0.0,0.0,0.0,0.0,1.0
1649114712567782163,0,1317398082404483186,/world,/map,0.0,0.0,0.0,0.0,0.0,0.0,1.0
1649114712578059434,0,1317398082414614922,/world,/map,0.0,0.0,0.0,0.0,0.0,0.0,1.0
1649114712588229179,0,1317398082424756565,/world,/map,0.0,0.0,0.0,0.0,0.0,0.0,1.0
1649114712598537921,0,1317398082434889892,/world,/map,0.0,0.0,0.0,0.0,0.0,0.0,1.0
1649114712608513593,0,1317398082444966671,/world,/map,0.0,0.0,0.0,0.0,0.0,0.0,1.0
1649114712618921041,0,1317398082455145402,/world,/map,0.0,0.0,0.0,0.0,0.0,0.0,1.0
1649114712628706216,0,1317398082465227538,/world,/map,0.0,0.0,0.0,0.0,0.0,0.0,1.0
1649114712639181852,0,1317398082475353543,/world,/map,0.0,0.0,0.0,0.0,0.0,0.0,1.0
1649114712642995595,0,1317398082469732046,world,base_link,-4.120142779662274,21.541111790575087,-0.22577667235999854,0.008111325284689106,0.01543133805202967,0.7719032983879854,0.6355008876042574
1649114712649084091,0,1317398082485495664,/world,/map,0.0,0.0,0.0,0.0,0.0,0.0,1.0
1649114712659278154,0,1317398082495627996,/world,/map,0.0,0.0,0.0,0.0,0.0,0.0,1.0
1649114712669503450,0,1317398082505754649,/world,/map,0.0,0.0,0.0,0.0,0.0,0.0,1.0
1649114712679372072,0,1317398082515898801,/world,/map,0.0,0.0,0.0,0.0,0.0,0.0,1.0
1649114712689560651,0,1317398082526040614,/world,/map,0.0,0.0,0.0,0.0,0.0,0.0,1.0
1649114712699312925,0,1317398082536124561,/world,/map,0.0,0.0,0.0,0.0,0.0,0.0,1.0
1649114712709264993,0,1317398082546209664,/world,/map,0.0,0.0,0.0,0.0,0.0,0.0,1.0
1649114712719443082,0,1317398082556297094,/world,/map,0.0,0.0,0.0,0.0,0.0,0.0,1.0
1649114712729457378,0,1317398082566367783,/world,/map,0.0,0.0,0.0,0.0,0.0,0.0,1.0
1649114712739655017,0,1317398082576478398,/world,/map,0.0,0.0,0.0,0.0,0.0,0.0,1.0
1649114712742729902,0,1317398082569617033,world,base_link,-4.290864710696042,22.43959934823215,-0.22905731200999924,0.008107609583669085,0.013757679962519464,0.7718737582191512,0.6355752467501633
1649114712749409437,0,1317398082586606220,/world,/map,0.0,0.0,0.0,0.0,0.0,0.0,1.0
1649114712759586811,0,1317398082596728682,/world,/map,0.0,0.0,0.0,0.0,0.0,0.0,1.0
1649114712769912004,0,1317398082606808301,/world,/map,0.0,0.0,0.0,0.0,0.0,0.0,1.0
1649114712779859781,0,1317398082616958800,/world,/map,0.0,0.0,0.0,0.0,0.0,0.0,1.0
1649114712790003299,0,1317398082627053159,/world,/map,0.0,0.0,0.0,0.0,0.0,0.0,1.0
1649114712800280332,0,1317398082637138093,/world,/map,0.0,0.0,0.0,0.0,0.0,0.0,1.0
1649114712810481548,0,1317398082647274303,/world,/map,0.0,0.0,0.0,0.0,0.0,0.0,1.0
1649114712820605039,0,1317398082657327186,/world,/map,0.0,0.0,0.0,0.0,0.0,0.0,1.0
1649114712830904483,0,1317398082667478023,/world,/map,0.0,0.0,0.0,0.0,0.0,0.0,1.0
1649114712841234445,0,1317398082677614812,/world,/map,0.0,0.0,0.0,0.0,0.0,0.0,1.0
1649114712851143360,0,1317398082687769492,/world,/map,0.0,0.0,0.0,0.0,0.0,0.0,1.0
1649114712852638483,0,1317398082679593086,world,base_link,-4.476287218858488,23.44884028332308,-0.23180389403999868,0.007268107422279201,0.012046285223706283,0.7719105580194944,0.6355754495296685
1649114712861196756,0,1317398082697899269,/world,/map,0.0,0.0,0.0,0.0,0.0,0.0,1.0
1649114712871328592,0,1317398082708028030,/world,/map,0.0,0.0,0.0,0.0,0.0,0.0,1.0
1649114712881155014,0,1317398082718195110,/world,/map,0.0,0.0,0.0,0.0,0.0,0.0,1.0
1649114712891162395,0,1317398082728328322,/world,/map,0.0,0.0,0.0,0.0,0.0,0.0,1.0
1649114712902446269,0,1317398082738465610,/world,/map,0.0,0.0,0.0,0.0,0.0,0.0,1.0
1649114712912315845,0,1317398082748615853,/world,/map,0.0,0.0,0.0,0.0,0.0,0.0,1.0
1649114712922190189,0,1317398082758750980,/world,/map,0.0,0.0,0.0,0.0,0.0,0.0,1.0
1649114712932415962,0,1317398082768887939,/world,/map,0.0,0.0,0.0,0.0,0.0,0.0,1.0
1649114712942704916,0,1317398082778996212,/world,/map,0.0,0.0,0.0,0.0,0.0,0.0,1.0
1649114712952752113,0,1317398082779612064,world,base_link,-4.65128318418283,24.37006625952199,-0.23152160643999764,0.006658377203384414,0.011437110608801806,0.7718953063444128,0.6356119056133268
1649114712953341484,0,1317398082789076598,/world,/map,0.0,0.0,0.0,0.0,0.0,0.0,1.0
1649114712962681770,0,1317398082799197287,/world,/map,0.0,0.0,0.0,0.0,0.0,0.0,1.0
1649114712972699165,0,1317398082809311018,/world,/map,0.0,0.0,0.0,0.0,0.0,0.0,1.0
1649114712982840061,0,1317398082819458407,/world,/map,0.0,0.0,0.0,0.0,0.0,0.0,1.0
1649114712992736816,0,1317398082829599044,/world,/map,0.0,0.0,0.0,0.0,0.0,0.0,1.0
1649114713002685785,0,1317398082839752916,/world,/map,0.0,0.0,0.0,0.0,0.0,0.0,1.0
1649114713012750864,0,1317398082849831586,/world,/map,0.0,0.0,0.0,0.0,0.0,0.0,1.0
1649114713023022174,0,1317398082859923714,/world,/map,0.0,0.0,0.0,0.0,0.0,0.0,1.0
1649114713033112764,0,1317398082870050534,/world,/map,0.0,0.0,0.0,0.0,0.0,0.0,1.0
1649114713043091773,0,1317398082880194545,/world,/map,0.0,0.0,0.0,0.0,0.0,0.0,1.0
1649114713053254842,0,1317398082890260202,/world,/map,0.0,0.0,0.0,0.0,0.0,0.0,1.0
1649114713062885522,0,1317398082889604091,world,base_link,-4.8456655002664775,25.38913988834247,-0.23090362547999632,0.006339222777201971,0.011136114868608087,0.7719775470618571,0.63552062754294
1649114713064504146,0,1317398082900375557,/world,/map,0.0,0.0,0.0,0.0,0.0,0.0,1.0
1649114713073484897,0,1317398082910447837,/world,/map,0.0,0.0,0.0,0.0,0.0,0.0,1.0
1649114713083575487,0,1317398082920519008,/world,/map,0.0,0.0,0.0,0.0,0.0,0.0,1.0
1649114713093624830,0,1317398082930594489,/world,/map,0.0,0.0,0.0,0.0,0.0,0.0,1.0
1649114713103608846,0,1317398082940658431,/world,/map,0.0,0.0,0.0,0.0,0.0,0.0,1.0
1649114713113900899,0,1317398082950730893,/world,/map,0.0,0.0,0.0,0.0,0.0,0.0,1.0
1649114713124133348,0,1317398082960812241,/world,/map,0.0,0.0,0.0,0.0,0.0,0.0,1.0
1649114713134057044,0,1317398082970886306,/world,/map,0.0,0.0,0.0,0.0,0.0,0.0,1.0
1649114713144013166,0,1317398082980949441,/world,/map,0.0,0.0,0.0,0.0,0.0,0.0,1.0
1649114713154456138,0,1317398082991035046,/world,/map,0.0,0.0,0.0,0.0,0.0,0.0,1.0
1649114713163186788,0,1317398082989825963,world,base_link,-5.024436806910671,26.323269291315228,-0.22994995116999917,0.006370517117779801,0.011089385299466471,0.7720354511908267,0.6354507881417005
1649114713164447784,0,1317398083001072084,/world,/map,0.0,0.0,0.0,0.0,0.0,0.0,1.0
1649114713174614191,0,1317398083011134004,/world,/map,0.0,0.0,0.0,0.0,0.0,0.0,1.0
1649114713184490442,0,1317398083021212649,/world,/map,0.0,0.0,0.0,0.0,0.0,0.0,1.0
1649114713194816350,0,1317398083031317809,/world,/map,0.0,0.0,0.0,0.0,0.0,0.0,1.0
1649114713204983949,0,1317398083041467070,/world,/map,0.0,0.0,0.0,0.0,0.0,0.0,1.0
1649114713215186834,0,1317398083051625801,/world,/map,0.0,0.0,0.0,0.0,0.0,0.0,1.0
1649114713225260257,0,1317398083061702981,/world,/map,0.0,0.0,0.0,0.0,0.0,0.0,1.0
1649114713235403537,0,1317398083071856125,/world,/map,0.0,0.0,0.0,0.0,0.0,0.0,1.0
1649114713245517253,0,1317398083082013091,/world,/map,0.0,0.0,0.0,0.0,0.0,0.0,1.0
1649114713255496263,0,1317398083092142135,/world,/map,0.0,0.0,0.0,0.0,0.0,0.0,1.0
1649114713262634277,0,1317398083089576959,world,base_link,-5.205077373073436,27.26339811226353,-0.22685241698999903,0.005723936791870086,0.011150783107152125,0.7721527616305528,0.635313315845033
1649114713265297174,0,1317398083102273018,/world,/map,0.0,0.0,0.0,0.0,0.0,0.0,1.0
1649114713275144100,0,1317398083112404423,/world,/map,0.0,0.0,0.0,0.0,0.0,0.0,1.0
1649114713285497188,0,1317398083122537844,/world,/map,0.0,0.0,0.0,0.0,0.0,0.0,1.0
1649114713295534610,0,1317398083132671006,/world,/map,0.0,0.0,0.0,0.0,0.0,0.0,1.0
1649114713305698156,0,1317398083142775141,/world,/map,0.0,0.0,0.0,0.0,0.0,0.0,1.0
1649114713317035436,0,1317398083152903424,/world,/map,0.0,0.0,0.0,0.0,0.0,0.0,1.0
1649114713325942277,0,1317398083162982771,/world,/map,0.0,0.0,0.0,0.0,0.0,0.0,1.0
1649114713336076974,0,1317398083173054146,/world,/map,0.0,0.0,0.0,0.0,0.0,0.0,1.0
1649114713346506357,0,1317398083183132065,/world,/map,0.0,0.0,0.0,0.0,0.0,0.0,1.0
1649114713356295585,0,1317398083193229278,/world,/map,0.0,0.0,0.0,0.0,0.0,0.0,1.0
1649114713366241216,0,1317398083203429328,/world,/map,0.0,0.0,0.0,0.0,0.0,0.0,1.0
1649114713372686147,0,1317398083199584007,world,base_link,-5.405876150471158,28.306403857190162,-0.22357177733999833,0.004735185735287328,0.011519205214124228,0.7722631493074471,0.6351806940934452
1649114713376481533,0,1317398083213514576,/world,/map,0.0,0.0,0.0,0.0,0.0,0.0,1.0
1649114713386713027,0,1317398083223615092,/world,/map,0.0,0.0,0.0,0.0,0.0,0.0,1.0
1649114713396659851,0,1317398083233750110,/world,/map,0.0,0.0,0.0,0.0,0.0,0.0,1.0
1649114713406938552,0,1317398083243884092,/world,/map,0.0,0.0,0.0,0.0,0.0,0.0,1.0
1649114713416917324,0,1317398083254022714,/world,/map,0.0,0.0,0.0,0.0,0.0,0.0,1.0
1649114713427067041,0,1317398083264154073,/world,/map,0.0,0.0,0.0,0.0,0.0,0.0,1.0
1649114713437274694,0,1317398083274233605,/world,/map,0.0,0.0,0.0,0.0,0.0,0.0,1.0
1649114713447442293,0,1317398083284309804,/world,/map,0.0,0.0,0.0,0.0,0.0,0.0,1.0
1649114713457392930,0,1317398083294436886,/world,/map,0.0,0.0,0.0,0.0,0.0,0.0,1.0
1649114713467584609,0,1317398083304563480,/world,/map,0.0,0.0,0.0,0.0,0.0,0.0,1.0
1649114713472785472,0,1317398083299561023,world,base_link,-5.590516692958772,29.262087770272046,-0.2214279174799998,0.00405109807366688,0.011683300149832957,0.7723762950112423,0.6350448393670426
1649114713477613925,0,1317398083314693087,/world,/map,0.0,0.0,0.0,0.0,0.0,0.0,1.0
1649114713487579107,0,1317398083324778466,/world,/map,0.0,0.0,0.0,0.0,0.0,0.0,1.0
1649114713497658252,0,1317398083334918729,/world,/map,0.0,0.0,0.0,0.0,0.0,0.0,1.0
1649114713508866548,0,1317398083345007358,/world,/map,0.0,0.0,0.0,0.0,0.0,0.0,1.0
1649114713517897844,0,1317398083355140248,/world,/map,0.0,0.0,0.0,0.0,0.0,0.0,1.0
1649114713529237508,0,1317398083365268875,/world,/map,0.0,0.0,0.0,0.0,0.0,0.0,1.0
1649114713539525270,0,1317398083375411101,/world,/map,0.0,0.0,0.0,0.0,0.0,0.0,1.0
1649114713549320459,0,1317398083385540298,/world,/map,0.0,0.0,0.0,0.0,0.0,0.0,1.0
1649114713558311223,0,1317398083395626020,/world,/map,0.0,0.0,0.0,0.0,0.0,0.0,1.0
1649114713569343090,0,1317398083405763012,/world,/map,0.0,0.0,0.0,0.0,0.0,0.0,1.0
1649114713579302549,0,1317398083415925759,/world,/map,0.0,0.0,0.0,0.0,0.0,0.0,1.0
1649114713582672834,0,1317398083409584999,world,base_link,-5.795153469545767,30.321455386001617,-0.22138977049999653,0.004386327136761766,0.011463944184870309,0.7723917395328528,0.6350278252323982
1649114713589543819,0,1317398083426055103,/world,/map,0.0,0.0,0.0,0.0,0.0,0.0,1.0
1649114713599678993,0,1317398083436188302,/world,/map,0.0,0.0,0.0,0.0,0.0,0.0,1.0
1649114713609876155,0,1317398083446317765,/world,/map,0.0,0.0,0.0,0.0,0.0,0.0,1.0
1649114713619792461,0,1317398083456465052,/world,/map,0.0,0.0,0.0,0.0,0.0,0.0,1.0
1649114713629983425,0,1317398083466614023,/world,/map,0.0,0.0,0.0,0.0,0.0,0.0,1.0
1649114713640261411,0,1317398083476714346,/world,/map,0.0,0.0,0.0,0.0,0.0,0.0,1.0
1649114713649983644,0,1317398083486838304,/world,/map,0.0,0.0,0.0,0.0,0.0,0.0,1.0
1649114713660065174,0,1317398083496977737,/world,/map,0.0,0.0,0.0,0.0,0.0,0.0,1.0
1649114713670363664,0,1317398083507083243,/world,/map,0.0,0.0,0.0,0.0,0.0,0.0,1.0
1649114713680318832,0,1317398083517158130,/world,/map,0.0,0.0,0.0,0.0,0.0,0.0,1.0
1649114713682810544,0,1317398083509615898,world,base_link,-5.98368034651503,31.291497939731926,-0.22357177733999833,0.004491881432638897,0.010691466850872177,0.7724516003004913,0.6349677477880129
1649114713690366268,0,1317398083527291168,/world,/map,0.0,0.0,0.0,0.0,0.0,0.0,1.0
1649114713700390815,0,1317398083537369753,/world,/map,0.0,0.0,0.0,0.0,0.0,0.0,1.0
1649114713710412263,0,1317398083547446008,/world,/map,0.0,0.0,0.0,0.0,0.0,0.0,1.0
1649114713720518589,0,1317398083557531434,/world,/map,0.0,0.0,0.0,0.0,0.0,0.0,1.0
1649114713730960130,0,1317398083567661015,/world,/map,0.0,0.0,0.0,0.0,0.0,0.0,1.0
1649114713740805387,0,1317398083577807788,/world,/map,0.0,0.0,0.0,0.0,0.0,0.0,1.0
1649114713750784873,0,1317398083587959149,/world,/map,0.0,0.0,0.0,0.0,0.0,0.0,1.0
1649114713760995388,0,1317398083598087055,/world,/map,0.0,0.0,0.0,0.0,0.0,0.0,1.0
1649114713771100044,0,1317398083608231464,/world,/map,0.0,0.0,0.0,0.0,0.0,0.0,1.0
1649114713781135320,0,1317398083618300689,/world,/map,0.0,0.0,0.0,0.0,0.0,0.0,1.0
1649114713782613515,0,1317398083609576940,world,base_link,-6.173770198831335,32.26723936293274,-0.2218170165999993,0.00430713884819644,0.010961630443613283,0.7725491365316547,0.6348457472939036
1649114713791350603,0,1317398083628429982,/world,/map,0.0,0.0,0.0,0.0,0.0,0.0,1.0
1649114713802640914,0,1317398083638565474,/world,/map,0.0,0.0,0.0,0.0,0.0,0.0,1.0
1649114713811452150,0,1317398083648726779,/world,/map,0.0,0.0,0.0,0.0,0.0,0.0,1.0
1649114713821584463,0,1317398083658859373,/world,/map,0.0,0.0,0.0,0.0,0.0,0.0,1.0
1649114713833127021,0,1317398083669022124,/world,/map,0.0,0.0,0.0,0.0,0.0,0.0,1.0
1649114713841961145,0,1317398083679161761,/world,/map,0.0,0.0,0.0,0.0,0.0,0.0,1.0
1649114713852282524,0,1317398083689257839,/world,/map,0.0,0.0,0.0,0.0,0.0,0.0,1.0
1649114713862491369,0,1317398083699368879,/world,/map,0.0,0.0,0.0,0.0,0.0,0.0,1.0
1649114713872651576,0,1317398083709449296,/world,/map,0.0,0.0,0.0,0.0,0.0,0.0,1.0
1649114713882808208,0,1317398083719529933,/world,/map,0.0,0.0,0.0,0.0,0.0,0.0,1.0
1649114713892701148,0,1317398083719604015,world,base_link,-6.383723258157261,33.35056509822607,-0.21883392334000007,0.003456071137234639,0.012187621387710337,0.7727761265523054,0.6345522639531116
1649114713893780708,0,1317398083730214090,/world,/map,0.0,0.0,0.0,0.0,0.0,0.0,1.0
1649114713903771877,0,1317398083740286604,/world,/map,0.0,0.0,0.0,0.0,0.0,0.0,1.0
1649114713913888216,0,1317398083750421004,/world,/map,0.0,0.0,0.0,0.0,0.0,0.0,1.0
1649114713924168586,0,1317398083760499621,/world,/map,0.0,0.0,0.0,0.0,0.0,0.0,1.0
1649114713934229850,0,1317398083770632087,/world,/map,0.0,0.0,0.0,0.0,0.0,0.0,1.0
1649114713944188594,0,1317398083780772917,/world,/map,0.0,0.0,0.0,0.0,0.0,0.0,1.0
1649114713954435348,0,1317398083790847556,/world,/map,0.0,0.0,0.0,0.0,0.0,0.0,1.0
1649114713964458227,0,1317398083800985394,/world,/map,0.0,0.0,0.0,0.0,0.0,0.0,1.0
1649114713974502086,0,1317398083811112375,/world,/map,0.0,0.0,0.0,0.0,0.0,0.0,1.0
1649114713984706163,0,1317398083821194998,/world,/map,0.0,0.0,0.0,0.0,0.0,0.0,1.0
1649114713992761135,0,1317398083819546937,world,base_link,-6.577087497222237,34.342374950647354,-0.21685791014999722,0.0021074501480154322,0.013199862916809468,0.7728823145320202,0.6344085829782558
1649114713994711637,0,1317398083831335554,/world,/map,0.0,0.0,0.0,0.0,0.0,0.0,1.0
1649114714004904985,0,1317398083841457728,/world,/map,0.0,0.0,0.0,0.0,0.0,0.0,1.0
1649114714015142202,0,1317398083851592597,/world,/map,0.0,0.0,0.0,0.0,0.0,0.0,1.0
1649114714025496006,0,1317398083861692227,/world,/map,0.0,0.0,0.0,0.0,0.0,0.0,1.0
1649114714035436630,0,1317398083871821861,/world,/map,0.0,0.0,0.0,0.0,0.0,0.0,1.0
1649114714045212745,0,1317398083881924062,/world,/map,0.0,0.0,0.0,0.0,0.0,0.0,1.0
1649114714055446863,0,1317398083892006654,/world,/map,0.0,0.0,0.0,0.0,0.0,0.0,1.0
1649114714065259456,0,1317398083902126504,/world,/map,0.0,0.0,0.0,0.0,0.0,0.0,1.0
1649114714075407266,0,1317398083912253008,/world,/map,0.0,0.0,0.0,0.0,0.0,0.0,1.0
1649114714085691928,0,1317398083922389757,/world,/map,0.0,0.0,0.0,0.0,0.0,0.0,1.0
1649114714095740318,0,1317398083932528822,/world,/map,0.0,0.0,0.0,0.0,0.0,0.0,1.0
1649114714102667093,0,1317398083929575920,world,base_link,-6.792300427216105,35.44194059912115,-0.21816253661999951,0.001039030983348312,0.014006818334327662,0.7730559099217854,0.6341823788073624
1649114714105879783,0,1317398083942613824,/world,/map,0.0,0.0,0.0,0.0,0.0,0.0,1.0
1649114714115922689,0,1317398083952749570,/world,/map,0.0,0.0,0.0,0.0,0.0,0.0,1.0
1649114714126028060,0,1317398083962835733,/world,/map,0.0,0.0,0.0,0.0,0.0,0.0,1.0
1649114714135869264,0,1317398083973026336,/world,/map,0.0,0.0,0.0,0.0,0.0,0.0,1.0
1649114714146049976,0,1317398083983124923,/world,/map,0.0,0.0,0.0,0.0,0.0,0.0,1.0
1649114714156115055,0,1317398083993213891,/world,/map,0.0,0.0,0.0,0.0,0.0,0.0,1.0
1649114714166305780,0,1317398084003371393,/world,/map,0.0,0.0,0.0,0.0,0.0,0.0,1.0
1649114714176455497,0,1317398084013453960,/world,/map,0.0,0.0,0.0,0.0,0.0,0.0,1.0
1649114714186580181,0,1317398084023567250,/world,/map,0.0,0.0,0.0,0.0,0.0,0.0,1.0
1649114714196621894,0,1317398084033641031,/world,/map,0.0,0.0,0.0,0.0,0.0,0.0,1.0
1649114714202992916,0,1317398084029737949,world,base_link,-6.991176239796914,36.44428795063868,-0.22116851805999715,0.000823252289904421,0.01423651130714648,0.7732181535439232,0.633979756010864
1649114714206749439,0,1317398084043777106,/world,/map,0.0,0.0,0.0,0.0,0.0,0.0,1.0
1649114714216848850,0,1317398084053910840,/world,/map,0.0,0.0,0.0,0.0,0.0,0.0,1.0
1649114714226906776,0,1317398084064014170,/world,/map,0.0,0.0,0.0,0.0,0.0,0.0,1.0
1649114714236929893,0,1317398084074104929,/world,/map,0.0,0.0,0.0,0.0,0.0,0.0,1.0
1649114714248126506,0,1317398084084243599,/world,/map,0.0,0.0,0.0,0.0,0.0,0.0,1.0
1649114714258122682,0,1317398084094387859,/world,/map,0.0,0.0,0.0,0.0,0.0,0.0,1.0
1649114714268195867,0,1317398084104521447,/world,/map,0.0,0.0,0.0,0.0,0.0,0.0,1.0
1649114714278174877,0,1317398084114594669,/world,/map,0.0,0.0,0.0,0.0,0.0,0.0,1.0
1649114714288387537,0,1317398084124725857,/world,/map,0.0,0.0,0.0,0.0,0.0,0.0,1.0
1649114714298331022,0,1317398084134807953,/world,/map,0.0,0.0,0.0,0.0,0.0,0.0,1.0
1649114714308443307,0,1317398084144907869,/world,/map,0.0,0.0,0.0,0.0,0.0,0.0,1.0
1649114714312721252,0,1317398084139569997,world,base_link,-7.2032773732207716,37.55629272107035,-0.23448181151999847,0.0016184035168345069,0.013934667636752556,0.7733406661633806,0.6338354832808658
1649114714318192720,0,1317398084155038851,/world,/map,0.0,0.0,0.0,0.0,0.0,0.0,1.0
1649114714328300714,0,1317398084165113492,/world,/map,0.0,0.0,0.0,0.0,0.0,0.0,1.0
1649114714338862419,0,1317398084175211420,/world,/map,0.0,0.0,0.0,0.0,0.0,0.0,1.0
1649114714348520994,0,1317398084185289501,/world,/map,0.0,0.0,0.0,0.0,0.0,0.0,1.0
1649114714358582258,0,1317398084195363738,/world,/map,0.0,0.0,0.0,0.0,0.0,0.0,1.0
1649114714368835210,0,1317398084205441026,/world,/map,0.0,0.0,0.0,0.0,0.0,0.0,1.0
1649114714378755092,0,1317398084215575547,/world,/map,0.0,0.0,0.0,0.0,0.0,0.0,1.0
1649114714388863325,0,1317398084225657030,/world,/map,0.0,0.0,0.0,0.0,0.0,0.0,1.0
1649114714398781299,0,1317398084235807169,/world,/map,0.0,0.0,0.0,0.0,0.0,0.0,1.0
1649114714408960103,0,1317398084245940626,/world,/map,0.0,0.0,0.0,0.0,0.0,0.0,1.0
1649114714412610530,0,1317398084239552021,world,base_link,-7.3903467818163335,38.57081989152357,-0.24873352049999653,0.0016737858161150268,0.013755231782642529,0.7734474903837882,0.6337089013566619
1649114714419051885,0,1317398084256071875,/world,/map,0.0,0.0,0.0,0.0,0.0,0.0,1.0
1649114714429054737,0,1317398084266231217,/world,/map,0.0,0.0,0.0,0.0,0.0,0.0,1.0
1649114714440161228,0,1317398084276368673,/world,/map,0.0,0.0,0.0,0.0,0.0,0.0,1.0
1649114714449978828,0,1317398084286504385,/world,/map,0.0,0.0,0.0,0.0,0.0,0.0,1.0
1649114714459957361,0,1317398084296643391,/world,/map,0.0,0.0,0.0,0.0,0.0,0.0,1.0
1649114714470064640,0,1317398084306770032,/world,/map,0.0,0.0,0.0,0.0,0.0,0.0,1.0
1649114714479934692,0,1317398084316936200,/world,/map,0.0,0.0,0.0,0.0,0.0,0.0,1.0
1649114714490215539,0,1317398084327016179,/world,/map,0.0,0.0,0.0,0.0,0.0,0.0,1.0
1649114714500433683,0,1317398084337094831,/world,/map,0.0,0.0,0.0,0.0,0.0,0.0,1.0
1649114714511017799,0,1317398084347370278,/world,/map,0.0,0.0,0.0,0.0,0.0,0.0,1.0
1649114714512665510,0,1317398084339576005,world,base_link,-7.586631896789186,39.58599536214024,-0.2540588378899997,0.0014480820812692245,0.014098363839904418,0.7736062535408746,0.6335080928273731
1649114714520867586,0,1317398084357474335,/world,/map,0.0,0.0,0.0,0.0,0.0,0.0,1.0
1649114714531043767,0,1317398084367604313,/world,/map,0.0,0.0,0.0,0.0,0.0,0.0,1.0
1649114714541268825,0,1317398084377742384,/world,/map,0.0,0.0,0.0,0.0,0.0,0.0,1.0
1649114714551010370,0,1317398084387880873,/world,/map,0.0,0.0,0.0,0.0,0.0,0.0,1.0
1649114714561565399,0,1317398084397973067,/world,/map,0.0,0.0,0.0,0.0,0.0,0.0,1.0
1649114714571468830,0,1317398084408153034,/world,/map,0.0,0.0,0.0,0.0,0.0,0.0,1.0
1649114714581346511,0,1317398084418284460,/world,/map,0.0,0.0,0.0,0.0,0.0,0.0,1.0
1649114714592427968,0,1317398084428380134,/world,/map,0.0,0.0,0.0,0.0,0.0,0.0,1.0
1649114714601036310,0,1317398084438504057,/world,/map,0.0,0.0,0.0,0.0,0.0,0.0,1.0
1649114714612480878,0,1317398084448632224,/world,/map,0.0,0.0,0.0,0.0,0.0,0.0,1.0
1649114714623341321,0,1317398084458761123,/world,/map,0.0,0.0,0.0,0.0,0.0,0.0,1.0
1649114714624228715,0,1317398084449598073,world,base_link,-7.805500317364931,40.70037410641089,-0.2551422119099982,0.0006279258492754205,0.014841672872584201,0.7738617133837221,0.6331803684687967
1649114714632663249,0,1317398084468887414,/world,/map,0.0,0.0,0.0,0.0,0.0,0.0,1.0
1649114714642685174,0,1317398084479019503,/world,/map,0.0,0.0,0.0,0.0,0.0,0.0,1.0
1649114714651618480,0,1317398084489119369,/world,/map,0.0,0.0,0.0,0.0,0.0,0.0,1.0
1649114714662925004,0,1317398084499252123,/world,/map,0.0,0.0,0.0,0.0,0.0,0.0,1.0
1649114714672824621,0,1317398084509362438,/world,/map,0.0,0.0,0.0,0.0,0.0,0.0,1.0
1649114714683058738,0,1317398084519497863,/world,/map,0.0,0.0,0.0,0.0,0.0,0.0,1.0
1649114714692949295,0,1317398084529582361,/world,/map,0.0,0.0,0.0,0.0,0.0,0.0,1.0
1649114714703105688,0,1317398084539715748,/world,/map,0.0,0.0,0.0,0.0,0.0,0.0,1.0
1649114714713156461,0,1317398084549854221,/world,/map,0.0,0.0,0.0,0.0,0.0,0.0,1.0
1649114714723431587,0,1317398084549599885,world,base_link,-8.007051781751215,41.712641276884824,-0.2562332153299991,-0.00025656648441190735,0.015555311566761893,0.7740364484142684,0.6329498739883955
1649114714724275112,0,1317398084560549824,/world,/map,0.0,0.0,0.0,0.0,0.0,0.0,1.0
1649114714734425544,0,1317398084570682708,/world,/map,0.0,0.0,0.0,0.0,0.0,0.0,1.0
1649114714744419336,0,1317398084580804455,/world,/map,0.0,0.0,0.0,0.0,0.0,0.0,1.0
1649114714754670619,0,1317398084590939155,/world,/map,0.0,0.0,0.0,0.0,0.0,0.0,1.0
1649114714764755964,0,1317398084601030719,/world,/map,0.0,0.0,0.0,0.0,0.0,0.0,1.0
1649114714774825572,0,1317398084611162516,/world,/map,0.0,0.0,0.0,0.0,0.0,0.0,1.0
1649114714784929513,0,1317398084621268633,/world,/map,0.0,0.0,0.0,0.0,0.0,0.0,1.0
1649114714794920921,0,1317398084631400367,/world,/map,0.0,0.0,0.0,0.0,0.0,0.0,1.0
1649114714805077552,0,1317398084641525589,/world,/map,0.0,0.0,0.0,0.0,0.0,0.0,1.0
1649114714815235376,0,1317398084651659862,/world,/map,0.0,0.0,0.0,0.0,0.0,0.0,1.0
1649114714825179100,0,1317398084661796463,/world,/map,0.0,0.0,0.0,0.0,0.0,0.0,1.0
1649114714832626104,0,1317398084659543037,world,base_link,-8.229424980701879,42.823427588213235,-0.25934600829999965,-0.0009151476349805568,0.015107456324597585,0.7742070577456611,0.6327514195993661
1649114714835234165,0,1317398084671924675,/world,/map,0.0,0.0,0.0,0.0,0.0,0.0,1.0
1649114714845400333,0,1317398084682081349,/world,/map,0.0,0.0,0.0,0.0,0.0,0.0,1.0
1649114714855465650,0,1317398084692212574,/world,/map,0.0,0.0,0.0,0.0,0.0,0.0,1.0
1649114714865640640,0,1317398084702292925,/world,/map,0.0,0.0,0.0,0.0,0.0,0.0,1.0
1649114714875593423,0,1317398084712373892,/world,/map,0.0,0.0,0.0,0.0,0.0,0.0,1.0
1649114714885604619,0,1317398084722477960,/world,/map,0.0,0.0,0.0,0.0,0.0,0.0,1.0
1649114714895622730,0,1317398084732632558,/world,/map,0.0,0.0,0.0,0.0,0.0,0.0,1.0
1649114714905587196,0,1317398084742768008,/world,/map,0.0,0.0,0.0,0.0,0.0,0.0,1.0
1649114714916696786,0,1317398084752898945,/world,/map,0.0,0.0,0.0,0.0,0.0,0.0,1.0
1649114714926808357,0,1317398084763037162,/world,/map,0.0,0.0,0.0,0.0,0.0,0.0,1.0
1649114714932627439,0,1317398084759555101,world,base_link,-8.436167405219749,43.82857654104009,-0.2736968994099982,0.00034257029016504005,0.013563844831730513,0.7743361625098403,0.6326289688186207
1649114714936722517,0,1317398084773111965,/world,/map,0.0,0.0,0.0,0.0,0.0,0.0,1.0
1649114714946923971,0,1317398084783211456,/world,/map,0.0,0.0,0.0,0.0,0.0,0.0,1.0
1649114714956938505,0,1317398084793300073,/world,/map,0.0,0.0,0.0,0.0,0.0,0.0,1.0
1649114714966768026,0,1317398084803455378,/world,/map,0.0,0.0,0.0,0.0,0.0,0.0,1.0
1649114714976954460,0,1317398084813544603,/world,/map,0.0,0.0,0.0,0.0,0.0,0.0,1.0
1649114714987169742,0,1317398084823679938,/world,/map,0.0,0.0,0.0,0.0,0.0,0.0,1.0
1649114714997192144,0,1317398084833836490,/world,/map,0.0,0.0,0.0,0.0,0.0,0.0,1.0
1649114715007067918,0,1317398084843974915,/world,/map,0.0,0.0,0.0,0.0,0.0,0.0,1.0
1649114715016965866,0,1317398084854047078,/world,/map,0.0,0.0,0.0,0.0,0.0,0.0,1.0
1649114715027033329,0,1317398084864171143,/world,/map,0.0,0.0,0.0,0.0,0.0,0.0,1.0
1649114715037149190,0,1317398084874262076,/world,/map,0.0,0.0,0.0,0.0,0.0,0.0,1.0
1649114715043208360,0,1317398084869721889,world,base_link,-8.666971237049438,44.93135823076591,-0.29354095459000007,0.001607873539683892,0.011502105959614227,0.7743759700554562,0.6326191376348375
1649114715048283815,0,1317398084884414228,/world,/map,0.0,0.0,0.0,0.0,0.0,0.0,1.0
1649114715057440996,0,1317398084894479836,/world,/map,0.0,0.0,0.0,0.0,0.0,0.0,1.0
1649114715067567348,0,1317398084904610824,/world,/map,0.0,0.0,0.0,0.0,0.0,0.0,1.0
1649114715077728509,0,1317398084914746538,/world,/map,0.0,0.0,0.0,0.0,0.0,0.0,1.0
1649114715089054107,0,1317398084924878689,/world,/map,0.0,0.0,0.0,0.0,0.0,0.0,1.0
1649114715097925186,0,1317398084934953776,/world,/map,0.0,0.0,0.0,0.0,0.0,0.0,1.0
1649114715108044862,0,1317398084945031814,/world,/map,0.0,0.0,0.0,0.0,0.0,0.0,1.0
1649114715117963552,0,1317398084955108931,/world,/map,0.0,0.0,0.0,0.0,0.0,0.0,1.0
1649114715128095388,0,1317398084965189099,/world,/map,0.0,0.0,0.0,0.0,0.0,0.0,1.0
1649114715138465881,0,1317398084975292742,/world,/map,0.0,0.0,0.0,0.0,0.0,0.0,1.0
1649114715142922401,0,1317398084969672918,world,base_link,-8.875848077819683,45.939433513209224,-0.3022689819299984,0.0015669431172850596,0.011054053377683259,0.7744303257251969,0.6325606873576292
1649114715148256778,0,1317398084985419068,/world,/map,0.0,0.0,0.0,0.0,0.0,0.0,1.0
1649114715158509016,0,1317398084995552448,/world,/map,0.0,0.0,0.0,0.0,0.0,0.0,1.0
1649114715168663263,0,1317398085005689591,/world,/map,0.0,0.0,0.0,0.0,0.0,0.0,1.0
1649114715179862260,0,1317398085015822201,/world,/map,0.0,0.0,0.0,0.0,0.0,0.0,1.0
1649114715188754320,0,1317398085025922783,/world,/map,0.0,0.0,0.0,0.0,0.0,0.0,1.0
1649114715199069976,0,1317398085036061712,/world,/map,0.0,0.0,0.0,0.0,0.0,0.0,1.0
1649114715209126472,0,1317398085046141483,/world,/map,0.0,0.0,0.0,0.0,0.0,0.0,1.0
1649114715219135999,0,1317398085056293153,/world,/map,0.0,0.0,0.0,0.0,0.0,0.0,1.0
1649114715229298114,0,1317398085066441050,/world,/map,0.0,0.0,0.0,0.0,0.0,0.0,1.0
1649114715240690946,0,1317398085076714743,/world,/map,0.0,0.0,0.0,0.0,0.0,0.0,1.0
1649114715242712736,0,1317398085069590091,world,base_link,-9.08356365095824,46.95075497077778,-0.3074874877899987,0.0005295251823829711,0.011892233339018609,0.7743679277941453,0.6326235901332585
1649114715249469280,0,1317398085086841055,/world,/map,0.0,0.0,0.0,0.0,0.0,0.0,1.0
1649114715259638071,0,1317398085096944940,/world,/map,0.0,0.0,0.0,0.0,0.0,0.0,1.0
1649114715270888090,0,1317398085107081772,/world,/map,0.0,0.0,0.0,0.0,0.0,0.0,1.0
1649114715280862092,0,1317398085117164587,/world,/map,0.0,0.0,0.0,0.0,0.0,0.0,1.0
1649114715290869474,0,1317398085127248565,/world,/map,0.0,0.0,0.0,0.0,0.0,0.0,1.0
1649114715301142692,0,1317398085137378258,/world,/map,0.0,0.0,0.0,0.0,0.0,0.0,1.0
1649114715311030626,0,1317398085147510084,/world,/map,0.0,0.0,0.0,0.0,0.0,0.0,1.0
1649114715321056365,0,1317398085157633292,/world,/map,0.0,0.0,0.0,0.0,0.0,0.0,1.0
1649114715331304073,0,1317398085167770195,/world,/map,0.0,0.0,0.0,0.0,0.0,0.0,1.0
1649114715341407775,0,1317398085177923173,/world,/map,0.0,0.0,0.0,0.0,0.0,0.0,1.0
1649114715351731777,0,1317398085188075184,/world,/map,0.0,0.0,0.0,0.0,0.0,0.0,1.0
