%time,field.transforms0.header.seq,field.transforms0.header.stamp,field.transforms0.header.frame_id,field.transforms0.child_frame_id,field.transforms0.transform.translation.x,field.transforms0.transform.translation.y,field.transforms0.transform.translation.z,field.transforms0.transform.rotation.x,field.transforms0.transform.rotation.y,field.transforms0.transform.rotation.z,field.transforms0.transform.rotation.w
1317398079229883612,0,1317398079239670991,world,base_link,0.0,0.0,0.0,0.0020423651338902643,0.019000332956041924,0.7650731688120116,0.643659741211276
1317398079240258430,0,1317398079250258430,/world,/map,0.0,0.0,0.0,0.0,0.0,0.0,1.0
1317398079250504985,0,1317398079260504985,/world,/map,0.0,0.0,0.0,0.0,0.0,0.0,1.0
1317398079260650388,0,1317398079270650388,/world,/map,0.0,0.0,0.0,0.0,0.0,0.0,1.0
1317398079270725476,0,1317398079280725476,/world,/map,0.0,0.0,0.0,0.0,0.0,0.0,1.0
1317398079280847633,0,1317398079290847633,/world,/map,0.0,0.0,0.0,0.0,0.0,0.0,1.0
1317398079290966962,0,1317398079300966962,/world,/map,0.0,0.0,0.0,0.0,0.0,0.0,1.0
1317398079301063294,0,1317398079311063294,/world,/map,0.0,0.0,0.0,0.0,0.0,0.0,1.0
1317398079311191875,0,1317398079321191875,/world,/map,0.0,0.0,0.0,0.0,0.0,0.0,1.0
1317398079321284926,0,1317398079331284926,/world,/map,0.0,0.0,0.0,0.0,0.0,0.0,1.0
1317398079331354270,0,1317398079341354270,/world,/map,0.0,0.0,0.0,0.0,0.0,0.0,1.0
1317398079331354270,0,1317398079339673995,world,base_link,-0.08856498275417835,0.5354143842123449,-0.007423400880000486,0.0030228228837481607,0.019430927593746594,0.7655553981679665,0.6430693850048737
1317398079341440174,0,1317398079351440174,/world,/map,0.0,0.0,0.0,0.0,0.0,0.0,1.0
1317398079351559566,0,1317398079361559566,/world,/map,0.0,0.0,0.0,0.0,0.0,0.0,1.0
1317398079361678181,0,1317398079371678181,/world,/map,0.0,0.0,0.0,0.0,0.0,0.0,1.0
1317398079371806470,0,1317398079381806470,/world,/map,0.0,0.0,0.0,0.0,0.0,0.0,1.0
1317398079381878474,0,1317398079391878474,/world,/map,0.0,0.0,0.0,0.0,0.0,0.0,1.0
1317398079392011287,0,1317398079402011287,/world,/map,0.0,0.0,0.0,0.0,0.0,0.0,1.0
1317398079402131780,0,1317398079412131780,/world,/map,0.0,0.0,0.0,0.0,0.0,0.0,1.0
1317398079412189562,0,1317398079422189562,/world,/map,0.0,0.0,0.0,0.0,0.0,0.0,1.0
1317398079422259733,0,1317398079432259733,/world,/map,0.0,0.0,0.0,0.0,0.0,0.0,1.0
1317398079432326443,0,1317398079442326443,/world,/map,0.0,0.0,0.0,0.0,0.0,0.0,1.0
1317398079442396461,0,1317398079452396461,/world,/map,0.0,0.0,0.0,0.0,0.0,0.0,1.0
1317398079442396461,0,1317398079449843883,world,base_link,-0.19145156885497272,1.12136464798823,-0.012969970699998612,0.003741791544925939,0.01918103294946773,0.7659435944136599,0.6426106886348131
1317398079452464028,0,1317398079462464028,/world,/map,0.0,0.0,0.0,0.0,0.0,0.0,1.0
1317398079462594352,0,1317398079472594352,/world,/map,0.0,0.0,0.0,0.0,0.0,0.0,1.0
1317398079472716011,0,1317398079482716011,/world,/map,0.0,0.0,0.0,0.0,0.0,0.0,1.0
1317398079482835776,0,1317398079492835776,/world,/map,0.0,0.0,0.0,0.0,0.0,0.0,1.0
1317398079492930259,0,1317398079502930259,/world,/map,0.0,0.0,0.0,0.0,0.0,0.0,1.0
1317398079503024353,0,1317398079513024353,/world,/map,0.0,0.0,0.0,0.0,0.0,0.0,1.0
1317398079513123564,0,1317398079523123564,/world,/map,0.0,0.0,0.0,0.0,0.0,0.0,1.0
1317398079523180611,0,1317398079533180611,/world,/map,0.0,0.0,0.0,0.0,0.0,0.0,1.0
1317398079533241367,0,1317398079543241367,/world,/map,0.0,0.0,0.0,0.0,0.0,0.0,1.0
1317398079543295289,0,1317398079553295289,/world,/map,0.0,0.0,0.0,0.0,0.0,0.0,1.0
1317398079543295289,0,1317398079549899101,world,base_link,-0.2896318646380678,1.6519818264059722,-0.012023925779999445,0.004222440114198015,0.0188365783819974,0.766506811675702,0.6419459961469428
1317398079553364360,0,1317398079563364360,/world,/map,0.0,0.0,0.0,0.0,0.0,0.0,1.0
1317398079563423229,0,1317398079573423229,/world,/map,0.0,0.0,0.0,0.0,0.0,0.0,1.0
1317398079573475687,0,1317398079583475687,/world,/map,0.0,0.0,0.0,0.0,0.0,0.0,1.0
1317398079583532996,0,1317398079593532996,/world,/map,0.0,0.0,0.0,0.0,0.0,0.0,1.0
1317398079593633404,0,1317398079603633404,/world,/map,0.0,0.0,0.0,0.0,0.0,0.0,1.0
1317398079603725162,0,1317398079613725162,/world,/map,0.0,0.0,0.0,0.0,0.0,0.0,1.0
1317398079613820513,0,1317398079623820513,/world,/map,0.0,0.0,0.0,0.0,0.0,0.0,1.0
1317398079623888036,0,1317398079633888036,/world,/map,0.0,0.0,0.0,0.0,0.0,0.0,1.0
1317398079633998151,0,1317398079643998151,/world,/map,0.0,0.0,0.0,0.0,0.0,0.0,1.0
1317398079644054622,0,1317398079654054622,/world,/map,0.0,0.0,0.0,0.0,0.0,0.0,1.0
1317398079644054622,0,1317398079649661064,world,base_link,-0.3872865163721144,2.1818239358253777,-0.012268066399997224,0.005583426982229081,0.01902608756188675,0.7671074669118714,0.6412121080760045
1317398079654108599,0,1317398079664108599,/world,/map,0.0,0.0,0.0,0.0,0.0,0.0,1.0
1317398079664163796,0,1317398079674163796,/world,/map,0.0,0.0,0.0,0.0,0.0,0.0,1.0
1317398079674221857,0,1317398079684221857,/world,/map,0.0,0.0,0.0,0.0,0.0,0.0,1.0
1317398079684280948,0,1317398079694280948,/world,/map,0.0,0.0,0.0,0.0,0.0,0.0,1.0
1317398079694340113,0,1317398079704340113,/world,/map,0.0,0.0,0.0,0.0,0.0,0.0,1.0
1317398079704400286,0,1317398079714400286,/world,/map,0.0,0.0,0.0,0.0,0.0,0.0,1.0
1317398079714458978,0,1317398079724458978,/world,/map,0.0,0.0,0.0,0.0,0.0,0.0,1.0
1317398079724519200,0,1317398079734519200,/world,/map,0.0,0.0,0.0,0.0,0.0,0.0,1.0
1317398079734577266,0,1317398079744577266,/world,/map,0.0,0.0,0.0,0.0,0.0,0.0,1.0
1317398079744678660,0,1317398079754678660,/world,/map,0.0,0.0,0.0,0.0,0.0,0.0,1.0
1317398079754739505,0,1317398079764739505,/world,/map,0.0,0.0,0.0,0.0,0.0,0.0,1.0
1317398079754739505,0,1317398079759722948,world,base_link,-0.49450715293642133,2.7698847707360983,-0.01582336424999653,0.007275532046067486,0.01931025548112392,0.767603293520704,0.6405929787648849
1317398079764839418,0,1317398079774839418,/world,/map,0.0,0.0,0.0,0.0,0.0,0.0,1.0
1317398079774903766,0,1317398079784903766,/world,/map,0.0,0.0,0.0,0.0,0.0,0.0,1.0
1317398079784964907,0,1317398079794964907,/world,/map,0.0,0.0,0.0,0.0,0.0,0.0,1.0
1317398079795030559,0,1317398079805030559,/world,/map,0.0,0.0,0.0,0.0,0.0,0.0,1.0
1317398079805092683,0,1317398079815092683,/world,/map,0.0,0.0,0.0,0.0,0.0,0.0,1.0
1317398079815158020,0,1317398079825158020,/world,/map,0.0,0.0,0.0,0.0,0.0,0.0,1.0
1317398079825223699,0,1317398079835223699,/world,/map,0.0,0.0,0.0,0.0,0.0,0.0,1.0
1317398079835412417,0,1317398079845412417,/world,/map,0.0,0.0,0.0,0.0,0.0,0.0,1.0
1317398079845498179,0,1317398079855498179,/world,/map,0.0,0.0,0.0,0.0,0.0,0.0,1.0
1317398079855549909,0,1317398079865549909,/world,/map,0.0,0.0,0.0,0.0,0.0,0.0,1.0
1317398079855549909,0,1317398079859652042,world,base_link,-0.596108608180657,3.311259693466127,-0.016975402829999098,0.008006710297554087,0.019455379932677506,0.7680154329185739,0.6400856783125066
1317398079865607630,0,1317398079875607630,/world,/map,0.0,0.0,0.0,0.0,0.0,0.0,1.0
1317398079875668782,0,1317398079885668782,/world,/map,0.0,0.0,0.0,0.0,0.0,0.0,1.0
1317398079885842108,0,1317398079895842108,/world,/map,0.0,0.0,0.0,0.0,0.0,0.0,1.0
1317398079895930466,0,1317398079905930466,/world,/map,0.0,0.0,0.0,0.0,0.0,0.0,1.0
1317398079905990121,0,1317398079915990121,/world,/map,0.0,0.0,0.0,0.0,0.0,0.0,1.0
1317398079916101052,0,1317398079926101052,/world,/map,0.0,0.0,0.0,0.0,0.0,0.0,1.0
1317398079926235436,0,1317398079936235436,/world,/map,0.0,0.0,0.0,0.0,0.0,0.0,1.0
1317398079936318497,0,1317398079946318497,/world,/map,0.0,0.0,0.0,0.0,0.0,0.0,1.0
1317398079946404436,0,1317398079956404436,/world,/map,0.0,0.0,0.0,0.0,0.0,0.0,1.0
1317398079956510158,0,1317398079966510158,/world,/map,0.0,0.0,0.0,0.0,0.0,0.0,1.0
1317398079966576002,0,1317398079976576002,/world,/map,0.0,0.0,0.0,0.0,0.0,0.0,1.0
1317398079966576002,0,1317398079969841003,world,base_link,-0.710871946066618,3.912316205445677,-0.013687133790000416,0.0077975921777551005,0.01979824951149419,0.7684730007554336,0.6395283214858037
1317398079976659297,0,1317398079986659297,/world,/map,0.0,0.0,0.0,0.0,0.0,0.0,1.0
1317398079986741210,0,1317398079996741210,/world,/map,0.0,0.0,0.0,0.0,0.0,0.0,1.0
1317398079996930074,0,1317398080006930074,/world,/map,0.0,0.0,0.0,0.0,0.0,0.0,1.0
1317398080007023071,0,1317398080017023071,/world,/map,0.0,0.0,0.0,0.0,0.0,0.0,1.0
1317398080017181634,0,1317398080027181634,/world,/map,0.0,0.0,0.0,0.0,0.0,0.0,1.0
1317398080027268811,0,1317398080037268811,/world,/map,0.0,0.0,0.0,0.0,0.0,0.0,1.0
1317398080037336476,0,1317398080047336476,/world,/map,0.0,0.0,0.0,0.0,0.0,0.0,1.0
1317398080047397808,0,1317398080057397808,/world,/map,0.0,0.0,0.0,0.0,0.0,0.0,1.0
1317398080057484897,0,1317398080067484897,/world,/map,0.0,0.0,0.0,0.0,0.0,0.0,1.0
1317398080067579313,0,1317398080077579313,/world,/map,0.0,0.0,0.0,0.0,0.0,0.0,1.0
1317398080067579313,0,1317398080069680929,world,base_link,-0.8186954471748322,4.464126334525645,-0.006401062009999237,0.007967037165941592,0.01984898376987516,0.7688232792576056,0.6391035201230559
1317398080077681527,0,1317398080087681527,/world,/map,0.0,0.0,0.0,0.0,0.0,0.0,1.0
1317398080087808392,0,1317398080097808392,/world,/map,0.0,0.0,0.0,0.0,0.0,0.0,1.0
1317398080097956267,0,1317398080107956267,/world,/map,0.0,0.0,0.0,0.0,0.0,0.0,1.0
1317398080108105484,0,1317398080118105484,/world,/map,0.0,0.0,0.0,0.0,0.0,0.0,1.0
1317398080118245275,0,1317398080128245275,/world,/map,0.0,0.0,0.0,0.0,0.0,0.0,1.0
1317398080128333548,0,1317398080138333548,/world,/map,0.0,0.0,0.0,0.0,0.0,0.0,1.0
1317398080138436675,0,1317398080148436675,/world,/map,0.0,0.0,0.0,0.0,0.0,0.0,1.0
1317398080148610010,0,1317398080158610010,/world,/map,0.0,0.0,0.0,0.0,0.0,0.0,1.0
1317398080158675140,0,1317398080168675140,/world,/map,0.0,0.0,0.0,0.0,0.0,0.0,1.0
1317398080168883526,0,1317398080178883526,/world,/map,0.0,0.0,0.0,0.0,0.0,0.0,1.0
1317398080178970404,0,1317398080188970404,/world,/map,0.0,0.0,0.0,0.0,0.0,0.0,1.0
1317398080178970404,0,1317398080179646015,world,base_link,-0.9383370915893465,5.081078744493425,-0.0040969848599985426,0.008782965966202117,0.018759558102060925,0.7692302013944026,0.638635917993483
1317398080189100083,0,1317398080199100083,/world,/map,0.0,0.0,0.0,0.0,0.0,0.0,1.0
1317398080199214547,0,1317398080209214547,/world,/map,0.0,0.0,0.0,0.0,0.0,0.0,1.0
1317398080209303022,0,1317398080219303022,/world,/map,0.0,0.0,0.0,0.0,0.0,0.0,1.0
1317398080219364490,0,1317398080229364490,/world,/map,0.0,0.0,0.0,0.0,0.0,0.0,1.0
1317398080229533964,0,1317398080239533964,/world,/map,0.0,0.0,0.0,0.0,0.0,0.0,1.0
1317398080239606291,0,1317398080249606291,/world,/map,0.0,0.0,0.0,0.0,0.0,0.0,1.0
1317398080249709402,0,1317398080259709402,/world,/map,0.0,0.0,0.0,0.0,0.0,0.0,1.0
1317398080259812369,0,1317398080269812369,/world,/map,0.0,0.0,0.0,0.0,0.0,0.0,1.0
1317398080269895507,0,1317398080279895507,/world,/map,0.0,0.0,0.0,0.0,0.0,0.0,1.0
1317398080269895507,0,1317398080279638051,world,base_link,-1.0511732766171917,5.649260878097266,-0.003967285149997224,0.009689936789657792,0.016922364865080745,0.7695994874253931,0.6382290871207279
1317398080280397162,0,1317398080290397162,/world,/map,0.0,0.0,0.0,0.0,0.0,0.0,1.0
1317398080290471713,0,1317398080300471713,/world,/map,0.0,0.0,0.0,0.0,0.0,0.0,1.0
1317398080300587726,0,1317398080310587726,/world,/map,0.0,0.0,0.0,0.0,0.0,0.0,1.0
1317398080310657517,0,1317398080320657517,/world,/map,0.0,0.0,0.0,0.0,0.0,0.0,1.0
1317398080320723039,0,1317398080330723039,/world,/map,0.0,0.0,0.0,0.0,0.0,0.0,1.0
1317398080330783803,0,1317398080340783803,/world,/map,0.0,0.0,0.0,0.0,0.0,0.0,1.0
1317398080340847729,0,1317398080350847729,/world,/map,0.0,0.0,0.0,0.0,0.0,0.0,1.0
1317398080350922911,0,1317398080360922911,/world,/map,0.0,0.0,0.0,0.0,0.0,0.0,1.0
1317398080360995673,0,1317398080370995673,/world,/map,0.0,0.0,0.0,0.0,0.0,0.0,1.0
1317398080371082676,0,1317398080381082676,/world,/map,0.0,0.0,0.0,0.0,0.0,0.0,1.0
1317398080371082676,0,1317398080379646062,world,base_link,-1.165557706495747,6.228106155525893,-0.007377624509999237,0.010645263941384835,0.015167492838940652,0.7699859374762253,0.6377917227476831
1317398080381221779,0,1317398080391221779,/world,/map,0.0,0.0,0.0,0.0,0.0,0.0,1.0
1317398080391324132,0,1317398080401324132,/world,/map,0.0,0.0,0.0,0.0,0.0,0.0,1.0
1317398080401450136,0,1317398080411450136,/world,/map,0.0,0.0,0.0,0.0,0.0,0.0,1.0
1317398080411552550,0,1317398080421552550,/world,/map,0.0,0.0,0.0,0.0,0.0,0.0,1.0
1317398080421655875,0,1317398080431655875,/world,/map,0.0,0.0,0.0,0.0,0.0,0.0,1.0
1317398080431778379,0,1317398080441778379,/world,/map,0.0,0.0,0.0,0.0,0.0,0.0,1.0
1317398080441837789,0,1317398080451837789,/world,/map,0.0,0.0,0.0,0.0,0.0,0.0,1.0
1317398080451955662,0,1317398080461955662,/world,/map,0.0,0.0,0.0,0.0,0.0,0.0,1.0
1317398080462025258,0,1317398080472025258,/world,/map,0.0,0.0,0.0,0.0,0.0,0.0,1.0
1317398080472104800,0,1317398080482104800,/world,/map,0.0,0.0,0.0,0.0,0.0,0.0,1.0
1317398080482173817,0,1317398080492173817,/world,/map,0.0,0.0,0.0,0.0,0.0,0.0,1.0
1317398080482173817,0,1317398080489717960,world,base_link,-1.294504885096103,6.877037771977484,-0.007865905759999237,0.010417231489430837,0.014342173544595384,0.7704014150726126,0.6373126728696273
1317398080492243203,0,1317398080502243203,/world,/map,0.0,0.0,0.0,0.0,0.0,0.0,1.0
1317398080502314478,0,1317398080512314478,/world,/map,0.0,0.0,0.0,0.0,0.0,0.0,1.0
1317398080512399565,0,1317398080522399565,/world,/map,0.0,0.0,0.0,0.0,0.0,0.0,1.0
1317398080522475121,0,1317398080532475121,/world,/map,0.0,0.0,0.0,0.0,0.0,0.0,1.0
1317398080532625262,0,1317398080542625262,/world,/map,0.0,0.0,0.0,0.0,0.0,0.0,1.0
1317398080542711631,0,1317398080552711631,/world,/map,0.0,0.0,0.0,0.0,0.0,0.0,1.0
1317398080552789001,0,1317398080562789001,/world,/map,0.0,0.0,0.0,0.0,0.0,0.0,1.0
1317398080562861215,0,1317398080572861215,/world,/map,0.0,0.0,0.0,0.0,0.0,0.0,1.0
1317398080572945615,0,1317398080582945615,/world,/map,0.0,0.0,0.0,0.0,0.0,0.0,1.0
1317398080583025020,0,1317398080593025020,/world,/map,0.0,0.0,0.0,0.0,0.0,0.0,1.0
1317398080583025020,0,1317398080589646100,world,base_link,-1.4156032832106575,7.481707996688783,-0.0026702880799973627,0.007333910686632057,0.015389910644880083,0.7707660773924712,0.6368901148121285
1317398080593179792,0,1317398080603179792,/world,/map,0.0,0.0,0.0,0.0,0.0,0.0,1.0
1317398080603305653,0,1317398080613305653,/world,/map,0.0,0.0,0.0,0.0,0.0,0.0,1.0
1317398080613391871,0,1317398080623391871,/world,/map,0.0,0.0,0.0,0.0,0.0,0.0,1.0
1317398080623488816,0,1317398080633488816,/world,/map,0.0,0.0,0.0,0.0,0.0,0.0,1.0
1317398080633629213,0,1317398080643629213,/world,/map,0.0,0.0,0.0,0.0,0.0,0.0,1.0
1317398080643741333,0,1317398080653741333,/world,/map,0.0,0.0,0.0,0.0,0.0,0.0,1.0
1317398080653851931,0,1317398080663851931,/world,/map,0.0,0.0,0.0,0.0,0.0,0.0,1.0
1317398080663982252,0,1317398080673982252,/world,/map,0.0,0.0,0.0,0.0,0.0,0.0,1.0
1317398080674084584,0,1317398080684084584,/world,/map,0.0,0.0,0.0,0.0,0.0,0.0,1.0
1317398080684154102,0,1317398080694154102,/world,/map,0.0,0.0,0.0,0.0,0.0,0.0,1.0
1317398080694221643,0,1317398080704221643,/world,/map,0.0,0.0,0.0,0.0,0.0,0.0,1.0
1317398080694221643,0,1317398080699630022,world,base_link,-1.5522452468285337,8.162032569292933,0.008041381840001804,0.0027863340249119225,0.01859005743675209,0.7710389433378011,0.6365104822104086
1317398080704290247,0,1317398080714290247,/world,/map,0.0,0.0,0.0,0.0,0.0,0.0,1.0
1317398080714354600,0,1317398080724354600,/world,/map,0.0,0.0,0.0,0.0,0.0,0.0,1.0
1317398080724417255,0,1317398080734417255,/world,/map,0.0,0.0,0.0,0.0,0.0,0.0,1.0
1317398080734490993,0,1317398080744490993,/world,/map,0.0,0.0,0.0,0.0,0.0,0.0,1.0
1317398080744615046,0,1317398080754615046,/world,/map,0.0,0.0,0.0,0.0,0.0,0.0,1.0
1317398080754702724,0,1317398080764702724,/world,/map,0.0,0.0,0.0,0.0,0.0,0.0,1.0
1317398080764762691,0,1317398080774762691,/world,/map,0.0,0.0,0.0,0.0,0.0,0.0,1.0
1317398080774876487,0,1317398080784876487,/world,/map,0.0,0.0,0.0,0.0,0.0,0.0,1.0
1317398080784944902,0,1317398080794944902,/world,/map,0.0,0.0,0.0,0.0,0.0,0.0,1.0
1317398080795087292,0,1317398080805087292,/world,/map,0.0,0.0,0.0,0.0,0.0,0.0,1.0
1317398080795087292,0,1317398080799640893,world,base_link,-1.678741474635899,8.79364373954013,0.015647888190002845,-0.00018842213296609505,0.02047104818334363,0.7712535383135272,0.6361987742225224
1317398080805190673,0,1317398080815190673,/world,/map,0.0,0.0,0.0,0.0,0.0,0.0,1.0
1317398080815317641,0,1317398080825317641,/world,/map,0.0,0.0,0.0,0.0,0.0,0.0,1.0
1317398080825469288,0,1317398080835469288,/world,/map,0.0,0.0,0.0,0.0,0.0,0.0,1.0
1317398080835598768,0,1317398080845598768,/world,/map,0.0,0.0,0.0,0.0,0.0,0.0,1.0
1317398080845789364,0,1317398080855789364,/world,/map,0.0,0.0,0.0,0.0,0.0,0.0,1.0
1317398080855881078,0,1317398080865881078,/world,/map,0.0,0.0,0.0,0.0,0.0,0.0,1.0
1317398080866035563,0,1317398080876035563,/world,/map,0.0,0.0,0.0,0.0,0.0,0.0,1.0
1317398080876161743,0,1317398080886161743,/world,/map,0.0,0.0,0.0,0.0,0.0,0.0,1.0
1317398080886264530,0,1317398080896264530,/world,/map,0.0,0.0,0.0,0.0,0.0,0.0,1.0
1317398080896332216,0,1317398080906332216,/world,/map,0.0,0.0,0.0,0.0,0.0,0.0,1.0
1317398080896332216,0,1317398080899650096,world,base_link,-1.8088110188255087,9.435772578697652,0.01456451415999993,-0.0010787141759468649,0.019738354142440778,0.7716697181589104,0.6357161944044072
1317398080906397781,0,1317398080916397781,/world,/map,0.0,0.0,0.0,0.0,0.0,0.0,1.0
1317398080916464254,0,1317398080926464254,/world,/map,0.0,0.0,0.0,0.0,0.0,0.0,1.0
1317398080926597135,0,1317398080936597135,/world,/map,0.0,0.0,0.0,0.0,0.0,0.0,1.0
1317398080936675647,0,1317398080946675647,/world,/map,0.0,0.0,0.0,0.0,0.0,0.0,1.0
1317398080946755617,0,1317398080956755617,/world,/map,0.0,0.0,0.0,0.0,0.0,0.0,1.0
1317398080956856874,0,1317398080966856874,/world,/map,0.0,0.0,0.0,0.0,0.0,0.0,1.0
1317398080966980465,0,1317398080976980465,/world,/map,0.0,0.0,0.0,0.0,0.0,0.0,1.0
1317398080977060140,0,1317398080987060140,/world,/map,0.0,0.0,0.0,0.0,0.0,0.0,1.0
1317398080987150926,0,1317398080997150926,/world,/map,0.0,0.0,0.0,0.0,0.0,0.0,1.0
1317398080997244144,0,1317398081007244144,/world,/map,0.0,0.0,0.0,0.0,0.0,0.0,1.0
1317398081007379034,0,1317398081017379034,/world,/map,0.0,0.0,0.0,0.0,0.0,0.0,1.0
1317398081007379034,0,1317398081009690999,world,base_link,-1.9578001553891227,10.15652247518301,-0.004730224610000278,0.0011491196145841783,0.016339437657434727,0.7719864847673321,0.6354278634414199
1317398081017515447,0,1317398081027515447,/world,/map,0.0,0.0,0.0,0.0,0.0,0.0,1.0
1317398081027593065,0,1317398081037593065,/world,/map,0.0,0.0,0.0,0.0,0.0,0.0,1.0
1317398081037657881,0,1317398081047657881,/world,/map,0.0,0.0,0.0,0.0,0.0,0.0,1.0
1317398081047742106,0,1317398081057742106,/world,/map,0.0,0.0,0.0,0.0,0.0,0.0,1.0
1317398081057836234,0,1317398081067836234,/world,/map,0.0,0.0,0.0,0.0,0.0,0.0,1.0
1317398081067969972,0,1317398081077969972,/world,/map,0.0,0.0,0.0,0.0,0.0,0.0,1.0
1317398081078102452,0,1317398081088102452,/world,/map,0.0,0.0,0.0,0.0,0.0,0.0,1.0
1317398081088172963,0,1317398081098172963,/world,/map,0.0,0.0,0.0,0.0,0.0,0.0,1.0
1317398081098353651,0,1317398081108353651,/world,/map,0.0,0.0,0.0,0.0,0.0,0.0,1.0
1317398081108457588,0,1317398081118457588,/world,/map,0.0,0.0,0.0,0.0,0.0,0.0,1.0
1317398081108457588,0,1317398081109601974,world,base_link,-2.0938591653248295,10.827932783402503,-0.027236938469997085,0.0040497460454648705,0.014287501228100073,0.7722668717760324,0.6351246693546749
1317398081118565517,0,1317398081128565517,/world,/map,0.0,0.0,0.0,0.0,0.0,0.0,1.0
1317398081128653892,0,1317398081138653892,/world,/map,0.0,0.0,0.0,0.0,0.0,0.0,1.0
1317398081138740753,0,1317398081148740753,/world,/map,0.0,0.0,0.0,0.0,0.0,0.0,1.0
1317398081148827436,0,1317398081158827436,/world,/map,0.0,0.0,0.0,0.0,0.0,0.0,1.0
1317398081158914667,0,1317398081168914667,/world,/map,0.0,0.0,0.0,0.0,0.0,0.0,1.0
1317398081168984908,0,1317398081178984908,/world,/map,0.0,0.0,0.0,0.0,0.0,0.0,1.0
1317398081179051939,0,1317398081189051939,/world,/map,0.0,0.0,0.0,0.0,0.0,0.0,1.0
1317398081189197810,0,1317398081199197810,/world,/map,0.0,0.0,0.0,0.0,0.0,0.0,1.0
1317398081199298504,0,1317398081209298504,/world,/map,0.0,0.0,0.0,0.0,0.0,0.0,1.0
1317398081209403800,0,1317398081219403800,/world,/map,0.0,0.0,0.0,0.0,0.0,0.0,1.0
1317398081219456148,0,1317398081219624996,world,base_link,-2.242673541768454,11.587950445245951,-0.041969299309997155,0.004481754988121972,0.01543403335578424,0.7726810612095749,0.6345909565496847
1317398081219456148,0,1317398081229456148,/world,/map,0.0,0.0,0.0,0.0,0.0,0.0,1.0
1317398081229576279,0,1317398081239576279,/world,/map,0.0,0.0,0.0,0.0,0.0,0.0,1.0
1317398081239697995,0,1317398081249697995,/world,/map,0.0,0.0,0.0,0.0,0.0,0.0,1.0
1317398081249818586,0,1317398081259818586,/world,/map,0.0,0.0,0.0,0.0,0.0,0.0,1.0
1317398081259895264,0,1317398081269895264,/world,/map,0.0,0.0,0.0,0.0,0.0,0.0,1.0
1317398081269982915,0,1317398081279982915,/world,/map,0.0,0.0,0.0,0.0,0.0,0.0,1.0
1317398081280120257,0,1317398081290120257,/world,/map,0.0,0.0,0.0,0.0,0.0,0.0,1.0
1317398081290221443,0,1317398081300221443,/world,/map,0.0,0.0,0.0,0.0,0.0,0.0,1.0
1317398081300290139,0,1317398081310290139,/world,/map,0.0,0.0,0.0,0.0,0.0,0.0,1.0
1317398081310346612,0,1317398081320346612,/world,/map,0.0,0.0,0.0,0.0,0.0,0.0,1.0
1317398081310346612,0,1317398081319645881,world,base_link,-2.376784532563761,12.297678408678621,-0.046974182130000486,0.0011287833786222136,0.018801018913398772,0.7727950492798263,0.6343761182015704
1317398081320427930,0,1317398081330427930,/world,/map,0.0,0.0,0.0,0.0,0.0,0.0,1.0
1317398081330525432,0,1317398081340525432,/world,/map,0.0,0.0,0.0,0.0,0.0,0.0,1.0
1317398081340612383,0,1317398081350612383,/world,/map,0.0,0.0,0.0,0.0,0.0,0.0,1.0
1317398081350708238,0,1317398081360708238,/world,/map,0.0,0.0,0.0,0.0,0.0,0.0,1.0
1317398081360807445,0,1317398081370807445,/world,/map,0.0,0.0,0.0,0.0,0.0,0.0,1.0
1317398081370931385,0,1317398081380931385,/world,/map,0.0,0.0,0.0,0.0,0.0,0.0,1.0
1317398081381002855,0,1317398081391002855,/world,/map,0.0,0.0,0.0,0.0,0.0,0.0,1.0
1317398081391075339,0,1317398081401075339,/world,/map,0.0,0.0,0.0,0.0,0.0,0.0,1.0
1317398081401203704,0,1317398081411203704,/world,/map,0.0,0.0,0.0,0.0,0.0,0.0,1.0
1317398081411329746,0,1317398081421329746,/world,/map,0.0,0.0,0.0,0.0,0.0,0.0,1.0
1317398081421555370,0,1317398081431555370,/world,/map,0.0,0.0,0.0,0.0,0.0,0.0,1.0
1317398081421555370,0,1317398081429598093,world,base_link,-2.5295979662332684,13.096736668143421,-0.056663513179998404,-0.001872840097203928,0.021602699341934994,0.7729140626975065,0.6341401008732591
1317398081431636367,0,1317398081441636367,/world,/map,0.0,0.0,0.0,0.0,0.0,0.0,1.0
1317398081441764925,0,1317398081451764925,/world,/map,0.0,0.0,0.0,0.0,0.0,0.0,1.0
1317398081451882613,0,1317398081461882613,/world,/map,0.0,0.0,0.0,0.0,0.0,0.0,1.0
1317398081461955626,0,1317398081471955626,/world,/map,0.0,0.0,0.0,0.0,0.0,0.0,1.0
1317398081472018826,0,1317398081482018826,/world,/map,0.0,0.0,0.0,0.0,0.0,0.0,1.0
1317398081482079838,0,1317398081492079838,/world,/map,0.0,0.0,0.0,0.0,0.0,0.0,1.0
1317398081492146319,0,1317398081502146319,/world,/map,0.0,0.0,0.0,0.0,0.0,0.0,1.0
1317398081502193811,0,1317398081512193811,/world,/map,0.0,0.0,0.0,0.0,0.0,0.0,1.0
1317398081512279897,0,1317398081522279897,/world,/map,0.0,0.0,0.0,0.0,0.0,0.0,1.0
1317398081522367316,0,1317398081532367316,/world,/map,0.0,0.0,0.0,0.0,0.0,0.0,1.0
1317398081522367316,0,1317398081529654026,world,base_link,-2.6739512039348483,13.83775057643652,-0.0716400146500007,-0.0026218974749976504,0.02280336172434433,0.7730330235503715,0.6339503741210901
1317398081532465165,0,1317398081542465165,/world,/map,0.0,0.0,0.0,0.0,0.0,0.0,1.0
1317398081542550647,0,1317398081552550647,/world,/map,0.0,0.0,0.0,0.0,0.0,0.0,1.0
1317398081552689380,0,1317398081562689380,/world,/map,0.0,0.0,0.0,0.0,0.0,0.0,1.0
1317398081562806201,0,1317398081572806201,/world,/map,0.0,0.0,0.0,0.0,0.0,0.0,1.0
1317398081572916452,0,1317398081582916452,/world,/map,0.0,0.0,0.0,0.0,0.0,0.0,1.0
1317398081582980944,0,1317398081592980944,/world,/map,0.0,0.0,0.0,0.0,0.0,0.0,1.0
1317398081593078497,0,1317398081603078497,/world,/map,0.0,0.0,0.0,0.0,0.0,0.0,1.0
1317398081603203212,0,1317398081613203212,/world,/map,0.0,0.0,0.0,0.0,0.0,0.0,1.0
1317398081613327956,0,1317398081623327956,/world,/map,0.0,0.0,0.0,0.0,0.0,0.0,1.0
1317398081623391686,0,1317398081633391686,/world,/map,0.0,0.0,0.0,0.0,0.0,0.0,1.0
1317398081623391686,0,1317398081629601955,world,base_link,-2.8197425904218107,14.593855983577669,-0.09381866454999965,-0.001616869006922882,0.023335919343331662,0.7730921641801518,0.633862229736293
1317398081633478277,0,1317398081643478277,/world,/map,0.0,0.0,0.0,0.0,0.0,0.0,1.0
1317398081643645753,0,1317398081653645753,/world,/map,0.0,0.0,0.0,0.0,0.0,0.0,1.0
1317398081653750024,0,1317398081663750024,/world,/map,0.0,0.0,0.0,0.0,0.0,0.0,1.0
1317398081663881860,0,1317398081673881860,/world,/map,0.0,0.0,0.0,0.0,0.0,0.0,1.0
1317398081673988043,0,1317398081683988043,/world,/map,0.0,0.0,0.0,0.0,0.0,0.0,1.0
1317398081684138334,0,1317398081694138334,/world,/map,0.0,0.0,0.0,0.0,0.0,0.0,1.0
1317398081694211048,0,1317398081704211048,/world,/map,0.0,0.0,0.0,0.0,0.0,0.0,1.0
1317398081704274112,0,1317398081714274112,/world,/map,0.0,0.0,0.0,0.0,0.0,0.0,1.0
1317398081714334704,0,1317398081724334704,/world,/map,0.0,0.0,0.0,0.0,0.0,0.0,1.0
1317398081724397836,0,1317398081734397836,/world,/map,0.0,0.0,0.0,0.0,0.0,0.0,1.0
1317398081734457752,0,1317398081744457752,/world,/map,0.0,0.0,0.0,0.0,0.0,0.0,1.0
1317398081734457752,0,1317398081739624023,world,base_link,-2.987557325512171,15.446129443123937,-0.1224441528299991,-0.0002914982671934189,0.022731639564606335,0.77299076363124,0.6340098318892677
1317398081744520998,0,1317398081754520998,/world,/map,0.0,0.0,0.0,0.0,0.0,0.0,1.0
1317398081754602358,0,1317398081764602358,/world,/map,0.0,0.0,0.0,0.0,0.0,0.0,1.0
1317398081764762661,0,1317398081774762661,/world,/map,0.0,0.0,0.0,0.0,0.0,0.0,1.0
1317398081774851639,0,1317398081784851639,/world,/map,0.0,0.0,0.0,0.0,0.0,0.0,1.0
1317398081784970126,0,1317398081794970126,/world,/map,0.0,0.0,0.0,0.0,0.0,0.0,1.0
1317398081795118966,0,1317398081805118966,/world,/map,0.0,0.0,0.0,0.0,0.0,0.0,1.0
1317398081805173329,0,1317398081815173329,/world,/map,0.0,0.0,0.0,0.0,0.0,0.0,1.0
1317398081815240479,0,1317398081825240479,/world,/map,0.0,0.0,0.0,0.0,0.0,0.0,1.0
1317398081825311570,0,1317398081835311570,/world,/map,0.0,0.0,0.0,0.0,0.0,0.0,1.0
1317398081835498075,0,1317398081845498075,/world,/map,0.0,0.0,0.0,0.0,0.0,0.0,1.0
1317398081835498075,0,1317398081839612960,world,base_link,-3.1360501986928284,16.232771772891283,-0.14959716797000056,0.00020837331365480485,0.02076009730722853,0.7728303139525327,0.6342730333037867
1317398081845591134,0,1317398081855591134,/world,/map,0.0,0.0,0.0,0.0,0.0,0.0,1.0
1317398081855740206,0,1317398081865740206,/world,/map,0.0,0.0,0.0,0.0,0.0,0.0,1.0
1317398081865826324,0,1317398081875826324,/world,/map,0.0,0.0,0.0,0.0,0.0,0.0,1.0
1317398081875902234,0,1317398081885902234,/world,/map,0.0,0.0,0.0,0.0,0.0,0.0,1.0
1317398081886012917,0,1317398081896012917,/world,/map,0.0,0.0,0.0,0.0,0.0,0.0,1.0
1317398081896073155,0,1317398081906073155,/world,/map,0.0,0.0,0.0,0.0,0.0,0.0,1.0
1317398081906200006,0,1317398081916200006,/world,/map,0.0,0.0,0.0,0.0,0.0,0.0,1.0
1317398081916265278,0,1317398081926265278,/world,/map,0.0,0.0,0.0,0.0,0.0,0.0,1.0
1317398081926330463,0,1317398081936330463,/world,/map,0.0,0.0,0.0,0.0,0.0,0.0,1.0
1317398081936404335,0,1317398081946404335,/world,/map,0.0,0.0,0.0,0.0,0.0,0.0,1.0
1317398081946536094,0,1317398081956536094,/world,/map,0.0,0.0,0.0,0.0,0.0,0.0,1.0
1317398081946536094,0,1317398081949678897,world,base_link,-3.300118688493967,17.115845347288996,-0.17485809325999924,0.0032332323363429803,0.020017458830054412,0.7724796036934409,0.634715770584181
1317398081956661114,0,1317398081966661114,/world,/map,0.0,0.0,0.0,0.0,0.0,0.0,1.0
1317398081966856081,0,1317398081976856081,/world,/map,0.0,0.0,0.0,0.0,0.0,0.0,1.0
1317398081977005633,0,1317398081987005633,/world,/map,0.0,0.0,0.0,0.0,0.0,0.0,1.0
1317398081987099211,0,1317398081997099211,/world,/map,0.0,0.0,0.0,0.0,0.0,0.0,1.0
1317398081997198004,0,1317398082007198004,/world,/map,0.0,0.0,0.0,0.0,0.0,0.0,1.0
1317398082007306808,0,1317398082017306808,/world,/map,0.0,0.0,0.0,0.0,0.0,0.0,1.0
1317398082017442082,0,1317398082027442082,/world,/map,0.0,0.0,0.0,0.0,0.0,0.0,1.0
1317398082027573356,0,1317398082037573356,/world,/map,0.0,0.0,0.0,0.0,0.0,0.0,1.0
1317398082037704685,0,1317398082047704685,/world,/map,0.0,0.0,0.0,0.0,0.0,0.0,1.0
1317398082047816825,0,1317398082057816825,/world,/map,0.0,0.0,0.0,0.0,0.0,0.0,1.0
1317398082047816825,0,1317398082049709081,world,base_link,-3.446290106745437,17.932000023312867,-0.19274902342999667,0.006387077683556374,0.01916488824351849,0.7722664485800229,0.6349775151096899
1317398082057963360,0,1317398082067963360,/world,/map,0.0,0.0,0.0,0.0,0.0,0.0,1.0
1317398082068060650,0,1317398082078060650,/world,/map,0.0,0.0,0.0,0.0,0.0,0.0,1.0
1317398082078208778,0,1317398082088208778,/world,/map,0.0,0.0,0.0,0.0,0.0,0.0,1.0
1317398082088277984,0,1317398082098277984,/world,/map,0.0,0.0,0.0,0.0,0.0,0.0,1.0
1317398082098405099,0,1317398082108405099,/world,/map,0.0,0.0,0.0,0.0,0.0,0.0,1.0
1317398082108466034,0,1317398082118466034,/world,/map,0.0,0.0,0.0,0.0,0.0,0.0,1.0
1317398082118585525,0,1317398082128585525,/world,/map,0.0,0.0,0.0,0.0,0.0,0.0,1.0
1317398082128662660,0,1317398082138662660,/world,/map,0.0,0.0,0.0,0.0,0.0,0.0,1.0
1317398082138827307,0,1317398082148827307,/world,/map,0.0,0.0,0.0,0.0,0.0,0.0,1.0
1317398082149044117,0,1317398082159044117,/world,/map,0.0,0.0,0.0,0.0,0.0,0.0,1.0
1317398082159114156,0,1317398082169114156,/world,/map,0.0,0.0,0.0,0.0,0.0,0.0,1.0
1317398082159114156,0,1317398082159647941,world,base_link,-3.619702164665796,18.85114774107933,-0.21286773680999715,0.008536655248866367,0.01696010414550647,0.7718855412232588,0.6354779237983113
1317398082169184229,0,1317398082179184229,/world,/map,0.0,0.0,0.0,0.0,0.0,0.0,1.0
1317398082179240730,0,1317398082189240730,/world,/map,0.0,0.0,0.0,0.0,0.0,0.0,1.0
1317398082189313877,0,1317398082199313877,/world,/map,0.0,0.0,0.0,0.0,0.0,0.0,1.0
1317398082199402028,0,1317398082209402028,/world,/map,0.0,0.0,0.0,0.0,0.0,0.0,1.0
1317398082209504088,0,1317398082219504088,/world,/map,0.0,0.0,0.0,0.0,0.0,0.0,1.0
1317398082219604358,0,1317398082229604358,/world,/map,0.0,0.0,0.0,0.0,0.0,0.0,1.0
1317398082229671158,0,1317398082239671158,/world,/map,0.0,0.0,0.0,0.0,0.0,0.0,1.0
1317398082239825251,0,1317398082249825251,/world,/map,0.0,0.0,0.0,0.0,0.0,0.0,1.0
1317398082249911858,0,1317398082259911858,/world,/map,0.0,0.0,0.0,0.0,0.0,0.0,1.0
1317398082249911858,0,1317398082259574890,world,base_link,-3.7772833495400846,19.70112065412104,-0.22136688231999813,0.00849552186701104,0.01620338512352596,0.771821185833116,0.6355763789804562
1317398082260289816,0,1317398082270289816,/world,/map,0.0,0.0,0.0,0.0,0.0,0.0,1.0
1317398082270424251,0,1317398082280424251,/world,/map,0.0,0.0,0.0,0.0,0.0,0.0,1.0
1317398082280501383,0,1317398082290501383,/world,/map,0.0,0.0,0.0,0.0,0.0,0.0,1.0
1317398082290626784,0,1317398082300626784,/world,/map,0.0,0.0,0.0,0.0,0.0,0.0,1.0
1317398082300699279,0,1317398082310699279,/world,/map,0.0,0.0,0.0,0.0,0.0,0.0,1.0
1317398082310823203,0,1317398082320823203,/world,/map,0.0,0.0,0.0,0.0,0.0,0.0,1.0
1317398082320925759,0,1317398082330925759,/world,/map,0.0,0.0,0.0,0.0,0.0,0.0,1.0
1317398082331003758,0,1317398082341003758,/world,/map,0.0,0.0,0.0,0.0,0.0,0.0,1.0
1317398082341078437,0,1317398082351078437,/world,/map,0.0,0.0,0.0,0.0,0.0,0.0,1.0
1317398082351152869,0,1317398082361152869,/world,/map,0.0,0.0,0.0,0.0,0.0,0.0,1.0
1317398082351152869,0,1317398082359594106,world,base_link,-3.939415968256071,20.56916592735797,-0.22370910643999764,0.008146389998930399,0.016265382932925707,0.7719082649361227,0.6354736061956745
1317398082361232607,0,1317398082371232607,/world,/map,0.0,0.0,0.0,0.0,0.0,0.0,1.0
1317398082371305768,0,1317398082381305768,/world,/map,0.0,0.0,0.0,0.0,0.0,0.0,1.0
1317398082381379487,0,1317398082391379487,/world,/map,0.0,0.0,0.0,0.0,0.0,0.0,1.0
1317398082391442342,0,1317398082401442342,/world,/map,0.0,0.0,0.0,0.0,0.0,0.0,1.0
1317398082401547539,0,1317398082411547539,/world,/map,0.0,0.0,0.0,0.0,0.0,0.0,1.0
1317398082411676759,0,1317398082421676759,/world,/map,0.0,0.0,0.0,0.0,0.0,0.0,1.0
1317398082421785913,0,1317398082431785913,/world,/map,0.0,0.0,0.0,0.0,0.0,0.0,1.0
1317398082431909883,0,1317398082441909883,/world,/map,0.0,0.0,0.0,0.0,0.0,0.0,1.0
1317398082441948287,0,1317398082451948287,/world,/map,0.0,0.0,0.0,0.0,0.0,0.0,1.0
1317398082452020610,0,1317398082462020610,/world,/map,0.0,0.0,0.0,0.0,0.0,0.0,1.0
1317398082462256532,0,1317398082472256532,/world,/map,0.0,0.0,0.0,0.0,0.0,0.0,1.0
1317398082462256532,0,1317398082469732046,world,base_link,-4.120142779662274,21.541111790575087,-0.22577667235999854,0.008111325284689106,0.01543133805202967,0.7719032983879854,0.6355008876042574
1317398082472329356,0,1317398082482329356,/world,/map,0.0,0.0,0.0,0.0,0.0,0.0,1.0
1317398082482407447,0,1317398082492407447,/world,/map,0.0,0.0,0.0,0.0,0.0,0.0,1.0
1317398082492485578,0,1317398082502485578,/world,/map,0.0,0.0,0.0,0.0,0.0,0.0,1.0
1317398082502570344,0,1317398082512570344,/world,/map,0.0,0.0,0.0,0.0,0.0,0.0,1.0
1317398082512686617,0,1317398082522686617,/world,/map,0.0,0.0,0.0,0.0,0.0,0.0,1.0
1317398082522765833,0,1317398082532765833,/world,/map,0.0,0.0,0.0,0.0,0.0,0.0,1.0
1317398082532849206,0,1317398082542849206,/world,/map,0.0,0.0,0.0,0.0,0.0,0.0,1.0
1317398082542958064,0,1317398082552958064,/world,/map,0.0,0.0,0.0,0.0,0.0,0.0,1.0
1317398082553126481,0,1317398082563126481,/world,/map,0.0,0.0,0.0,0.0,0.0,0.0,1.0
1317398082563260941,0,1317398082573260941,/world,/map,0.0,0.0,0.0,0.0,0.0,0.0,1.0
1317398082563260941,0,1317398082569617033,world,base_link,-4.290864710696042,22.43959934823215,-0.22905731200999924,0.008107609583669085,0.013757679962519464,0.7718737582191512,0.6355752467501633
1317398082573345791,0,1317398082583345791,/world,/map,0.0,0.0,0.0,0.0,0.0,0.0,1.0
1317398082583532049,0,1317398082593532049,/world,/map,0.0,0.0,0.0,0.0,0.0,0.0,1.0
1317398082593596672,0,1317398082603596672,/world,/map,0.0,0.0,0.0,0.0,0.0,0.0,1.0
1317398082603727932,0,1317398082613727932,/world,/map,0.0,0.0,0.0,0.0,0.0,0.0,1.0
1317398082613846599,0,1317398082623846599,/world,/map,0.0,0.0,0.0,0.0,0.0,0.0,1.0
1317398082623916387,0,1317398082633916387,/world,/map,0.0,0.0,0.0,0.0,0.0,0.0,1.0
1317398082634038347,0,1317398082644038347,/world,/map,0.0,0.0,0.0,0.0,0.0,0.0,1.0
1317398082644109807,0,1317398082654109807,/world,/map,0.0,0.0,0.0,0.0,0.0,0.0,1.0
1317398082654207258,0,1317398082664207258,/world,/map,0.0,0.0,0.0,0.0,0.0,0.0,1.0
1317398082664292817,0,1317398082674292817,/world,/map,0.0,0.0,0.0,0.0,0.0,0.0,1.0
1317398082674426596,0,1317398082684426596,/world,/map,0.0,0.0,0.0,0.0,0.0,0.0,1.0
1317398082674426596,0,1317398082679593086,world,base_link,-4.476287218858488,23.44884028332308,-0.23180389403999868,0.007268107422279201,0.012046285223706283,0.7719105580194944,0.6355754495296685
1317398082684600023,0,1317398082694600023,/world,/map,0.0,0.0,0.0,0.0,0.0,0.0,1.0
1317398082694662867,0,1317398082704662867,/world,/map,0.0,0.0,0.0,0.0,0.0,0.0,1.0
1317398082704701886,0,1317398082714701886,/world,/map,0.0,0.0,0.0,0.0,0.0,0.0,1.0
1317398082714813241,0,1317398082724813241,/world,/map,0.0,0.0,0.0,0.0,0.0,0.0,1.0
1317398082724884570,0,1317398082734884570,/world,/map,0.0,0.0,0.0,0.0,0.0,0.0,1.0
1317398082734994832,0,1317398082744994832,/world,/map,0.0,0.0,0.0,0.0,0.0,0.0,1.0
1317398082745061751,0,1317398082755061751,/world,/map,0.0,0.0,0.0,0.0,0.0,0.0,1.0
1317398082755191345,0,1317398082765191345,/world,/map,0.0,0.0,0.0,0.0,0.0,0.0,1.0
1317398082765273479,0,1317398082775273479,/world,/map,0.0,0.0,0.0,0.0,0.0,0.0,1.0
1317398082775339284,0,1317398082785339284,/world,/map,0.0,0.0,0.0,0.0,0.0,0.0,1.0
1317398082775339284,0,1317398082779612064,world,base_link,-4.65128318418283,24.37006625952199,-0.23152160643999764,0.006658377203384414,0.011437110608801806,0.7718953063444128,0.6356119056133268
1317398082785421569,0,1317398082795421569,/world,/map,0.0,0.0,0.0,0.0,0.0,0.0,1.0
1317398082795540570,0,1317398082805540570,/world,/map,0.0,0.0,0.0,0.0,0.0,0.0,1.0
1317398082805657189,0,1317398082815657189,/world,/map,0.0,0.0,0.0,0.0,0.0,0.0,1.0
1317398082815751978,0,1317398082825751978,/world,/map,0.0,0.0,0.0,0.0,0.0,0.0,1.0
1317398082825819998,0,1317398082835819998,/world,/map,0.0,0.0,0.0,0.0,0.0,0.0,1.0
1317398082835968214,0,1317398082845968214,/world,/map,0.0,0.0,0.0,0.0,0.0,0.0,1.0
1317398082846085576,0,1317398082856085576,/world,/map,0.0,0.0,0.0,0.0,0.0,0.0,1.0
1317398082856175366,0,1317398082866175366,/world,/map,0.0,0.0,0.0,0.0,0.0,0.0,1.0
1317398082866246283,0,1317398082876246283,/world,/map,0.0,0.0,0.0,0.0,0.0,0.0,1.0
1317398082876362350,0,1317398082886362350,/world,/map,0.0,0.0,0.0,0.0,0.0,0.0,1.0
1317398082886512526,0,1317398082896512526,/world,/map,0.0,0.0,0.0,0.0,0.0,0.0,1.0
1317398082886512526,0,1317398082889604091,world,base_link,-4.8456655002664775,25.38913988834247,-0.23090362547999632,0.006339222777201971,0.011136114868608087,0.7719775470618571,0.63552062754294
1317398082896584108,0,1317398082906584108,/world,/map,0.0,0.0,0.0,0.0,0.0,0.0,1.0
1317398082906633475,0,1317398082916633475,/world,/map,0.0,0.0,0.0,0.0,0.0,0.0,1.0
1317398082916734176,0,1317398082926734176,/world,/map,0.0,0.0,0.0,0.0,0.0,0.0,1.0
1317398082926885227,0,1317398082936885227,/world,/map,0.0,0.0,0.0,0.0,0.0,0.0,1.0
1317398082937019383,0,1317398082947019383,/world,/map,0.0,0.0,0.0,0.0,0.0,0.0,1.0
1317398082947139903,0,1317398082957139903,/world,/map,0.0,0.0,0.0,0.0,0.0,0.0,1.0
1317398082957268405,0,1317398082967268405,/world,/map,0.0,0.0,0.0,0.0,0.0,0.0,1.0
1317398082967345886,0,1317398082977345886,/world,/map,0.0,0.0,0.0,0.0,0.0,0.0,1.0
1317398082977442280,0,1317398082987442280,/world,/map,0.0,0.0,0.0,0.0,0.0,0.0,1.0
1317398082987593613,0,1317398082997593613,/world,/map,0.0,0.0,0.0,0.0,0.0,0.0,1.0
1317398082987593613,0,1317398082989825963,world,base_link,-5.024436806910671,26.323269291315228,-0.22994995116999917,0.006370517117779801,0.011089385299466471,0.7720354511908267,0.6354507881417005
1317398082997686012,0,1317398083007686012,/world,/map,0.0,0.0,0.0,0.0,0.0,0.0,1.0
1317398083007780733,0,1317398083017780733,/world,/map,0.0,0.0,0.0,0.0,0.0,0.0,1.0
1317398083017919817,0,1317398083027919817,/world,/map,0.0,0.0,0.0,0.0,0.0,0.0,1.0
1317398083028008658,0,1317398083038008658,/world,/map,0.0,0.0,0.0,0.0,0.0,0.0,1.0
1317398083038101007,0,1317398083048101007,/world,/map,0.0,0.0,0.0,0.0,0.0,0.0,1.0
1317398083048196370,0,1317398083058196370,/world,/map,0.0,0.0,0.0,0.0,0.0,0.0,1.0
1317398083058274940,0,1317398083068274940,/world,/map,0.0,0.0,0.0,0.0,0.0,0.0,1.0
1317398083068358037,0,1317398083078358037,/world,/map,0.0,0.0,0.0,0.0,0.0,0.0,1.0
1317398083078428490,0,1317398083088428490,/world,/map,0.0,0.0,0.0,0.0,0.0,0.0,1.0
1317398083088508640,0,1317398083098508640,/world,/map,0.0,0.0,0.0,0.0,0.0,0.0,1.0
1317398083088508640,0,1317398083089576959,world,base_link,-5.205077373073436,27.26339811226353,-0.22685241698999903,0.005723936791870086,0.011150783107152125,0.7721527616305528,0.635313315845033
1317398083098672434,0,1317398083108672434,/world,/map,0.0,0.0,0.0,0.0,0.0,0.0,1.0
1317398083108778855,0,1317398083118778855,/world,/map,0.0,0.0,0.0,0.0,0.0,0.0,1.0
1317398083118882818,0,1317398083128882818,/world,/map,0.0,0.0,0.0,0.0,0.0,0.0,1.0
1317398083129029823,0,1317398083139029823,/world,/map,0.0,0.0,0.0,0.0,0.0,0.0,1.0
1317398083139136302,0,1317398083149136302,/world,/map,0.0,0.0,0.0,0.0,0.0,0.0,1.0
1317398083149200126,0,1317398083159200126,/world,/map,0.0,0.0,0.0,0.0,0.0,0.0,1.0
1317398083159239754,0,1317398083169239754,/world,/map,0.0,0.0,0.0,0.0,0.0,0.0,1.0
1317398083169332389,0,1317398083179332389,/world,/map,0.0,0.0,0.0,0.0,0.0,0.0,1.0
1317398083179462710,0,1317398083189462710,/world,/map,0.0,0.0,0.0,0.0,0.0,0.0,1.0
1317398083189628506,0,1317398083199628506,/world,/map,0.0,0.0,0.0,0.0,0.0,0.0,1.0
1317398083199964332,0,1317398083199584007,world,base_link,-5.405876150471158,28.306403857190162,-0.22357177733999833,0.004735185735287328,0.011519205214124228,0.7722631493074471,0.6351806940934452
1317398083199964332,0,1317398083209964332,/world,/map,0.0,0.0,0.0,0.0,0.0,0.0,1.0
1317398083210122616,0,1317398083220122616,/world,/map,0.0,0.0,0.0,0.0,0.0,0.0,1.0
1317398083220179283,0,1317398083230179283,/world,/map,0.0,0.0,0.0,0.0,0.0,0.0,1.0
1317398083230243387,0,1317398083240243387,/world,/map,0.0,0.0,0.0,0.0,0.0,0.0,1.0
1317398083240309436,0,1317398083250309436,/world,/map,0.0,0.0,0.0,0.0,0.0,0.0,1.0
1317398083250407578,0,1317398083260407578,/world,/map,0.0,0.0,0.0,0.0,0.0,0.0,1.0
1317398083260515269,0,1317398083270515269,/world,/map,0.0,0.0,0.0,0.0,0.0,0.0,1.0
1317398083270585313,0,1317398083280585313,/world,/map,0.0,0.0,0.0,0.0,0.0,0.0,1.0
1317398083280656868,0,1317398083290656868,/world,/map,0.0,0.0,0.0,0.0,0.0,0.0,1.0
1317398083290730826,0,1317398083300730826,/world,/map,0.0,0.0,0.0,0.0,0.0,0.0,1.0
1317398083290730826,0,1317398083299561023,world,base_link,-5.590516692958772,29.262087770272046,-0.2214279174799998,0.00405109807366688,0.011683300149832957,0.7723762950112423,0.6350448393670426
1317398083300890384,0,1317398083310890384,/world,/map,0.0,0.0,0.0,0.0,0.0,0.0,1.0
1317398083310969756,0,1317398083320969756,/world,/map,0.0,0.0,0.0,0.0,0.0,0.0,1.0
1317398083321051244,0,1317398083331051244,/world,/map,0.0,0.0,0.0,0.0,0.0,0.0,1.0
1317398083331144174,0,1317398083341144174,/world,/map,0.0,0.0,0.0,0.0,0.0,0.0,1.0
1317398083341225021,0,1317398083351225021,/world,/map,0.0,0.0,0.0,0.0,0.0,0.0,1.0
1317398083351367908,0,1317398083361367908,/world,/map,0.0,0.0,0.0,0.0,0.0,0.0,1.0
1317398083361443287,0,1317398083371443287,/world,/map,0.0,0.0,0.0,0.0,0.0,0.0,1.0
1317398083371510914,0,1317398083381510914,/world,/map,0.0,0.0,0.0,0.0,0.0,0.0,1.0
1317398083381574034,0,1317398083391574034,/world,/map,0.0,0.0,0.0,0.0,0.0,0.0,1.0
1317398083391637438,0,1317398083401637438,/world,/map,0.0,0.0,0.0,0.0,0.0,0.0,1.0
1317398083401733523,0,1317398083411733523,/world,/map,0.0,0.0,0.0,0.0,0.0,0.0,1.0
1317398083401733523,0,1317398083409584999,world,base_link,-5.795153469545767,30.321455386001617,-0.22138977049999653,0.004386327136761766,0.011463944184870309,0.7723917395328528,0.6350278252323982
1317398083411794518,0,1317398083421794518,/world,/map,0.0,0.0,0.0,0.0,0.0,0.0,1.0
1317398083421916284,0,1317398083431916284,/world,/map,0.0,0.0,0.0,0.0,0.0,0.0,1.0
1317398083431987109,0,1317398083441987109,/world,/map,0.0,0.0,0.0,0.0,0.0,0.0,1.0
1317398083442056619,0,1317398083452056619,/world,/map,0.0,0.0,0.0,0.0,0.0,0.0,1.0
1317398083452114471,0,1317398083462114471,/world,/map,0.0,0.0,0.0,0.0,0.0,0.0,1.0
1317398083462192222,0,1317398083472192222,/world,/map,0.0,0.0,0.0,0.0,0.0,0.0,1.0
1317398083472269691,0,1317398083482269691,/world,/map,0.0,0.0,0.0,0.0,0.0,0.0,1.0
1317398083482386460,0,1317398083492386460,/world,/map,0.0,0.0,0.0,0.0,0.0,0.0,1.0
1317398083492493562,0,1317398083502493562,/world,/map,0.0,0.0,0.0,0.0,0.0,0.0,1.0
1317398083502612745,0,1317398083512612745,/world,/map,0.0,0.0,0.0,0.0,0.0,0.0,1.0
1317398083502612745,0,1317398083509615898,world,base_link,-5.98368034651503,31.291497939731926,-0.22357177733999833,0.004491881432638897,0.010691466850872177,0.7724516003004913,0.6349677477880129
1317398083512684069,0,1317398083522684069,/world,/map,0.0,0.0,0.0,0.0,0.0,0.0,1.0
1317398083522868726,0,1317398083532868726,/world,/map,0.0,0.0,0.0,0.0,0.0,0.0,1.0
1317398083532954171,0,1317398083542954171,/world,/map,0.0,0.0,0.0,0.0,0.0,0.0,1.0
1317398083543087409,0,1317398083553087409,/world,/map,0.0,0.0,0.0,0.0,0.0,0.0,1.0
1317398083553211581,0,1317398083563211581,/world,/map,0.0,0.0,0.0,0.0,0.0,0.0,1.0
1317398083563283455,0,1317398083573283455,/world,/map,0.0,0.0,0.0,0.0,0.0,0.0,1.0
1317398083573427997,0,1317398083583427997,/world,/map,0.0,0.0,0.0,0.0,0.0,0.0,1.0
1317398083583474704,0,1317398083593474704,/world,/map,0.0,0.0,0.0,0.0,0.0,0.0,1.0
1317398083593537151,0,1317398083603537151,/world,/map,0.0,0.0,0.0,0.0,0.0,0.0,1.0
1317398083603638329,0,1317398083613638329,/world,/map,0.0,0.0,0.0,0.0,0.0,0.0,1.0
1317398083603638329,0,1317398083609576940,world,base_link,-6.173770198831335,32.26723936293274,-0.2218170165999993,0.00430713884819644,0.010961630443613283,0.7725491365316547,0.6348457472939036
1317398083613722818,0,1317398083623722818,/world,/map,0.0,0.0,0.0,0.0,0.0,0.0,1.0
1317398083623810756,0,1317398083633810756,/world,/map,0.0,0.0,0.0,0.0,0.0,0.0,1.0
1317398083633944348,0,1317398083643944348,/world,/map,0.0,0.0,0.0,0.0,0.0,0.0,1.0
1317398083644029968,0,1317398083654029968,/world,/map,0.0,0.0,0.0,0.0,0.0,0.0,1.0
1317398083654137386,0,1317398083664137386,/world,/map,0.0,0.0,0.0,0.0,0.0,0.0,1.0
1317398083664213820,0,1317398083674213820,/world,/map,0.0,0.0,0.0,0.0,0.0,0.0,1.0
1317398083674383323,0,1317398083684383323,/world,/map,0.0,0.0,0.0,0.0,0.0,0.0,1.0
1317398083684460698,0,1317398083694460698,/world,/map,0.0,0.0,0.0,0.0,0.0,0.0,1.0
1317398083694535305,0,1317398083704535305,/world,/map,0.0,0.0,0.0,0.0,0.0,0.0,1.0
1317398083704622434,0,1317398083714622434,/world,/map,0.0,0.0,0.0,0.0,0.0,0.0,1.0
1317398083714712743,0,1317398083724712743,/world,/map,0.0,0.0,0.0,0.0,0.0,0.0,1.0
1317398083714712743,0,1317398083719604015,world,base_link,-6.383723258157261,33.35056509822607,-0.21883392334000007,0.003456071137234639,0.012187621387710337,0.7727761265523054,0.6345522639531116
1317398083724767661,0,1317398083734767661,/world,/map,0.0,0.0,0.0,0.0,0.0,0.0,1.0
1317398083734947838,0,1317398083744947838,/world,/map,0.0,0.0,0.0,0.0,0.0,0.0,1.0
1317398083745010005,0,1317398083755010005,/world,/map,0.0,0.0,0.0,0.0,0.0,0.0,1.0
1317398083755048610,0,1317398083765048610,/world,/map,0.0,0.0,0.0,0.0,0.0,0.0,1.0
1317398083765109570,0,1317398083775109570,/world,/map,0.0,0.0,0.0,0.0,0.0,0.0,1.0
1317398083775188310,0,1317398083785188310,/world,/map,0.0,0.0,0.0,0.0,0.0,0.0,1.0
1317398083785343168,0,1317398083795343168,/world,/map,0.0,0.0,0.0,0.0,0.0,0.0,1.0
1317398083795408096,0,1317398083805408096,/world,/map,0.0,0.0,0.0,0.0,0.0,0.0,1.0
1317398083805474587,0,1317398083815474587,/world,/map,0.0,0.0,0.0,0.0,0.0,0.0,1.0
1317398083815604937,0,1317398083825604937,/world,/map,0.0,0.0,0.0,0.0,0.0,0.0,1.0
1317398083815604937,0,1317398083819546937,world,base_link,-6.577087497222237,34.342374950647354,-0.21685791014999722,0.0021074501480154322,0.013199862916809468,0.7728823145320202,0.6344085829782558
1317398083825738721,0,1317398083835738721,/world,/map,0.0,0.0,0.0,0.0,0.0,0.0,1.0
1317398083835892477,0,1317398083845892477,/world,/map,0.0,0.0,0.0,0.0,0.0,0.0,1.0
1317398083846059903,0,1317398083856059903,/world,/map,0.0,0.0,0.0,0.0,0.0,0.0,1.0
1317398083856159943,0,1317398083866159943,/world,/map,0.0,0.0,0.0,0.0,0.0,0.0,1.0
1317398083866267860,0,1317398083876267860,/world,/map,0.0,0.0,0.0,0.0,0.0,0.0,1.0
1317398083876361281,0,1317398083886361281,/world,/map,0.0,0.0,0.0,0.0,0.0,0.0,1.0
1317398083886464732,0,1317398083896464732,/world,/map,0.0,0.0,0.0,0.0,0.0,0.0,1.0
1317398083896541898,0,1317398083906541898,/world,/map,0.0,0.0,0.0,0.0,0.0,0.0,1.0
1317398083906638058,0,1317398083916638058,/world,/map,0.0,0.0,0.0,0.0,0.0,0.0,1.0
1317398083916719596,0,1317398083926719596,/world,/map,0.0,0.0,0.0,0.0,0.0,0.0,1.0
1317398083926803984,0,1317398083936803984,/world,/map,0.0,0.0,0.0,0.0,0.0,0.0,1.0
1317398083926803984,0,1317398083929575920,world,base_link,-6.792300427216105,35.44194059912115,-0.21816253661999951,0.001039030983348312,0.014006818334327662,0.7730559099217854,0.6341823788073624
1317398083936887110,0,1317398083946887110,/world,/map,0.0,0.0,0.0,0.0,0.0,0.0,1.0
1317398083946972141,0,1317398083956972141,/world,/map,0.0,0.0,0.0,0.0,0.0,0.0,1.0
1317398083957016296,0,1317398083967016296,/world,/map,0.0,0.0,0.0,0.0,0.0,0.0,1.0
1317398083967141770,0,1317398083977141770,/world,/map,0.0,0.0,0.0,0.0,0.0,0.0,1.0
1317398083977257764,0,1317398083987257764,/world,/map,0.0,0.0,0.0,0.0,0.0,0.0,1.0
1317398083987381619,0,1317398083997381619,/world,/map,0.0,0.0,0.0,0.0,0.0,0.0,1.0
1317398083997454708,0,1317398084007454708,/world,/map,0.0,0.0,0.0,0.0,0.0,0.0,1.0
1317398084007542329,0,1317398084017542329,/world,/map,0.0,0.0,0.0,0.0,0.0,0.0,1.0
1317398084017611462,0,1317398084027611462,/world,/map,0.0,0.0,0.0,0.0,0.0,0.0,1.0
1317398084027699311,0,1317398084037699311,/world,/map,0.0,0.0,0.0,0.0,0.0,0.0,1.0
1317398084027699311,0,1317398084029737949,world,base_link,-6.991176239796914,36.44428795063868,-0.22116851805999715,0.000823252289904421,0.01423651130714648,0.7732181535439232,0.633979756010864
1317398084037790883,0,1317398084047790883,/world,/map,0.0,0.0,0.0,0.0,0.0,0.0,1.0
1317398084047864557,0,1317398084057864557,/world,/map,0.0,0.0,0.0,0.0,0.0,0.0,1.0
1317398084057975838,0,1317398084067975838,/world,/map,0.0,0.0,0.0,0.0,0.0,0.0,1.0
1317398084068074758,0,1317398084078074758,/world,/map,0.0,0.0,0.0,0.0,0.0,0.0,1.0
1317398084078142567,0,1317398084088142567,/world,/map,0.0,0.0,0.0,0.0,0.0,0.0,1.0
1317398084088182656,0,1317398084098182656,/world,/map,0.0,0.0,0.0,0.0,0.0,0.0,1.0
1317398084098306908,0,1317398084108306908,/world,/map,0.0,0.0,0.0,0.0,0.0,0.0,1.0
1317398084108428910,0,1317398084118428910,/world,/map,0.0,0.0,0.0,0.0,0.0,0.0,1.0
1317398084118567920,0,1317398084128567920,/world,/map,0.0,0.0,0.0,0.0,0.0,0.0,1.0
1317398084128656199,0,1317398084138656199,/world,/map,0.0,0.0,0.0,0.0,0.0,0.0,1.0
1317398084138726136,0,1317398084139569997,world,base_link,-7.2032773732207716,37.55629272107035,-0.23448181151999847,0.0016184035168345069,0.013934667636752556,0.7733406661633806,0.6338354832808658
1317398084138726136,0,1317398084148726136,/world,/map,0.0,0.0,0.0,0.0,0.0,0.0,1.0
1317398084148803021,0,1317398084158803021,/world,/map,0.0,0.0,0.0,0.0,0.0,0.0,1.0
1317398084158927409,0,1317398084168927409,/world,/map,0.0,0.0,0.0,0.0,0.0,0.0,1.0
1317398084169049309,0,1317398084179049309,/world,/map,0.0,0.0,0.0,0.0,0.0,0.0,1.0
1317398084179124555,0,1317398084189124555,/world,/map,0.0,0.0,0.0,0.0,0.0,0.0,1.0
1317398084189307479,0,1317398084199307479,/world,/map,0.0,0.0,0.0,0.0,0.0,0.0,1.0
1317398084199433919,0,1317398084209433919,/world,/map,0.0,0.0,0.0,0.0,0.0,0.0,1.0
1317398084209551328,0,1317398084219551328,/world,/map,0.0,0.0,0.0,0.0,0.0,0.0,1.0
1317398084219695921,0,1317398084229695921,/world,/map,0.0,0.0,0.0,0.0,0.0,0.0,1.0
1317398084229781794,0,1317398084239781794,/world,/map,0.0,0.0,0.0,0.0,0.0,0.0,1.0
1317398084229781794,0,1317398084239552021,world,base_link,-7.3903467818163335,38.57081989152357,-0.24873352049999653,0.0016737858161150268,0.013755231782642529,0.7734474903837882,0.6337089013566619
1317398084240495980,0,1317398084250495980,/world,/map,0.0,0.0,0.0,0.0,0.0,0.0,1.0
1317398084250616507,0,1317398084260616507,/world,/map,0.0,0.0,0.0,0.0,0.0,0.0,1.0
1317398084260741662,0,1317398084270741662,/world,/map,0.0,0.0,0.0,0.0,0.0,0.0,1.0
1317398084270814622,0,1317398084280814622,/world,/map,0.0,0.0,0.0,0.0,0.0,0.0,1.0
1317398084280896387,0,1317398084290896387,/world,/map,0.0,0.0,0.0,0.0,0.0,0.0,1.0
1317398084290962729,0,1317398084300962729,/world,/map,0.0,0.0,0.0,0.0,0.0,0.0,1.0
1317398084301104309,0,1317398084311104309,/world,/map,0.0,0.0,0.0,0.0,0.0,0.0,1.0
1317398084311238607,0,1317398084321238607,/world,/map,0.0,0.0,0.0,0.0,0.0,0.0,1.0
1317398084321299295,0,1317398084331299295,/world,/map,0.0,0.0,0.0,0.0,0.0,0.0,1.0
1317398084331478799,0,1317398084341478799,/world,/map,0.0,0.0,0.0,0.0,0.0,0.0,1.0
1317398084331478799,0,1317398084339576005,world,base_link,-7.586631896789186,39.58599536214024,-0.2540588378899997,0.0014480820812692245,0.014098363839904418,0.7736062535408746,0.6335080928273731
1317398084341554892,0,1317398084351554892,/world,/map,0.0,0.0,0.0,0.0,0.0,0.0,1.0
1317398084351641913,0,1317398084361641913,/world,/map,0.0,0.0,0.0,0.0,0.0,0.0,1.0
1317398084361773225,0,1317398084371773225,/world,/map,0.0,0.0,0.0,0.0,0.0,0.0,1.0
1317398084371814712,0,1317398084381814712,/world,/map,0.0,0.0,0.0,0.0,0.0,0.0,1.0
1317398084381904287,0,1317398084391904287,/world,/map,0.0,0.0,0.0,0.0,0.0,0.0,1.0
1317398084392016283,0,1317398084402016283,/world,/map,0.0,0.0,0.0,0.0,0.0,0.0,1.0
1317398084402133068,0,1317398084412133068,/world,/map,0.0,0.0,0.0,0.0,0.0,0.0,1.0
1317398084412175969,0,1317398084422175969,/world,/map,0.0,0.0,0.0,0.0,0.0,0.0,1.0
1317398084422301865,0,1317398084432301865,/world,/map,0.0,0.0,0.0,0.0,0.0,0.0,1.0
1317398084432373939,0,1317398084442373939,/world,/map,0.0,0.0,0.0,0.0,0.0,0.0,1.0
1317398084442474384,0,1317398084452474384,/world,/map,0.0,0.0,0.0,0.0,0.0,0.0,1.0
1317398084442474384,0,1317398084449598073,world,base_link,-7.805500317364931,40.70037410641089,-0.2551422119099982,0.0006279258492754205,0.014841672872584201,0.7738617133837221,0.6331803684687967
1317398084452571376,0,1317398084462571376,/world,/map,0.0,0.0,0.0,0.0,0.0,0.0,1.0
1317398084462665922,0,1317398084472665922,/world,/map,0.0,0.0,0.0,0.0,0.0,0.0,1.0
1317398084472763627,0,1317398084482763627,/world,/map,0.0,0.0,0.0,0.0,0.0,0.0,1.0
1317398084482853449,0,1317398084492853449,/world,/map,0.0,0.0,0.0,0.0,0.0,0.0,1.0
1317398084492942096,0,1317398084502942096,/world,/map,0.0,0.0,0.0,0.0,0.0,0.0,1.0
1317398084503040600,0,1317398084513040600,/world,/map,0.0,0.0,0.0,0.0,0.0,0.0,1.0
1317398084513171126,0,1317398084523171126,/world,/map,0.0,0.0,0.0,0.0,0.0,0.0,1.0
1317398084523269061,0,1317398084533269061,/world,/map,0.0,0.0,0.0,0.0,0.0,0.0,1.0
1317398084533347447,0,1317398084543347447,/world,/map,0.0,0.0,0.0,0.0,0.0,0.0,1.0
1317398084543423650,0,1317398084553423650,/world,/map,0.0,0.0,0.0,0.0,0.0,0.0,1.0
1317398084543423650,0,1317398084549599885,world,base_link,-8.007051781751215,41.712641276884824,-0.2562332153299991,-0.00025656648441190735,0.015555311566761893,0.7740364484142684,0.6329498739883955
1317398084553498442,0,1317398084563498442,/world,/map,0.0,0.0,0.0,0.0,0.0,0.0,1.0
1317398084563582342,0,1317398084573582342,/world,/map,0.0,0.0,0.0,0.0,0.0,0.0,1.0
1317398084573655981,0,1317398084583655981,/world,/map,0.0,0.0,0.0,0.0,0.0,0.0,1.0
1317398084583749224,0,1317398084593749224,/world,/map,0.0,0.0,0.0,0.0,0.0,0.0,1.0
1317398084593812201,0,1317398084603812201,/world,/map,0.0,0.0,0.0,0.0,0.0,0.0,1.0
1317398084603874689,0,1317398084613874689,/world,/map,0.0,0.0,0.0,0.0,0.0,0.0,1.0
1317398084613938711,0,1317398084623938711,/world,/map,0.0,0.0,0.0,0.0,0.0,0.0,1.0
1317398084623999774,0,1317398084633999774,/world,/map,0.0,0.0,0.0,0.0,0.0,0.0,1.0
1317398084634085090,0,1317398084644085090,/world,/map,0.0,0.0,0.0,0.0,0.0,0.0,1.0
1317398084644181078,0,1317398084654181078,/world,/map,0.0,0.0,0.0,0.0,0.0,0.0,1.0
1317398084654298317,0,1317398084664298317,/world,/map,0.0,0.0,0.0,0.0,0.0,0.0,1.0
1317398084654298317,0,1317398084659543037,world,base_link,-8.229424980701879,42.823427588213235,-0.25934600829999965,-0.0009151476349805568,0.015107456324597585,0.7742070577456611,0.6327514195993661
1317398084664366652,0,1317398084674366652,/world,/map,0.0,0.0,0.0,0.0,0.0,0.0,1.0
1317398084674468222,0,1317398084684468222,/world,/map,0.0,0.0,0.0,0.0,0.0,0.0,1.0
1317398084684581225,0,1317398084694581225,/world,/map,0.0,0.0,0.0,0.0,0.0,0.0,1.0
1317398084694655136,0,1317398084704655136,/world,/map,0.0,0.0,0.0,0.0,0.0,0.0,1.0
1317398084704773090,0,1317398084714773090,/world,/map,0.0,0.0,0.0,0.0,0.0,0.0,1.0
1317398084714879494,0,1317398084724879494,/world,/map,0.0,0.0,0.0,0.0,0.0,0.0,1.0
1317398084724970330,0,1317398084734970330,/world,/map,0.0,0.0,0.0,0.0,0.0,0.0,1.0
1317398084735118643,0,1317398084745118643,/world,/map,0.0,0.0,0.0,0.0,0.0,0.0,1.0
1317398084745201066,0,1317398084755201066,/world,/map,0.0,0.0,0.0,0.0,0.0,0.0,1.0
1317398084755337584,0,1317398084765337584,/world,/map,0.0,0.0,0.0,0.0,0.0,0.0,1.0
1317398084755337584,0,1317398084759555101,world,base_link,-8.436167405219749,43.82857654104009,-0.2736968994099982,0.00034257029016504005,0.013563844831730513,0.7743361625098403,0.6326289688186207
1317398084765485598,0,1317398084775485598,/world,/map,0.0,0.0,0.0,0.0,0.0,0.0,1.0
1317398084775573319,0,1317398084785573319,/world,/map,0.0,0.0,0.0,0.0,0.0,0.0,1.0
1317398084785708558,0,1317398084795708558,/world,/map,0.0,0.0,0.0,0.0,0.0,0.0,1.0
1317398084795815479,0,1317398084805815479,/world,/map,0.0,0.0,0.0,0.0,0.0,0.0,1.0
1317398084805950322,0,1317398084815950322,/world,/map,0.0,0.0,0.0,0.0,0.0,0.0,1.0
1317398084816124970,0,1317398084826124970,/world,/map,0.0,0.0,0.0,0.0,0.0,0.0,1.0
1317398084826212138,0,1317398084836212138,/world,/map,0.0,0.0,0.0,0.0,0.0,0.0,1.0
1317398084836296765,0,1317398084846296765,/world,/map,0.0,0.0,0.0,0.0,0.0,0.0,1.0
1317398084846381871,0,1317398084856381871,/world,/map,0.0,0.0,0.0,0.0,0.0,0.0,1.0
1317398084856464462,0,1317398084866464462,/world,/map,0.0,0.0,0.0,0.0,0.0,0.0,1.0
1317398084866579783,0,1317398084876579783,/world,/map,0.0,0.0,0.0,0.0,0.0,0.0,1.0
1317398084866579783,0,1317398084869721889,world,base_link,-8.666971237049438,44.93135823076591,-0.29354095459000007,0.001607873539683892,0.011502105959614227,0.7743759700554562,0.6326191376348375
1317398084876666798,0,1317398084886666798,/world,/map,0.0,0.0,0.0,0.0,0.0,0.0,1.0
1317398084886756338,0,1317398084896756338,/world,/map,0.0,0.0,0.0,0.0,0.0,0.0,1.0
1317398084896844557,0,1317398084906844557,/world,/map,0.0,0.0,0.0,0.0,0.0,0.0,1.0
1317398084906924114,0,1317398084916924114,/world,/map,0.0,0.0,0.0,0.0,0.0,0.0,1.0
1317398084916987527,0,1317398084926987527,/world,/map,0.0,0.0,0.0,0.0,0.0,0.0,1.0
1317398084927075956,0,1317398084937075956,/world,/map,0.0,0.0,0.0,0.0,0.0,0.0,1.0
1317398084937210239,0,1317398084947210239,/world,/map,0.0,0.0,0.0,0.0,0.0,0.0,1.0
1317398084947337773,0,1317398084957337773,/world,/map,0.0,0.0,0.0,0.0,0.0,0.0,1.0
1317398084957424176,0,1317398084967424176,/world,/map,0.0,0.0,0.0,0.0,0.0,0.0,1.0
1317398084967568239,0,1317398084977568239,/world,/map,0.0,0.0,0.0,0.0,0.0,0.0,1.0
1317398084967568239,0,1317398084969672918,world,base_link,-8.875848077819683,45.939433513209224,-0.3022689819299984,0.0015669431172850596,0.011054053377683259,0.7744303257251969,0.6325606873576292
1317398084977710416,0,1317398084987710416,/world,/map,0.0,0.0,0.0,0.0,0.0,0.0,1.0
1317398084987785937,0,1317398084997785937,/world,/map,0.0,0.0,0.0,0.0,0.0,0.0,1.0
1317398084997875188,0,1317398085007875188,/world,/map,0.0,0.0,0.0,0.0,0.0,0.0,1.0
1317398085007967436,0,1317398085017967436,/world,/map,0.0,0.0,0.0,0.0,0.0,0.0,1.0
1317398085018054026,0,1317398085028054026,/world,/map,0.0,0.0,0.0,0.0,0.0,0.0,1.0
1317398085028185604,0,1317398085038185604,/world,/map,0.0,0.0,0.0,0.0,0.0,0.0,1.0
1317398085038324157,0,1317398085048324157,/world,/map,0.0,0.0,0.0,0.0,0.0,0.0,1.0
1317398085048437296,0,1317398085058437296,/world,/map,0.0,0.0,0.0,0.0,0.0,0.0,1.0
1317398085058538452,0,1317398085068538452,/world,/map,0.0,0.0,0.0,0.0,0.0,0.0,1.0
1317398085068668279,0,1317398085078668279,/world,/map,0.0,0.0,0.0,0.0,0.0,0.0,1.0
1317398085068668279,0,1317398085069590091,world,base_link,-9.08356365095824,46.95075497077778,-0.3074874877899987,0.0005295251823829711,0.011892233339018609,0.7743679277941453,0.6326235901332585
1317398085078819872,0,1317398085088819872,/world,/map,0.0,0.0,0.0,0.0,0.0,0.0,1.0
1317398085088903966,0,1317398085098903966,/world,/map,0.0,0.0,0.0,0.0,0.0,0.0,1.0
1317398085098979852,0,1317398085108979852,/world,/map,0.0,0.0,0.0,0.0,0.0,0.0,1.0
1317398085109037869,0,1317398085119037869,/world,/map,0.0,0.0,0.0,0.0,0.0,0.0,1.0
1317398085119100453,0,1317398085129100453,/world,/map,0.0,0.0,0.0,0.0,0.0,0.0,1.0
1317398085129251688,0,1317398085139251688,/world,/map,0.0,0.0,0.0,0.0,0.0,0.0,1.0
1317398085139361468,0,1317398085149361468,/world,/map,0.0,0.0,0.0,0.0,0.0,0.0,1.0
1317398085149475830,0,1317398085159475830,/world,/map,0.0,0.0,0.0,0.0,0.0,0.0,1.0
1317398085159613703,0,1317398085169613703,/world,/map,0.0,0.0,0.0,0.0,0.0,0.0,1.0
1317398085169754638,0,1317398085179754638,/world,/map,0.0,0.0,0.0,0.0,0.0,0.0,1.0
