 %time field.transforms0.header.seq field.transforms0.header.stamp field.transforms0.header.frame_id field.transforms0.child_frame_id field.transforms0.transform.translation.x field.transforms0.transform.translation.y field.transforms0.transform.translation.z field.transforms0.transform.rotation.x field.transforms0.transform.rotation.y field.transforms0.transform.rotation.z field.transforms0.transform.rotation.w
0 1649643996672884464 0 1317379362039568901 /camera_init /aft_mapped 0.4548381121960247 0.0076040971429074 0.0090036134822919 -0.0007311439964851 -0.000655127250849 -0.0008955279455183 0.9999991171328304
1 1649643996782694578 0 1317379362143488884 /camera_init /aft_mapped 0.9451688394013986 0.0068162511102906 0.0103523805715505 -0.0018171851450072 -0.0011616536927257 -0.0017852960131005 0.9999960805508152
2 1649643996883867979 0 1317379362247406960 /camera_init /aft_mapped 1.4393571022520355 0.0054483681535016 0.015249005756529 -0.001936300671955 -0.0012352504945893 -0.0024615423370166 0.9999943328365648
3 1649643996983283758 0 1317379362351346970 /camera_init /aft_mapped 1.950608254958566 0.0018918060835302 0.0205430481016258 -0.0018763842472926 -0.0008737967980182 -0.0033468469487925 0.9999922571084306
4 1649643997116641998 0 1317379362455291033 /camera_init /aft_mapped 2.4613210814939306 -0.0033851836790618 0.0290670668259283 -0.0024818087787775 -0.0003236699969195 -0.0042184477901152 0.9999879702082224
5 1649643997231842041 0 1317379362559210062 /camera_init /aft_mapped 2.9918110580341755 -0.0083058955440147 0.0388391168312782 -0.0026832726341197 0.000140482804234 -0.0050213745457216 0.9999837829236152
6 1649643997323672533 0 1317379362663129091 /camera_init /aft_mapped 3.513615365736355 -0.0046136429908088 0.0450560051753815 -0.0027349593048433 0.0006554984281468 -0.0054664959008646 0.9999811036924534
7 1649643997423840999 0 1317379362767049074 /camera_init /aft_mapped 4.026494172673392 -0.0108133944167089 0.0527790208331593 -0.0029812497219844 0.0006279207221091 -0.0058424890944137 0.9999782913577892
8 1649643997523686885 0 1317379362870966911 /camera_init /aft_mapped 4.556264062721829 -0.0067126555848853 0.0585224446500957 -0.0034966184490933 0.0003463023893619 -0.0062176330526799 0.9999744970614496
9 1649643997624065637 0 1317379362974884987 /camera_init /aft_mapped 5.084096339941438 -0.0071417805026324 0.0677148246675324 -0.0028255052792446 0.0002196857531599 -0.0066014284092038 0.9999741943675572
10 1649643997735787868 0 1317379363078830004 /camera_init /aft_mapped 5.6149745389649794 -0.0071663961991617 0.0769050513578019 -0.0030910416634467 0.0001162631768462 -0.0068656962769105 0.9999716466775156
11 1649643997838581085 0 1317379363182771921 /camera_init /aft_mapped 6.142763260929367 -0.011575537726529 0.0798281738942306 -0.0037924396905249 -0.0001524256241707 -0.0073386378400319 0.999965868698665
12 1649643997956619262 0 1317379363286695957 /camera_init /aft_mapped 6.692819035922103 -0.0143864251399886 0.0899113053842923 -0.0038840189006116 -0.000202184467391 -0.0077787207125602 0.99996218179624
13 1649643998078711986 0 1317379363390639067 /camera_init /aft_mapped 7.233619821532305 -0.018620843499106 0.0970805840739023 -0.0049017750566921 -0.0003608580084067 -0.00821302190855 0.9999541932778326
14 1649643998158465862 0 1317379363494574070 /camera_init /aft_mapped 7.783110722700974 -0.0224339894212865 0.1055625376114384 -0.005128582007224 -0.0007016414517927 -0.0088457268318295 0.9999474778520544
15 1649643998264697551 0 1317379363598541975 /camera_init /aft_mapped 8.33918282936311 -0.0280247696420271 0.1126632880238691 -0.0054521521928469 -0.0005721559866414 -0.0102001839058808 0.9999329492132356
16 1649643998362622976 0 1317379363702558041 /camera_init /aft_mapped 8.898916371707069 -0.036121100114953 0.1149016461221047 -0.0056041289218702 -0.0007232636998689 -0.0121154866312753 0.9999106388134564
17 1649643998465819597 0 1317379363806549072 /camera_init /aft_mapped 9.46079742393347 -0.055292482674019 0.125025591862024 -0.0055202015101972 -0.0008980415822467 -0.0141801929133433 0.9998838147632672
18 1649643998561463117 0 1317379363910563946 /camera_init /aft_mapped 10.045750049521487 -0.0756323272633272 0.134679424305235 -0.0055595013592992 -0.0010565668199542 -0.0166419612600574 0.9998454984329378
19 1649643998651396036 0 1317379364014601946 /camera_init /aft_mapped 10.623379574654244 -0.0944758848251362 0.1385943500344008 -0.0057202455879111 -0.0008427837353266 -0.019675728987005 0.9997896949833096
20 1649643998764384269 0 1317379364118614912 /camera_init /aft_mapped 11.22145827997829 -0.1186931864441938 0.151892803324611 -0.0061155294755469 -0.0007835599478894 -0.022631870536145 0.9997248545320242
21 1649643998857030868 0 1317379364222655058 /camera_init /aft_mapped 11.80979646452421 -0.1412276029419802 0.1587150644319662 -0.0056557897484781 -0.0009018620942938 -0.0257589438593605 0.99965177711958
22 1649643998962718248 0 1317379364326694965 /camera_init /aft_mapped 12.43027899768924 -0.1746245962056582 0.1750166891421081 -0.004433922960088 -0.0013972982707294 -0.0287751076556136 0.9995751002621736
23 1649643999074103593 0 1317379364430711031 /camera_init /aft_mapped 13.055704369885207 -0.2138996415888646 0.1766217042236675 -0.0040841319734079 -0.0016154479912953 -0.0318871422839456 0.9994818259232005
24 1649643999237607955 0 1317379364534748077 /camera_init /aft_mapped 13.682637071248504 -0.2542334667024556 0.1922946405816808 -0.0049473123858536 -0.0024737661978644 -0.0350309441235491 0.9993709208971252
25 1649643999351965188 0 1317379364638786077 /camera_init /aft_mapped 14.333853293639809 -0.2952408396940203 0.2059826756320023 -0.0062295730672682 -0.003523914131469 -0.0381927324418668 0.9992447596245964
26 1649643999458427190 0 1317379364742799997 /camera_init /aft_mapped 14.993255648885189 -0.3517637942067284 0.2161970419315022 -0.0057304503248067 -0.0036778104282887 -0.0410847337733606 0.9991324638406563
27 1649643999523817300 0 1317379364846813917 /camera_init /aft_mapped 15.664408809066432 -0.4179687449720181 0.2195840010499776 -0.0034476332894593 -0.0027415312325684 -0.0436057192441858 0.9990391078833698
28 1649643999610951185 0 1317379364950808048 /camera_init /aft_mapped 16.3602199260586 -0.4878407507192894 0.2264356955610942 -0.0022915166388127 -0.0012046988247622 -0.0460873023558887 0.998934060993914
29 1649643999704139232 0 1317379365054775000 /camera_init /aft_mapped 17.067807543262674 -0.547892211083947 0.2332684761269312 -0.0007652328175165 0.0004663630238777 -0.0481282543491906 0.9988407621125424
30 1649643999810618638 0 1317379365158716917 /camera_init /aft_mapped 17.799688427510688 -0.6197943584362916 0.2356482585418582 -0.0005327852292022 0.0007440995971289 -0.0490718719532456 0.9987948307028292
31 1649643999913471221 0 1317379365262635946 /camera_init /aft_mapped 18.52897058102556 -0.6982374508472352 0.2315902999248356 0.000938156230887 -0.000454976441134 -0.0491366489277534 0.9987915210850936
32 1649644000027524948 0 1317379365366508007 /camera_init /aft_mapped 19.275989657341537 -0.7855607008034652 0.2397062516644006 0.0038302822621893 -0.0013443015014426 -0.0480858365120844 0.998834958398132
33 1649644000131911277 0 1317379365470330954 /camera_init /aft_mapped 20.06459335082324 -0.8625110435967671 0.2483427614749578 0.0050391071158259 -0.001813494200466 -0.0454685775699949 0.9989514137794798
34 1649644000259728670 0 1317379365574127913 /camera_init /aft_mapped 20.856164745933604 -0.9261552539408328 0.260927333286343 0.005184371889531 -0.0016542805724772 -0.0417610593946135 0.9991128062246716
35 1649644000356645345 0 1317379365677880049 /camera_init /aft_mapped 21.66282019885696 -0.9827537145853972 0.2611282022792381 0.0051689230954457 -0.0009382708911954 -0.036946587754394 0.9993034331648596
36 1649644000456104040 0 1317379365781652927 /camera_init /aft_mapped 22.50342575283679 -1.031329512537443 0.2656345457322639 0.0049332173823959 0.0001995340954783 -0.0322065403269341 0.99946904019713
37 1649644000565234422 0 1317379365885476112 /camera_init /aft_mapped 23.327957704404785 -1.0709446804145648 0.2718103100203787 0.004494851122107 0.0016603443244704 -0.027637111178313 0.9996065374215156
38 1649644000675009965 0 1317379365989300966 /camera_init /aft_mapped 24.161513270367177 -1.09768292422255 0.2802249408864176 0.0040604533028278 0.0028418406005762 -0.0235964336156315 0.999709280231808
39 1649644000768844842 0 1317379366093147039 /camera_init /aft_mapped 25.011329199046514 -1.1329780058963483 0.2870958094122015 0.0036706855727557 0.0034072872320249 -0.0202351742246253 0.9997827034837338
40 1649644000908219337 0 1317379366197015047 /camera_init /aft_mapped 25.85535919978005 -1.156205805420861 0.2899098609607162 0.0030033344249896 0.003889343540396 -0.0174170622172876 0.9998362360571232
41 1649644001038268089 0 1317379366300884008 /camera_init /aft_mapped 26.6944996712437 -1.1797848125999049 0.294975330195275 0.0022866397948863 0.0039672846108213 -0.0147152634641196 0.9998812394241862
42 1649644001124970436 0 1317379366404755116 /camera_init /aft_mapped 27.53169384575753 -1.1930811642410868 0.2981782997285901 0.0021498272622093 0.0037824820460267 -0.0123964522195536 0.9999136957981336
43 1649644001210458993 0 1317379366508626938 /camera_init /aft_mapped 28.357901426527064 -1.2066942121349082 0.3089215587122119 0.0020410986579525 0.0036564278637495 -0.0099161808955081 0.9999420652257776
44 1649644001294421911 0 1317379366612523079 /camera_init /aft_mapped 29.1991621512098 -1.2110711355221553 0.3102536368003078 0.0015518467032257 0.0039036087585988 -0.0076778354465838 0.9999617014932746
45 1649644001373366355 0 1317379366716417074 /camera_init /aft_mapped 30.037597659001296 -1.2145117300721815 0.3241408831114646 0.0010366931138198 0.0042033067414032 -0.0060492852461248 0.9999723314311434
46 1649644001462041139 0 1317379366820334911 /camera_init /aft_mapped 30.86590521717845 -1.214838911513072 0.3235415183931992 0.0006127451620429 0.0045966737688134 -0.0047385978206464 0.9999780201706052
47 1649644001558361768 0 1317379366924278021 /camera_init /aft_mapped 31.68233234809924 -1.2161066507917666 0.3371175610846795 -0.0007309122996963 0.0048300078713205 -0.0038688687065148 0.9999805841345646
48 1649644001657371997 0 1317379367028222084 /camera_init /aft_mapped 32.49689978654364 -1.2057874683573535 0.3437551388581429 -0.0007488851332865 0.0046072659830557 -0.0035217398325191 0.99998290466376
49 1649644001752101898 0 1317379367132189989 /camera_init /aft_mapped 33.31042196739139 -1.1980657873567782 0.3507545967017904 -0.0010169886671046 0.0042119013060934 -0.0031681500637472 0.9999855941195416
50 1649644001870701074 0 1317379367236156940 /camera_init /aft_mapped 34.096972029949306 -1.1878803478767608 0.3562819045921673 -0.0022910028305233 0.0038708725465476 -0.0028635315215997 0.999985783818442
51 1649644001972184419 0 1317379367340122938 /camera_init /aft_mapped 34.90163603364767 -1.1892173668643469 0.3668712648344465 -0.0031873458144598 0.0041585728827988 -0.002559451459697 0.9999829980086976
52 1649644002086053848 0 1317379367444091082 /camera_init /aft_mapped 35.676324110912304 -1.183326332093667 0.3701157558672496 -0.0037674124238782 0.0044545209911617 -0.0022365194297044 0.9999804807231032
53 1649644002189396381 0 1317379367548057079 /camera_init /aft_mapped 36.45209493919702 -1.1801990549787025 0.3830515990274892 -0.0039893015365911 0.0046708582289922 -0.0021145497727362 0.9999788983953178
54 1649644002295659065 0 1317379367652046919 /camera_init /aft_mapped 37.20967887737323 -1.1725690177821777 0.3854890356291272 -0.0054705621104091 0.0044862322181266 -0.0019013980691284 0.999973165317982
55 1649644002394042015 0 1317379367756036043 /camera_init /aft_mapped 37.95693053568175 -1.1720572752903102 0.39209611761988 -0.0067619243389564 0.0047334375817477 -0.0017819675995734 0.9999643471341206
56 1649644002497382164 0 1317379367860024929 /camera_init /aft_mapped 38.68805526455771 -1.160610311261243 0.3984280305547437 -0.0073943385215351 0.00488282511544 -0.0021040401682695 0.9999585265358216
57 1649644002608266830 0 1317379367964040995 /camera_init /aft_mapped 39.41101029732371 -1.1554099259045134 0.4053607956226237 -0.0093156110039027 0.0049425396973144 -0.0030529032932542 0.999939733421193
58 1649644002712250709 0 1317379368068082094 /camera_init /aft_mapped 40.11091032917837 -1.1486772039553848 0.412648966626192 -0.0100776846872717 0.004493536538275 -0.0044743563526912 0.9999291117554044
59 1649644002817472934 0 1317379368172146082 /camera_init /aft_mapped 40.79042727584402 -1.144887144222679 0.4204917344010023 -0.0114995497194787 0.0041039871513161 -0.0064824496417068 0.999904443180624
60 1649644002924410343 0 1317379368276232004 /camera_init /aft_mapped 41.45659141922923 -1.1434619753516713 0.4262280908280395 -0.0117215157282087 0.0040869605386022 -0.0090258563998287 0.999882211432346
61 1649644003021771669 0 1317379368380319118 /camera_init /aft_mapped 42.11633963157439 -1.14937186546553 0.4351302463949457 -0.0118634958303513 0.0043403571599269 -0.0117863955934033 0.9998507386831912
62 1649644003123857259 0 1317379368484381914 /camera_init /aft_mapped 42.77723450422385 -1.1629957733608598 0.4424095642796088 -0.0116822197287227 0.0046275511082083 -0.0149390966154748 0.9998094492978472
63 1649644003228119134 0 1317379368588468075 /camera_init /aft_mapped 43.39301524486668 -1.1797959728639396 0.4488416535827487 -0.0114820871072357 0.0049665678724015 -0.018746085646372 0.999746007319944
64 1649644003328386783 0 1317379368692553997 /camera_init /aft_mapped 44.01585407647212 -1.204526209801016 0.4559192058477073 -0.0123635070839861 0.0052173572275866 -0.0229801286631594 0.9996458555722464
65 1649644003459078073 0 1317379368796639919 /camera_init /aft_mapped 44.614717096343405 -1.2285193685044165 0.4675744544058557 -0.012791180531373 0.0052287282053973 -0.0282384919525028 0.9995056946682276
66 1649644003555564641 0 1317379368900774956 /camera_init /aft_mapped 45.21510250525333 -1.2643948301478598 0.4703726261578276 -0.0128726359530332 0.0051594786314579 -0.0343240081730098 0.999314533811458
67 1649644003649274349 0 1317379369004909992 /camera_init /aft_mapped 45.80507669073207 -1.3102560075458305 0.4756214650640262 -0.0124382073082451 0.0051569925747175 -0.0407297403270748 0.9990794686507328
68 1649644003754470109 0 1317379369109019995 /camera_init /aft_mapped 46.38377354134991 -1.359635478677049 0.4812345129121438 -0.0114943829925543 0.0051667194026643 -0.0473892902484081 0.9987969960607544
69 1649644003862093687 0 1317379369213151932 /camera_init /aft_mapped 46.94042765165331 -1.413215953232753 0.4853815763037435 -0.0117464553917052 0.0053697188129629 -0.0550236036491946 0.9984015174002174
70 1649644003963134765 0 1317379369317287922 /camera_init /aft_mapped 47.48534955694225 -1.4866937795971709 0.4921118241176901 -0.0114739491917487 0.005579952139011 -0.0634299624243674 0.9979047311697218
71 1649644004068541765 0 1317379369421423912 /camera_init /aft_mapped 48.03700300471061 -1.5538431133530244 0.4986933136436217 -0.0126615789455523 0.0056332733865153 -0.0722317385837069 0.9972915955680832
72 1649644004192312717 0 1317379369525608063 /camera_init /aft_mapped 48.560292384625406 -1.646375187092889 0.5059757434605037 -0.0129006063597913 0.0053097526140578 -0.0828167730703918 0.996467140943912
73 1649644004301345348 0 1317379369629813910 /camera_init /aft_mapped 49.06959829276721 -1.7433805742088733 0.5048647318125064 -0.0142600152697183 0.005270115412966 -0.094496048743908 0.9954091493550932
74 1649644004415329694 0 1317379369734045982 /camera_init /aft_mapped 49.5630988453412 -1.8577033181147824 0.511459800348647 -0.0137817456554074 0.0043391076958744 -0.1072764551110248 0.9941242366072288
75 1649644004515035629 0 1317379369838277102 /camera_init /aft_mapped 50.04137835541396 -1.982981147315486 0.5084544142773604 -0.0135436154874222 0.0031354247343514 -0.1209084354599704 0.9925663150771772
76 1649644004604990720 0 1317379369942506075 /camera_init /aft_mapped 50.50487052111585 -2.1153434845522505 0.5123353477671548 -0.0125622040722001 0.0021673092719524 -0.1352765625435735 0.9907258679502432
77 1649644004710659503 0 1317379370046736002 /camera_init /aft_mapped 50.95638298087315 -2.2681975120660653 0.5188966769299869 -0.0118567801877893 0.0016603345153669 -0.1505303117218886 0.9885328954090432
78 1649644004819330453 0 1317379370150990963 /camera_init /aft_mapped 51.38721307059691 -2.4267703142095947 0.5279027763325542 -0.0124219699539967 0.0011704336792593 -0.1664548649674982 0.9859701327505396
79 1649644004927775144 0 1317379370255248070 /camera_init /aft_mapped 51.81808439998907 -2.59227722100571 0.5375018523306079 -0.0128077778738244 0.0016687554983012 -0.1828897502638325 0.9830485823851508
80 1649644005028140068 0 1317379370359503031 /camera_init /aft_mapped 52.22868154227184 -2.7676526939413466 0.5432828655552564 -0.0128395904873131 0.0024293271956629 -0.1999200058247124 0.9797250811102785
81 1649644005123944044 0 1317379370463783026 /camera_init /aft_mapped 52.61189096129102 -2.9593342209279307 0.5492137795389885 -0.0126335306364556 0.0029700522027189 -0.217726271729739 0.9759235847607324
82 1649644005240327119 0 1317379370568058968 /camera_init /aft_mapped 52.98073816211991 -3.150646068394587 0.5571928172702437 -0.0124387161244227 0.002993305189608 -0.2363780794163278 0.9715769254344536
83 1649644005334726095 0 1317379370672360897 /camera_init /aft_mapped 53.32901542857921 -3.3639084855407195 0.5662889505923335 -0.0123871138556185 0.0026560455877424 -0.2556344633032746 0.9666905016621457
84 1649644005438027858 0 1317379370776640892 /camera_init /aft_mapped 53.66509852858689 -3.582596897158717 0.5734542253734493 -0.0118758840254217 0.0019140118641427 -0.2753145394578288 0.9612789419831904
85 1649644005544049501 0 1317379370880894899 /camera_init /aft_mapped 53.97632302885067 -3.8149139540531865 0.5792390624775813 -0.011103565193689 0.0010670355160657 -0.295265171379047 0.9553502241825764
86 1649644005656322717 0 1317379370985147953 /camera_init /aft_mapped 54.28073520988897 -4.057750983174248 0.5844417888790486 -0.0098017483914712 0.0006404196580754 -0.3156935654253023 0.9488103542543116
87 1649644005759954214 0 1317379371089401960 /camera_init /aft_mapped 54.55602606524245 -4.31422029615809 0.6022663057928667 -0.008071036434522 0.0014521323648421 -0.3364323150983011 0.9416719423663767
88 1649644005859618186 0 1317379371193634033 /camera_init /aft_mapped 54.82315784745478 -4.578347081392291 0.6040038155371056 -0.0061700634305528 0.002875178946605 -0.3572918774622124 0.9339679748057828
89 1649644005971052646 0 1317379371297842026 /camera_init /aft_mapped 55.07866931685614 -4.850692813475975 0.6217938429886276 -0.0045668362128269 0.0047074450926504 -0.3784427853375695 0.9256014488934464
90 1649644006072298288 0 1317379371402050018 /camera_init /aft_mapped 55.3255544339639 -5.1293668195663535 0.6245025758283806 -0.0041124775297832 0.0067360563556978 -0.400320250927963 0.9163413172886578
91 1649644006172780990 0 1317379371506253958 /camera_init /aft_mapped 55.541031193527374 -5.42206424605979 0.6188319056792893 -0.003053417226622 0.0079752334067427 -0.4223949687548696 0.9063716470995332
92 1649644006280326843 0 1317379371610436916 /camera_init /aft_mapped 55.73735040167433 -5.720708985808106 0.623031634666059 -0.0013408359488936 0.0084433052776962 -0.4442081669381175 0.8958828144240871
93 1649644006376752614 0 1317379371714620113 /camera_init /aft_mapped 55.92308192130001 -6.030830982800774 0.6247087678808337 0.0001243169397641 0.0076633775759398 -0.4666927477658412 0.8843863049438272
94 1649644006492303609 0 1317379371818825960 /camera_init /aft_mapped 56.089164535342746 -6.358214460572685 0.6334789690702125 0.0004850753498962 0.0066629831855617 -0.4893376956777039 0.8720687982870438
95 1649644006587578773 0 1317379371923011065 /camera_init /aft_mapped 56.25789648852474 -6.700149988364265 0.6381187779561444 -0.0003222143544877 0.0063374665651341 -0.5119563707018613 0.8589880134164993
96 1649644006695473194 0 1317379372027169943 /camera_init /aft_mapped 56.410848488530384 -7.058360888030308 0.6423283637895004 -0.0019910562183861 0.0065323927676419 -0.5346793862287592 0.8450274063495822
97 1649644006800964117 0 1317379372131328106 /camera_init /aft_mapped 56.55610873926144 -7.43961418865942 0.6418970020646453 -0.0040120672108384 0.0073897277429063 -0.5569130784220336 0.8305282164520813
98 1649644006901018142 0 1317379372235440016 /camera_init /aft_mapped 56.67949022564074 -7.840065255261581 0.6292360540990791 -0.0049243621341178 0.0079764031324454 -0.5782522708521931 0.8158041670063488
99 1649644007010122299 0 1317379372339500904 /camera_init /aft_mapped 56.77838685945222 -8.27804830944195 0.6250237644575488 -0.00445424844455 0.0074851857711827 -0.598180669846991 0.8013139321677679
100 1649644007100244045 0 1317379372443519115 /camera_init /aft_mapped 56.86972424540306 -8.734873876828956 0.6231165560970351 -0.004085173362445 0.007576336866415 -0.6163840676058839 0.7873986231127855
101 1649644007213783502 0 1317379372547439098 /camera_init /aft_mapped 56.94533520008361 -9.21323736630569 0.6264774594832409 -0.003598858797149 0.0085083618011194 -0.6327590771526939 0.7742936176126539
102 1649644007302928209 0 1317379372651329994 /camera_init /aft_mapped 57.014652863778 -9.705376023642495 0.6254042166733419 -0.0029330367511714 0.0097204721783791 -0.6477204350884092 0.7618104407823035
103 1649644007412095308 0 1317379372755202055 /camera_init /aft_mapped 57.07568104500585 -10.20932611071607 0.6238719395274165 -0.0027200615102701 0.0106451742493088 -0.6614565067018169 0.7499030412476079
104 1649644007520574569 0 1317379372859025002 /camera_init /aft_mapped 57.11690966294799 -10.74256566082325 0.620105726257606 -0.0020773037443125 0.0108602823219285 -0.6736460344208737 0.73897141987094
105 1649644007607753515 0 1317379372962822914 /camera_init /aft_mapped 57.1364420106929 -11.297565200345476 0.6198222158928444 -0.0015755588454952 0.0108127923430017 -0.6843624309564286 0.729060123879697
106 1649644007716662645 0 1317379373066574097 /camera_init /aft_mapped 57.16757905837493 -11.864764769174752 0.6170651054343445 -0.0026789153218814 0.0106719908871184 -0.6941075973552003 0.7197871736263398
107 1649644007820545196 0 1317379373170277119 /camera_init /aft_mapped 57.1840463976633 -12.447641844399312 0.6108683785544589 -0.0046486119284321 0.0108799055919002 -0.7021738789318754 0.7119072002776866
108 1649644007922569036 0 1317379373273956060 /camera_init /aft_mapped 57.188092164401205 -13.057736058981098 0.5959912560267406 -0.0051340477763742 0.0104821531192234 -0.7093430547730359 0.704766767565464
109 1649644008032371520 0 1317379373377633095 /camera_init /aft_mapped 57.17036278308762 -13.673446969738768 0.591022082265855 -0.0045698734136367 0.0097039943526442 -0.7153773451673727 0.6986559974492949
110 1649644008128465175 0 1317379373481311083 /camera_init /aft_mapped 57.14133464050757 -14.31334515862349 0.590432585799773 -0.0038836924850905 0.0093289228016272 -0.7209380784767555 0.6929258078137126
111 1649644008228301525 0 1317379373585012913 /camera_init /aft_mapped 57.10845832546958 -14.963570922007936 0.5853227346092956 -0.0036235753335156 0.0096228320301365 -0.7262964126364096 0.6873047299393511
112 1649644008328419446 0 1317379373688739061 /camera_init /aft_mapped 57.06332449491833 -15.65416179307858 0.5897932329854386 -0.0037179965046737 0.0091169497840588 -0.7313874302445864 0.6818911090554316
113 1649644008428497552 0 1317379373792490959 /camera_init /aft_mapped 57.01229190931088 -16.352755291019907 0.5881109377409488 -0.0036795542946827 0.0079845172701229 -0.7356776682343416 0.6772747424977826
114 1649644008532548189 0 1317379373896241903 /camera_init /aft_mapped 56.9411173665435 -17.05887602417668 0.5807009055779955 -0.0027737917164145 0.0056989781666687 -0.7390648273164466 0.6736044898537129
115 1649644008630732536 0 1317379373999944925 /camera_init /aft_mapped 56.859891926555946 -17.806739186491086 0.5871318549889795 -0.0012821648950327 0.0026174057468855 -0.7412189828681779 0.6712569736518214
116 1649644008733658790 0 1317379374103625059 /camera_init /aft_mapped 56.77531179223921 -18.55483769573036 0.5910854674130519 -0.0001620126213227 0.0016684868644931 -0.7420150490334695 0.6703811280990475
117 1649644008848002910 0 1317379374207304001 /camera_init /aft_mapped 56.70277228421215 -19.321424745202883 0.5894294321818762 0.0007373926759308 0.0020143869165877 -0.7420109307598468 0.6703843503023452
118 1649644008956952333 0 1317379374311007977 /camera_init /aft_mapped 56.61891152213608 -20.11814385391668 0.593498328190067 0.0018503483026493 0.001648480287212 -0.7411632309057963 0.6713202841246367
119 1649644009064202547 0 1317379374414736032 /camera_init /aft_mapped 56.54113939535849 -20.918983745647346 0.59667489347667 0.0035691203835043 0.0004721484844141 -0.7396853496822896 0.67294325312086
120 1649644009160567998 0 1317379374518460989 /camera_init /aft_mapped 56.47552819352686 -21.71001662415492 0.6063542650139512 0.0033546941208389 8.954888446422334e-05 -0.7382054774551868 0.6745675733857303
121 1649644009263509750 0 1317379374622211933 /camera_init /aft_mapped 56.40815260447132 -22.507177280166264 0.6050876362868237 0.0028107257612015 0.0001206845567405 -0.7367928994464207 0.6761126448908272
122 1649644009365194320 0 1317379374725963116 /camera_init /aft_mapped 56.339588778212935 -23.30470770781541 0.5982301157425923 0.0040936736363583 -0.0009583496703908 -0.7352543781962367 0.6777782253402166
123 1649644009463105678 0 1317379374829714060 /camera_init /aft_mapped 56.257746920016025 -24.11639175388149 0.6066249244868179 0.00673234299321 -0.0018755270261028 -0.7338492717463647 0.6792763828615906
124 1649644009583980083 0 1317379374933489084 /camera_init /aft_mapped 56.19277496687751 -24.92730587980105 0.6090437213097399 0.0089743082468372 -0.0015366466396567 -0.732501009428119 0.6807050548478264
125 1649644009680970191 0 1317379375037261963 /camera_init /aft_mapped 56.13134999502967 -25.745442768547147 0.6146602845557895 0.0108368552592004 -0.0009485142115404 -0.7309520227292912 0.682342145376379
126 1649644009779809236 0 1317379375141060114 /camera_init /aft_mapped 56.079574701110616 -26.553639958862064 0.6139048766523425 0.0119698574093755 0.0002401845991394 -0.7289933823987431 0.6844160381257861
127 1649644009886892080 0 1317379375244883060 /camera_init /aft_mapped 56.03142113036184 -27.362802756362232 0.6235210308704738 0.0118874261532979 0.0017098764786057 -0.72748145864996 0.6860222246708955
128 1649644010004763364 0 1317379375348706961 /camera_init /aft_mapped 55.99780730018338 -28.18341542807504 0.623303438676739 0.0107567489004504 0.003655472539376 -0.7261349787151278 0.6874583060520743
129 1649644010111125469 0 1317379375452555895 /camera_init /aft_mapped 55.97211749532669 -29.00196441621588 0.6043739580654828 0.0099312273507982 0.0066442770228201 -0.724644980260682 0.6890187783283895
130 1649644010206867218 0 1317379375556399107 /camera_init /aft_mapped 55.94054787016905 -29.815397023623014 0.5994112295839489 0.0095247507875832 0.0080452499433857 -0.7231503511872548 0.690578107568965
131 1649644010322788715 0 1317379375660221100 /camera_init /aft_mapped 55.90647249524783 -30.626327189587936 0.6002110970973764 0.0088441051102222 0.0066727468686252 -0.7216803742227753 0.6921377707622244
132 1649644010432696342 0 1317379375764066935 /camera_init /aft_mapped 55.88006983527055 -31.43640367002968 0.603401339771953 0.0067607782788082 0.0035102160234295 -0.7206385005983343 0.6932691553184219
133 1649644010541209936 0 1317379375867938042 /camera_init /aft_mapped 55.86084545333348 -32.24636509593065 0.5952403323344694 0.0038009423788655 0.0024289457902427 -0.7197748580772931 0.694192917523071
134 1649644010642285346 0 1317379375971812010 /camera_init /aft_mapped 55.832209176876425 -33.06377080215347 0.5842760995806645 0.0036558165258859 0.0023357300590123 -0.7190843135711272 0.6949092957692833
135 1649644010753389596 0 1317379376075683117 /camera_init /aft_mapped 55.80471324478722 -33.90236915780235 0.5819826652143077 0.0056367643180941 0.0028319338028017 -0.7187578215015104 0.6952319045249303
136 1649644010840371370 0 1317379376179550886 /camera_init /aft_mapped 55.77998865106873 -34.726241915759694 0.5910366623745749 0.006440549245295 0.002541256274807 -0.7183937045788517 0.6956022905104887
137 1649644010947838068 0 1317379376283446074 /camera_init /aft_mapped 55.76128628732886 -35.568205786705526 0.5956306427875007 0.0051777633891378 0.002714207023378 -0.7184145412737971 0.6955906632013401
138 1649644011037702798 0 1317379376387341022 /camera_init /aft_mapped 55.74929751798288 -36.397689216414186 0.58928716279753 0.0024316862049684 0.0043673829592614 -0.7184707482723842 0.6955392129457606
139 1649644011150934457 0 1317379376491235018 /camera_init /aft_mapped 55.72166285512286 -37.24500096826336 0.5773999743646258 0.0023454234817382 0.0045183844371036 -0.718780077316042 0.6952188746318059
140 1649644011262603998 0 1317379376595177889 /camera_init /aft_mapped 55.69429747699228 -38.10480654867544 0.5746828752080841 0.0030678586861186 0.0045744519565037 -0.7192525057000797 0.6947269216580978
141 1649644011363569259 0 1317379376699121952 /camera_init /aft_mapped 55.66963669387 -38.96142445537613 0.585077825465419 0.0020596223985879 0.0035457712733833 -0.7197649759663097 0.6942057078660977
142 1649644011464012384 0 1317379376803040028 /camera_init /aft_mapped 55.64360734047628 -39.83441232993938 0.5829480414508499 0.0006854555011569 0.0018928702560818 -0.7203451604277925 0.6936128581861841
143 1649644011581722021 0 1317379376906960011 /camera_init /aft_mapped 55.618006508300525 -40.70401359419715 0.5885126519378456 9.49561514899891e-05 0.0005079016102116 -0.7206246274200798 0.693325233476292
144 1649644011693569183 0 1317379377010853052 /camera_init /aft_mapped 55.57763074869997 -41.58595105048081 0.5934786740073755 0.000504706729935 -0.0002887865083397 -0.7209420752180745 0.6929950837154081
145 1649644011775571346 0 1317379377114747047 /camera_init /aft_mapped 55.55079655909529 -42.48694265941718 0.6020945322729714 0.0001787938035726 -0.0007759455866887 -0.7213499205694882 0.692570327140584
146 1649644011863609075 0 1317379377218667984 /camera_init /aft_mapped 55.525164967858224 -43.39247293391209 0.6099461040751664 -0.0007216997569439 0.0003717240565087 -0.7217938727841261 0.6921076117064308
147 1649644011990719556 0 1317379377322609901 /camera_init /aft_mapped 55.49377672954555 -44.32538457281164 0.6072573200251009 2.629091887139817e-05 0.0023604953661665 -0.7222901420327522 0.6915861320853105
148 1649644012090914726 0 1317379377426552057 /camera_init /aft_mapped 55.4544298320811 -45.24850623846039 0.6145674066754856 0.0011790366852502 0.0023421895760776 -0.722789865721248 0.6910629016458233
149 1649644012199193716 0 1317379377530471087 /camera_init /aft_mapped 55.42220874729795 -46.18797835831404 0.6225949936657302 0.0008285411252348 0.0005581830933915 -0.7233193609942908 0.6905129281643093
150 1649644012308530092 0 1317379377634365082 /camera_init /aft_mapped 55.38056350973629 -47.113790533786215 0.6258362035110056 -0.0006575904424522 -0.0001803012811087 -0.7235129277904784 0.6903104941881646
151 1649644012436648607 0 1317379377738261938 /camera_init /aft_mapped 55.33390226172158 -48.07240569266047 0.6390331674820127 4.052566641408209e-05 -0.0013453675876318 -0.7235545971828915 0.6902658424398733
152 1649644012615147829 0 1317379377842186928 /camera_init /aft_mapped 55.2817614158928 -49.04820646200554 0.645151300850036 0.0021609138355189 -0.0012803592859291 -0.7235789677964151 0.6902370379037691
153 1649644012754869461 0 1317379377946079969 /camera_init /aft_mapped 55.23369059934817 -50.03378855360332 0.642258448982017 0.0049645938092323 -0.0004026366272335 -0.7237043585218675 0.6900921620685951
154 1649644012853456735 0 1317379378049945116 /camera_init /aft_mapped 55.19186608922973 -51.03556085467078 0.6429264414484223 0.0062785493583395 0.0006183738191227 -0.7236161452502977 0.6901737982311953
155 1649644012961557865 0 1317379378153790951 /camera_init /aft_mapped 55.15455408782501 -52.0212487154327 0.6444119609630865 0.0059305435282337 8.585256660092864e-05 -0.7230076388956818 0.6908145738049308
156 1649644013055002450 0 1317379378257637978 /camera_init /aft_mapped 55.11671359022566 -53.02222488226587 0.6442833595065609 0.004643002749647 -0.0004740154934714 -0.7227234439387417 0.6911215822242157
157 1649644013151931285 0 1317379378465379000 /camera_init /aft_mapped 55.05456605978318 -55.03772931798552 0.6583922643064143 0.000820814153444 0.0025444994163066 -0.722815301680433 0.6910360999567756
158 1649644013256892919 0 1317379378569228888 /camera_init /aft_mapped 55.01329430930274 -56.072375046063 0.6555984785373101 0.0019865852957261 0.0045811873932903 -0.7229458521309963 0.6908866485086523
159 1649644013456056356 0 1317379378673074961 /camera_init /aft_mapped 54.976184241158194 -57.10518365976158 0.6469271654949301 0.0036264015414727 0.0064555879238603 -0.7231323159961479 0.6906698401975178
160 1649644013665318727 0 1317379378776943922 /camera_init /aft_mapped 54.92942544561727 -58.14654184059049 0.6472689314381205 0.0044807260867566 0.0055664218513895 -0.7234571262326505 0.690332329059492
161 1649644013779013156 0 1317379378880790949 /camera_init /aft_mapped 54.88818371835998 -59.18886561769623 0.642847361530516 0.0044800740505985 0.0033356885364521 -0.7236036396052101 0.6901931431625369
162 1649644013986764430 0 1317379378984637022 /camera_init /aft_mapped 54.83483376660743 -60.25076807133421 0.6491822525671145 0.0043167175091649 0.0019358112216328 -0.7240434788209527 0.6897381092572114
163 1649644014162517070 0 1317379379088510036 /camera_init /aft_mapped 54.7907598508304 -61.316315055508376 0.6484725733573391 0.0052257939706021 0.0029962528540733 -0.7248299412264627 0.6889014950251261
164 1649644014379978656 0 1317379379296324015 /camera_init /aft_mapped 54.68080936077463 -63.46335232840223 0.637315606022359 0.0086785489598562 0.005181323860197 -0.7268178157395223 0.6867559241787704
165 1649644014563132762 0 1317379379400243044 /camera_init /aft_mapped 54.62036691225002 -64.52458271544721 0.6403098965773212 0.0103148984495069 0.0034893498768078 -0.7280995293896738 0.6853849302471926
166 1649644014671890974 0 1317379379608078003 /camera_init /aft_mapped 54.48150348986845 -66.67145929289148 0.6178770551494059 0.0135731213548962 0.0023275903769237 -0.7305181034221501 0.6827544604557538
167 1649644014848304986 0 1317379379711996078 /camera_init /aft_mapped 54.40527165083248 -67.74178892808084 0.6051086551589354 0.0143390072529324 0.0015916909443212 -0.7314854247230435 0.6817044321468703
168 1649644014966880798 0 1317379379815890074 /camera_init /aft_mapped 54.319360254419294 -68.80583768061356 0.6019800574095248 0.0145618962691299 -0.0006425443724237 -0.732317898313678 0.6808068992917259
169 1649644015065283060 0 1317379379919786930 /camera_init /aft_mapped 54.24678903472534 -69.86610875222976 0.5985278620505191 0.0142147701861962 -0.0032882191099639 -0.7330932021475086 0.6799716794755137
170 1649644015180778503 0 1317379380023680925 /camera_init /aft_mapped 54.1592182825166 -70.94793316998944 0.5960176183765534 0.0139810479531126 -0.0046354669378171 -0.733541436884879 0.6794851014682133
171 1649644015277513980 0 1317379380127527952 /camera_init /aft_mapped 54.08359797352151 -72.01679444065219 0.5932047069947646 0.0133825952944588 -0.0037214739432681 -0.7333389070736369 0.6797213430126482
172 1649644015367388248 0 1317379380335100889 /camera_init /aft_mapped 53.92916149229453 -74.15452873054637 0.5814118058432161 0.0162162945631212 -0.0028305582796172 -0.7308930118135935 0.6822935035690447
173 1649644015456970930 0 1317379380438875914 /camera_init /aft_mapped 53.8643428544642 -75.227023137008 0.5811157733980153 0.0180183536913696 -0.0022640129231032 -0.7290815960025087 0.6841858223802737
174 1649644015543878316 0 1317379380542627096 /camera_init /aft_mapped 53.80184911999052 -76.2932991588056 0.5671878123718078 0.0199467884002506 -0.0019869533460188 -0.7273587949457951 0.685964547964337
175 1649644015625844478 0 1317379380750152111 /camera_init /aft_mapped 53.694411399176914 -78.41678383603474 0.5454804743391892 0.0213667450683406 -0.0052474376640574 -0.7243113661664546 0.6891218843174481
176 1649644015712611675 0 1317379380853926897 /camera_init /aft_mapped 53.64826397408993 -79.47221123345068 0.5464408539884109 0.0192040604963931 -0.0059601466854949 -0.7235899088574892 0.6899371888161624
177 1649644015800680398 0 1317379380957726955 /camera_init /aft_mapped 53.60042071877737 -80.54850577989768 0.5315428564122225 0.0188079182270505 -0.0056246669100716 -0.7231809516862725 0.6903795597004972
178 1649644015883044242 0 1317379381165297985 /camera_init /aft_mapped 53.51228278590728 -82.67811259477773 0.5080592009599091 0.0192880796816983 -0.0068484818655081 -0.722087588518779 0.6914987944931393
179 1649644015990162134 0 1317379381269072056 /camera_init /aft_mapped 53.47509694399358 -83.75556772307533 0.509681176281042 0.0171440671777252 -0.0084563482997095 -0.7214131972513107 0.6922409768033682
180 1649644016087241172 0 1317379381372848988 /camera_init /aft_mapped 53.43392075846752 -84.83208078547385 0.5086175471723466 0.0152982456066943 -0.0086833629620153 -0.7208051183705348 0.6929145287983695
181 1649644016181351900 0 1317379381476600885 /camera_init /aft_mapped 53.39717119904311 -85.91794778137391 0.5066669237920732 0.0146487169590157 -0.0076161937137726 -0.7200383385676417 0.6937378465079724
182 1649644016262614965 0 1317379381580327034 /camera_init /aft_mapped 53.36751229861191 -86.99929196233175 0.5111628243029007 0.0144367173838413 -0.0052847586222795 -0.7188553290575639 0.6949896894220986
183 1649644016359423637 0 1317379381684029102 /camera_init /aft_mapped 53.33752757037472 -88.09192853445504 0.5033616429538662 0.0160209562494161 -0.0042282523601771 -0.717319889548674 0.6965469308673402
184 1649644016468900203 0 1317379381787755966 /camera_init /aft_mapped 53.31423427143115 -89.15488773252966 0.4939257293331657 0.016564978657059 -0.0031701786443592 -0.7156585262262684 0.6982466793971165
185 1649644016559027433 0 1317379381891530991 /camera_init /aft_mapped 53.29417185043464 -90.24332525805438 0.5007990678898674 0.0153934529691383 -0.0047008677549737 -0.7144292836742553 0.6995225100572016
186 1649644016666972875 0 1317379381995304108 /camera_init /aft_mapped 53.28902033993517 -91.32127219731498 0.5043049424198909 0.0124592190352479 -0.0076576583452635 -0.7137541596986184 0.7002436202084371
187 1649644016768405199 0 1317379382099103928 /camera_init /aft_mapped 53.28034947019823 -92.39880294768663 0.5247790199261941 0.0073786700678016 -0.0076901105367574 -0.7136072874887648 0.7004648861084262
188 1649644016868395090 0 1317379382202903986 /camera_init /aft_mapped 53.26607483478513 -93.50017209035668 0.5223703272207738 0.0062436362852027 -0.0067546194441324 -0.7134142234369245 0.7006821946645948
189 1649644016985987901 0 1317379382306704044 /camera_init /aft_mapped 53.25373774054818 -94.59870354950814 0.5291156060240617 0.0081676583085329 -0.0049388927048182 -0.7132442921789152 0.7008505378258646
190 1649644017088398933 0 1317379382410526991 /camera_init /aft_mapped 53.231638330829 -95.68783819644878 0.5328779714561889 0.0112601639209415 -0.0035016419609188 -0.713614374355004 0.7004394848421721
191 1649644017191503524 0 1317379382514348984 /camera_init /aft_mapped 53.21486102506843 -96.78581013860762 0.5350365556405304 0.0129448480933998 -0.0009457587627873 -0.7142971652497304 0.699722156405241
192 1649644017291465282 0 1317379382618171930 /camera_init /aft_mapped 53.20125957979347 -97.882853024253 0.5284536474143525 0.0142378742776783 0.0010586685458071 -0.7149900247630238 0.6989888601732748
193 1649644017382608413 0 1317379382721992970 /camera_init /aft_mapped 53.17619948541095 -98.97132689890982 0.5375632404323503 0.0146724658281376 0.0010497174546482 -0.7157977031546332 0.6981527519091643
194 1649644017499366283 0 1317379382825815916 /camera_init /aft_mapped 53.15531866744437 -100.0437234586346 0.5292641260017276 0.0151766707725104 0.0002469193200792 -0.7165299465180499 0.6973911696013599
195 1649644017616549968 0 1317379382929615021 /camera_init /aft_mapped 53.13439162008828 -101.1327101003822 0.520618464323147 0.0151575140198482 0.0011548727983746 -0.7171649504919602 0.6967376477724037
196 1649644017717397451 0 1317379383033412933 /camera_init /aft_mapped 53.10190935415414 -102.20959817046057 0.5066508071727852 0.0155271637488912 -0.0001224009751449 -0.7176025023718732 0.6962797862882004
197 1649644017816201925 0 1317379383137208939 /camera_init /aft_mapped 53.07595119575728 -103.27164070699028 0.5049993686982708 0.0133034194343832 -0.0038127824977453 -0.7179115007394863 0.6959968094948111
198 1649644017910047054 0 1317379383240984917 /camera_init /aft_mapped 53.04973457499617 -104.3210828045286 0.5156347480845764 0.0096792581496122 -0.0052154961724148 -0.7181827016967804 0.6957677180962493
199 1649644018038474082 0 1317379383344784975 /camera_init /aft_mapped 53.02752509133803 -105.38816787663784 0.5218932388295286 0.0085732958202006 -0.0038507977410997 -0.7185921465402271 0.6953682455262429
200 1649644018144731044 0 1317379383448606968 /camera_init /aft_mapped 53.00151560617756 -106.44671818460908 0.5281515044042393 0.0087371040650026 5.5955194626015474e-05 -0.7193309151655713 0.6946126218034302
201 1649644018235406160 0 1317379383552406073 /camera_init /aft_mapped 52.97975979579349 -107.5124721352154 0.5277178211699659 0.0088819598573636 0.0051334546240377 -0.7201993921631393 0.6936912814505887
202 1649644018336646556 0 1317379383656204939 /camera_init /aft_mapped 52.95625332996705 -108.5770600151936 0.5070271812455007 0.0111844891643612 0.0081861489188057 -0.7209328804986767 0.6928662756866526
203 1649644018431506395 0 1317379383760004997 /camera_init /aft_mapped 52.9162534942895 -109.637771101183 0.4939593354263362 0.0146936688887537 0.0094432582852695 -0.7216068571687677 0.6920827007334883
204 1649644018536944866 0 1317379383863779068 /camera_init /aft_mapped 52.87460820252664 -110.68806347796824 0.4783654812038737 0.0152319459718217 0.0087956440691114 -0.7221650540951119 0.6914971143187261
205 1649644018637453317 0 1317379383967556000 /camera_init /aft_mapped 52.82673870759373 -111.71226708643724 0.4548143899240008 0.0148225954715538 0.003519320853407 -0.7226874656340506 0.6910070419754422
206 1649644018733338117 0 1317379384071332932 /camera_init /aft_mapped 52.77668090102128 -112.73344246471144 0.4515511157934505 0.0127706340663815 -0.0043989385913002 -0.7230810179808524 0.6906311618227104
207 1649644018848610877 0 1317379384175105095 /camera_init /aft_mapped 52.71967058288334 -113.74493085414564 0.466991569355843 0.0100510129115934 -0.0076851285770188 -0.7235854759357209 0.6901188122005384
208 1649644018947703838 0 1317379384278902054 /camera_init /aft_mapped 52.67900691008617 -114.77855557703116 0.4675919917329403 0.0096798424399788 -0.0053391188746517 -0.7238029477481335 0.6899181743446772
209 1649644019045614004 0 1317379384382725000 /camera_init /aft_mapped 52.62785735237915 -115.80528822545732 0.4629435366239091 0.0131890163786898 -0.001373717237094 -0.7236882892165072 0.6899995817381342
210 1649644019161164522 0 1317379384486524105 /camera_init /aft_mapped 52.5876567966501 -116.83310668541576 0.4570356882154572 0.0174641127607176 0.0009413134381219 -0.7234351645801839 0.6901707624518258
211 1649644019253587007 0 1317379384590323925 /camera_init /aft_mapped 52.54369061603362 -117.85907518475877 0.450751302285663 0.0189522010992459 0.003842940904573 -0.7233541872043716 0.6902063211334715
212 1649644019366289615 0 1317379384694147110 /camera_init /aft_mapped 52.50805701851881 -118.87420586355962 0.4319475515029606 0.0200778723365821 0.0063440053915472 -0.7233424999589727 0.6901682841098478
213 1649644019479403018 0 1317379384797993898 /camera_init /aft_mapped 52.46832443172706 -119.89041959551218 0.418883983433597 0.021131778930489 0.0074573189576703 -0.7232440875202575 0.6902288216093171
214 1649644019583508253 0 1317379384901865959 /camera_init /aft_mapped 52.423925087384255 -120.88160607354764 0.3903709082425126 0.0200216820576602 0.0067733412393738 -0.7232450757174375 0.6902679295364338
215 1649644019684051275 0 1317379385005759954 /camera_init /aft_mapped 52.386749132445374 -121.87824697759014 0.3822134638150093 0.0170609448915367 0.0050284561354337 -0.723185568127992 0.6904247046852361
216 1649644019768530607 0 1317379385109654903 /camera_init /aft_mapped 52.35012994864959 -122.8603411048695 0.3636523955603586 0.0148591259038296 0.0032053953814047 -0.7232155141787261 0.6904551048902628
217 1649644019861553192 0 1317379385213526011 /camera_init /aft_mapped 52.30851125698116 -123.84708081089212 0.3526490221075364 0.0131709251374102 0.0016328729796435 -0.7231939748216663 0.6905174402131319
218 1649644019982028961 0 1317379385317420959 /camera_init /aft_mapped 52.26505233227398 -124.8119577979642 0.3464662019051746 0.0122837706262376 -0.0010592358276384 -0.7232258715194462 0.6905015030856929
219 1649644020084594011 0 1317379385421313047 /camera_init /aft_mapped 52.22438463795128 -125.78495768112728 0.3556909729128269 0.0107038802706606 -0.0017317998924836 -0.7231715118150404 0.6905833710099257
220 1649644020177941083 0 1317379385525182962 /camera_init /aft_mapped 52.18421233132242 -126.759296021811 0.3553134820662699 0.0113549671445418 -0.0012924787970723 -0.7230783884917577 0.690671440205738
221 1649644020280874013 0 1317379385629054070 /camera_init /aft_mapped 52.13877914919842 -127.72781746868549 0.3661752197847608 0.0133070675761386 0.001447745375154 -0.7230745007695351 0.6906403494748482
222 1649644020382476806 0 1317379385732949018 /camera_init /aft_mapped 52.0979954014954 -128.68534997024733 0.3474749218924797 0.0161973723490785 0.0052457784097432 -0.7231982080694124 0.690430647337625
223 1649644020491804122 0 1317379385836868048 /camera_init /aft_mapped 52.0688477586047 -129.62323819752385 0.3363207773647025 0.0172802235617711 0.0094881306071473 -0.7234580496158454 0.6900868204054285
224 1649644020606290102 0 1317379385940813065 /camera_init /aft_mapped 52.03961046864708 -130.548812521833 0.3164859573317742 0.0166720624501268 0.0119350857013165 -0.7241407420214583 0.689347359324436
225 1649644020713253974 0 1317379386044755936 /camera_init /aft_mapped 52.01061923737004 -131.44755303460312 0.2962136114167177 0.0137369257456448 0.0123276166492745 -0.7248113379914838 0.6887001169288431
226 1649644020816065549 0 1317379386148653984 /camera_init /aft_mapped 51.97458889100955 -132.332098236552 0.2829305648211072 0.0102586075047157 0.0110832141526836 -0.7253186205503867 0.6882476458506736
227 1649644020905385732 0 1317379386252547979 /camera_init /aft_mapped 51.929530635721086 -133.1941323380431 0.2663013904208384 0.008687301130457 0.0077038160064428 -0.7255666213921795 0.6880539658628132
228 1649644021009384870 0 1317379386356437922 /camera_init /aft_mapped 51.88040293632069 -134.0421615170771 0.2653471187731059 0.0081523598293078 0.0049345678852476 -0.725251047558779 0.6884185551565946
229 1649644021110531091 0 1317379386460309982 /camera_init /aft_mapped 51.84051783000374 -134.8846751632641 0.2660334907157949 0.008846917434342 0.0026772108358725 -0.7241923661282544 0.6895360624620083
230 1649644021238428354 0 1317379386564181089 /camera_init /aft_mapped 51.79782273973075 -135.7017842940404 0.2679184424330095 0.0104557828610106 0.0017710745891851 -0.7226944633077 0.6910862844854893
231 1649644021339328289 0 1317379386668050051 /camera_init /aft_mapped 51.76782137577422 -136.49643093017698 0.2643137583305656 0.0121712271678648 0.0029451459972837 -0.7211349650022888 0.6926814199871618
232 1649644021421256542 0 1317379386771943092 /camera_init /aft_mapped 51.73692705572466 -137.2672840255448 0.2623474738703566 0.0136594240538575 0.0041302872673913 -0.719657787145056 0.6941822745238364
233 1649644021512901544 0 1317379386875859976 /camera_init /aft_mapped 51.71279443961692 -138.0016148120503 0.2618250892524493 0.0144380961819837 0.0031363289679105 -0.718194572174831 0.6956854614823113
234 1649644021612045526 0 1317379386979782104 /camera_init /aft_mapped 51.69497148512902 -138.70145845447345 0.2652916803787941 0.0140988460324259 0.0004768257327458 -0.7166498053745314 0.6972905073456981
235 1649644021710550546 0 1317379387083724976 /camera_init /aft_mapped 51.68648313362877 -139.38086888295425 0.2673709199219413 0.0131109442919115 -0.0008859693978921 -0.7151643160762404 0.6988328263677972
236 1649644021816890716 0 1317379387187691927 /camera_init /aft_mapped 51.67197151240909 -140.04289254632275 0.265580254628741 0.0129669117799604 -0.0009694431758773 -0.7136870392806365 0.7003440078573234
237 1649644021917436599 0 1317379387291682959 /camera_init /aft_mapped 51.66794940409578 -140.66470472023627 0.268166653429073 0.0120421860200063 0.0001764184413138 -0.7121916177218651 0.7018817950902458
238 1649644022031742095 0 1317379387395697117 /camera_init /aft_mapped 51.66947885402208 -141.26157070416508 0.2764272793389268 0.0107082426167077 0.0021652795154766 -0.7108748416576647 0.7032336770966474
239 1649644022145941257 0 1317379387499711037 /camera_init /aft_mapped 51.68262240053761 -141.81698690958478 0.2808243891025746 0.0090992696603857 0.0033139088313353 -0.7096196474793299 0.7045184009032106
240 1649644022255029678 0 1317379387603750944 /camera_init /aft_mapped 51.68074668636808 -142.36129074133416 0.2808187677642757 0.0074511399574741 0.0027309017993001 -0.7088260363570585 0.705338693728792
241 1649644022362037658 0 1317379387707838058 /camera_init /aft_mapped 51.68060697660741 -142.89362148577692 0.2851477321606185 0.0057481427314067 0.0020350855100873 -0.70844116870376 0.7057435283215544
242 1649644022462261438 0 1317379387811949015 /camera_init /aft_mapped 51.68637101417096 -143.42225532730268 0.2883186612871088 0.0041417393309826 0.0030127938295972 -0.7085260968725048 0.7056660251983713
243 1649644022567510366 0 1317379387916058064 /camera_init /aft_mapped 51.69760220651477 -143.9478035740103 0.2973994768017515 0.0025678968038549 0.0060357650609975 -0.7092018809609701 0.7049749410351798
244 1649644022680490255 0 1317379388020168066 /camera_init /aft_mapped 51.70480078256536 -144.47492461848933 0.2926846161151013 0.002276262870168 0.0092438461660954 -0.7099540530184544 0.7041836497236165
245 1649644022786384344 0 1317379388124279022 /camera_init /aft_mapped 51.70164492637837 -145.00067651910874 0.284750968849822 0.0037251563723946 0.0108699068748446 -0.7107265960264627 0.7033744906059437
246 1649644022897192955 0 1317379388228389978 /camera_init /aft_mapped 51.687771945377456 -145.5226760476765 0.2806676872082859 0.0059017676290613 0.010740002454045 -0.7116332512674408 0.702444259124289
247 1649644023018959760 0 1317379388332499981 /camera_init /aft_mapped 51.681497206193605 -146.03604653362052 0.287825708815319 0.0058958877787325 0.0095688900306245 -0.7125327126343667 0.7015488637841226
248 1649644023120012044 0 1317379388436585903 /camera_init /aft_mapped 51.67212051582176 -146.53679587495927 0.2902483072613219 0.0046389653326288 0.0088475726516356 -0.7136360445049551 0.7004454271691254
249 1649644023211620807 0 1317379388540652037 /camera_init /aft_mapped 51.6726074742179 -147.04498973460048 0.2858838022636018 0.0027586272800625 0.0096132441677869 -0.7145669345544112 0.6994955836555453
250 1649644023304783344 0 1317379388644714117 /camera_init /aft_mapped 51.66940778003742 -147.54359686287725 0.2749507954001693 0.0020766405054859 0.0090412657730489 -0.7154041179520363 0.6986493334246452
251 1649644023404262065 0 1317379388748776913 /camera_init /aft_mapped 51.66185174301989 -148.03941168439297 0.2691110729967436 0.0022287929196268 0.0083712629568921 -0.716091367247833 0.6979527979682847
252 1649644023516969680 0 1317379388852840900 /camera_init /aft_mapped 51.63904608986026 -148.54275922724474 0.2794032081398234 0.0033034892050609 0.009087038752403 -0.7171372905721836 0.696864849993578
253 1649644023636556148 0 1317379388956902027 /camera_init /aft_mapped 51.629933397022384 -149.041430078817 0.2725169783069432 0.0045050853984832 0.0107062781776528 -0.7180755415478837 0.6958682320984689
254 1649644023741375207 0 1317379389060966015 /camera_init /aft_mapped 51.61835364671824 -149.53605636484292 0.2646692287785426 0.0051752732008651 0.012225476298253 -0.7189415273546059 0.6949437635676746
255 1649644023841051340 0 1317379389165007114 /camera_init /aft_mapped 51.608686057742254 -150.02965904658285 0.2618118981788506 0.0049089911288319 0.0136112040476821 -0.7198573262374981 0.6939712290813429
256 1649644023979518413 0 1317379389269021034 /camera_init /aft_mapped 51.59816227817791 -150.52884627178955 0.2602637798130435 0.0050379132915772 0.0144328810404492 -0.7205549498186689 0.6932293095840325
257 1649644024085538148 0 1317379389373033047 /camera_init /aft_mapped 51.57330263441673 -151.0172713636415 0.2548933846347685 0.0053175570805477 0.015125273809253 -0.7209648002429523 0.692786191035539
258 1649644024201088905 0 1317379389477024078 /camera_init /aft_mapped 51.557570178616665 -151.50003096615265 0.2433738594484558 0.0053263150190285 0.0153869173828396 -0.7212959075088052 0.692435619355923
259 1649644024317952156 0 1317379389580991030 /camera_init /aft_mapped 51.53965561066709 -151.99204569528038 0.2308330099124087 0.0056460341836009 0.0139352014144958 -0.7209649309383552 0.6928084156652458
260 1649644024422746658 0 1317379389684909105 /camera_init /aft_mapped 51.526416549669065 -152.46852418622896 0.2261819075203438 0.0057087972637281 0.0123802201203423 -0.7193375375871498 0.69452692302144
261 1649644024519703149 0 1317379389788779974 /camera_init /aft_mapped 51.51827067806202 -152.9443222372825 0.2308664571038412 0.0053015664697678 0.0119801951459163 -0.7168979339597591 0.6970550341267621
262 1649644024630415678 0 1317379389892626047 /camera_init /aft_mapped 51.52688295207782 -153.42335381247935 0.230619463413402 0.0046793401678416 0.0123817553098917 -0.7135137577986784 0.7005161763607237
263 1649644024744679212 0 1317379389996402025 /camera_init /aft_mapped 51.5248947123525 -153.8945816466753 0.2084835817840968 0.0054774195995189 0.0120588051734608 -0.7080703543910155 0.7060176742298319
264 1649644024872197151 0 1317379390100080967 /camera_init /aft_mapped 51.53376919797139 -154.36460244446874 0.1957091915658567 0.0077791037575625 0.0097137971284574 -0.7002315948442482 0.7138072858075609
265 1649644024984635114 0 1317379390203687906 /camera_init /aft_mapped 51.5491367960409 -154.82738620467458 0.1951165491591512 0.0097651296656158 0.0070660591823262 -0.6893045740024997 0.7243713945963618
266 1649644025088357686 0 1317379390307270050 /camera_init /aft_mapped 51.599073345018034 -155.28618792917698 0.2011159552018542 0.0102797133531813 0.0066771128643585 -0.6761576460118272 0.7366549948224866
267 1649644025202205657 0 1317379390410876989 /camera_init /aft_mapped 51.67861690829768 -155.72233726315804 0.2098063366234497 0.0093990041901568 0.0076058191614862 -0.6609326662107743 0.7503478000038605
268 1649644025312810420 0 1317379390514530897 /camera_init /aft_mapped 51.78655037661885 -156.13456658587066 0.214459560380949 0.0075386149232887 0.0077851130736024 -0.6450057670847889 0.7641008583471377
269 1649644025436990737 0 1317379390618207932 /camera_init /aft_mapped 51.898113565188616 -156.53600622719816 0.1992238367168989 0.006523890465234 0.0060942648703757 -0.6287402605867755 0.7775641346578178
270 1649644025555155038 0 1317379390825639009 /camera_init /aft_mapped 52.16112046874363 -157.31600793535446 0.1996072874235766 0.0053482258450477 0.0015903413383522 -0.5944720732876762 0.8040968980015964
271 1649644025659142494 0 1317379390929389954 /camera_init /aft_mapped 52.31766797783272 -157.683593985087 0.2203239329632345 0.00383516240877 0.0018073957104756 -0.576789983333186 0.8168814724160092
272 1649644025772732257 0 1317379391033166885 /camera_init /aft_mapped 52.50514847761342 -158.0480716573003 0.2239072881155709 0.001167794389221 0.0031442339526078 -0.5589940672404358 0.829164870721807
273 1649644025886622905 0 1317379391136941910 /camera_init /aft_mapped 52.70104070479096 -158.39262274980598 0.2174405767175484 -0.0019747228041528 0.0038335985562173 -0.540886573031547 0.8410844898737259
274 1649644026018470764 0 1317379391240741014 /camera_init /aft_mapped 52.92174983938176 -158.74647235463345 0.2149559280048343 -0.0045244875178382 0.0025143994229679 -0.5224375814864091 0.8526618205706612
275 1649644026130047321 0 1317379391344538927 /camera_init /aft_mapped 53.14309185590184 -159.09101771762843 0.2083776927428651 -0.0056457097614815 0.0006184374154983 -0.5036240917423712 0.8639042294798214
276 1649644026237883090 0 1317379391448312044 /camera_init /aft_mapped 53.38210797774517 -159.44622496322646 0.2144407084715564 -0.0052219859640108 -0.0004781190715978 -0.4846564078487364 0.8746888981780346
277 1649644026345424175 0 1317379391552110910 /camera_init /aft_mapped 53.64331854039569 -159.79104092486074 0.2281986035617097 -0.00505868363254 0.000484313646627 -0.4657670163525593 0.8848927966924763
278 1649644026465574741 0 1317379391655934095 /camera_init /aft_mapped 53.92560029604728 -160.12392091857868 0.23929661011276 -0.0060122926713494 0.0019398604639367 -0.4473977833571725 0.8943127600148076
279 1649644026605223178 0 1317379391759782076 /camera_init /aft_mapped 54.23800956876773 -160.45187694218464 0.2464500539151987 -0.0082400439914482 0.0029160746716135 -0.4291781765704362 0.9031775522781796
280 1649644026727881669 0 1317379391967559099 /camera_init /aft_mapped 54.88795583634567 -161.08991966120328 0.2329439018604685 -0.0097100393703807 0.0015824804506288 -0.3942756433073855 0.918939567101992
281 1649644026839209794 0 1317379392071502924 /camera_init /aft_mapped 55.23118104823008 -161.41413896555073 0.2345238585644326 -0.0080080328420053 -0.0006778015559192 -0.3781650805852211 0.92570329146062
282 1649644026947258472 0 1317379392175479889 /camera_init /aft_mapped 55.60794226417307 -161.73248862574914 0.2541098353367395 -0.0088713788901847 -0.0009411111850072 -0.3632256076076364 0.9316585055289236
283 1649644027055798768 0 1317379392279493093 /camera_init /aft_mapped 56.01640909552856 -162.0347882294163 0.2744182909230803 -0.0116213188250538 0.0006461813494113 -0.3496474470299188 0.9368090468093752
284 1649644027182752609 0 1317379392383557081 /camera_init /aft_mapped 56.44124308609026 -162.32823535000165 0.2772015722011637 -0.0142808438114484 0.0035858034119872 -0.3379016211774572 0.9410662537353944
285 1649644027324320077 0 1317379392487668037 /camera_init /aft_mapped 56.87170680056556 -162.63482433404337 0.2684386886058906 -0.0139065401041169 0.004914958686235 -0.3284433506783718 0.9444085009775216
286 1649644027437337875 0 1317379392591800928 /camera_init /aft_mapped 57.3050621111646 -162.95405709997513 0.2658787292063084 -0.0115416828813803 0.005418972205965 -0.3205167514912432 0.9471570283274032
287 1649644027548745393 0 1317379392800190926 /camera_init /aft_mapped 58.22599988905126 -163.6205681743327 0.2778165874764291 -0.0053531306144532 0.0078084993031335 -0.3082396613271572 0.9512616267442816
288 1649644027669585943 0 1317379392904373884 /camera_init /aft_mapped 58.71611890557181 -163.97172138646468 0.2774803528459891 -0.0034356938113738 0.0088086466525018 -0.3029344825158925 0.9529644815285688
289 1649644027815218210 0 1317379393008517027 /camera_init /aft_mapped 59.231598143718045 -164.32422649086786 0.2683823470242761 -0.0020358523681294 0.0090482524426158 -0.2969530287534851 0.9548470469907742
290 1649644027969259977 0 1317379393112627983 /camera_init /aft_mapped 59.7402090353802 -164.6718314956337 0.2555885567893526 0.001008360657905 0.0077429084059173 -0.2910772874012394 0.956667676540468
