 %time field.transforms0.header.seq field.transforms0.header.stamp field.transforms0.header.frame_id field.transforms0.child_frame_id field.transforms0.transform.translation.x field.transforms0.transform.translation.y field.transforms0.transform.translation.z field.transforms0.transform.rotation.x field.transforms0.transform.rotation.y field.transforms0.transform.rotation.z field.transforms0.transform.rotation.w
0 1649643448940718412 0 1317398079440555096 /camera_init /aft_mapped 0.5628321748816966 0.0006459527220495 0.0186720842299411 0.0001568604799151 -0.0005585740523096 0.0006893118757992 0.9999995941193957
1 1649643449075282096 0 1317398079544785976 /camera_init /aft_mapped 1.1326669680303374 0.0040990339141135 0.0253029953123854 0.0004680750849577 -0.00128898447195 0.0016185366389401 0.9999977498794156
2 1649643449184204101 0 1317398079649014950 /camera_init /aft_mapped 1.6889739817706602 0.0081701076071374 0.0334398442222399 0.0012580641250202 -0.0020654033510702 0.0026467649265651 0.999993572988886
3 1649643449286820650 0 1317398079753268003 /camera_init /aft_mapped 2.245113357672614 0.0064917467861362 0.045540832559812 0.0025105154877023 -0.0029306397641329 0.0034248744404193 0.9999866893602266
4 1649643449388021469 0 1317398079857522011 /camera_init /aft_mapped 2.810619346229507 0.0109894608116894 0.0566776150867485 0.0030886825401031 -0.0033463824859719 0.0041032263373125 0.9999812124725388
5 1649643449489841222 0 1317398079961802006 /camera_init /aft_mapped 3.3932218498754327 0.0165231248334612 0.0657741571516187 0.0033052968926571 -0.0030832200193253 0.0047576847051276 0.9999784663696566
6 1649643449590419054 0 1317398080066081047 /camera_init /aft_mapped 3.978568089116985 0.0223587485170561 0.080191975582844 0.0033198095734872 -0.0032540752491543 0.0054372272981862 0.999974412881638
7 1649643449699144363 0 1317398080170336008 /camera_init /aft_mapped 4.565096218644404 0.0284853201540402 0.096298428848977 0.0031990838419092 -0.0043296237898782 0.0059186669142699 0.9999679942890016
8 1649643449807013273 0 1317398080274590969 /camera_init /aft_mapped 5.166809425557786 0.0430405623274223 0.1138326941298863 0.0025240056302237 -0.0060435791026947 0.0065830749808245 0.9999568829059604
9 1649643449917894124 0 1317398080378846884 /camera_init /aft_mapped 5.778942580829843 0.0597059069647354 0.1257180445171986 0.0016434568255605 -0.0078449381979019 0.0072588531403848 0.9999415308133872
10 1649643450029843568 0 1317398080483100891 /camera_init /aft_mapped 6.3969738650393495 0.0721231108143734 0.1429062144670159 0.0006746259969364 -0.0079698223119205 0.0078746390162907 0.9999370064521284
11 1649643450149537563 0 1317398080587354898 /camera_init /aft_mapped 7.037956563003195 0.0922696228301374 0.1514099883958294 -0.0005284557307241 -0.0050809610685254 0.0084316148053561 0.9999514050397325
12 1649643450274010896 0 1317398080691610098 /camera_init /aft_mapped 7.698895079232074 0.1072603295558908 0.1566925952066197 -0.0009964769395255 -0.0001441868695325 0.0088224390170369 0.9999605746296432
13 1649643450383253574 0 1317398080795864105 /camera_init /aft_mapped 8.376748623729856 0.121282368466277 0.1726903522319197 -0.0012787348851977 0.0034897332111591 0.0093030167037813 0.9999498189806414
14 1649643450499470710 0 1317398081004373074 /camera_init /aft_mapped 9.749855499309016 0.1611561212944693 0.1934024171176579 -0.003223410388267 0.0004023808982673 0.0103543792138962 0.9999411155393984
15 1649643450586393833 0 1317398081108603001 /camera_init /aft_mapped 10.45395900080506 0.1777544620966416 0.1867820205832308 -0.0032812011030935 -0.0027624641230073 0.0109049708656333 0.9999313397037368
16 1649643450703687906 0 1317398081212835073 /camera_init /aft_mapped 11.181936768465569 0.2023936642820968 0.1879297431792904 -0.0028354727529789 -0.0025019616880835 0.0115326290963256 0.9999263466616456
17 1649643450813930749 0 1317398081317115068 /camera_init /aft_mapped 11.9413379032442 0.2233183024067265 0.1934362606114049 -0.0022798291898215 0.0016529241809728 0.0118531739457861 0.9999257834899188
18 1649643450926435232 0 1317398081421394110 /camera_init /aft_mapped 12.7196413688545 0.2447029455738557 0.1960391855188633 -0.0018086957751238 0.0056677048937181 0.0121671018677542 0.9999082794801584
19 1649643451039890289 0 1317398081525649071 /camera_init /aft_mapped 13.505925864104777 0.264652849032992 0.194525913847379 -0.0011404659042945 0.0072730755293253 0.0125189938795288 0.9998945326893784
20 1649643451156808853 0 1317398081629903078 /camera_init /aft_mapped 14.31026630588641 0.2781006243118317 0.191837096266735 2.820455522259772e-05 0.0070977189734753 0.0126620538730353 0.9998946414405836
21 1649643451288516044 0 1317398081734157085 /camera_init /aft_mapped 15.125735102128097 0.3031912117812012 0.1931978529016037 0.0003417301780349 0.0059739999416751 0.0125059318039131 0.9999038934892184
22 1649643451389307498 0 1317398081838412046 /camera_init /aft_mapped 15.947793796216049 0.3261252316414151 0.1829201937107683 -0.0006132873256613 0.0043404509641776 0.0122211660307805 0.9999157101800792
23 1649643451489586591 0 1317398081942655087 /camera_init /aft_mapped 16.789719512772496 0.3510616542316382 0.1784634627421967 0.0004017912885987 0.0016449030704618 0.0117558428432629 0.9999294640206846
24 1649643451620505571 0 1317398082151128054 /camera_init /aft_mapped 18.54270202210956 0.3928514553845925 0.1999886944965688 0.0016309030951214 -0.0038709392945981 0.0109205350312827 0.9999315466064176
25 1649643451770760536 0 1317398082255358934 /camera_init /aft_mapped 19.43803271955892 0.4149011043978886 0.2082425492219328 0.0002323353090563 -0.0047419053573229 0.0107123977072254 0.9999313500882192
26 1649643451872205257 0 1317398082359591007 /camera_init /aft_mapped 20.36260042351724 0.4440419736633059 0.2235166808570927 0.0002357128985847 -0.004372157315814 0.0108539585692788 0.999931507786014
27 1649643451970055341 0 1317398082463821888 /camera_init /aft_mapped 21.28906591610161 0.4773255020366777 0.2383738058807514 6.161866642243166e-05 -0.004758184907307 0.0109579720680562 0.9999286368174898
28 1649643452064305305 0 1317398082568027973 /camera_init /aft_mapped 22.236877932213567 0.51123389368803 0.25693245466448 -0.0012648274344214 -0.0057032924596803 0.0109004816023285 0.9999235231594054
29 1649643452156800031 0 1317398082672234058 /camera_init /aft_mapped 23.19162565129456 0.5399141581690552 0.2756549528028544 -0.0033210871124754 -0.0061236282322297 0.0108754621941172 0.9999165944616226
30 1649643452249705791 0 1317398082776417017 /camera_init /aft_mapped 24.162129648070056 0.5687526312993659 0.2974417443966805 -0.0044037926369862 -0.0062089194214616 0.0109448483910155 0.99991112916285
31 1649643452339333534 0 1317398082880600929 /camera_init /aft_mapped 25.136044973028618 0.5964118528247657 0.3170041510834727 -0.0048089508408144 -0.0062097872049349 0.0109811389131979 0.9999088594081208
32 1649643452427999258 0 1317398082984807968 /camera_init /aft_mapped 26.1135623756368 0.622864838431107 0.3405221479720367 -0.0051111042671598 -0.0061400867246455 0.0111093666173873 0.9999063745779124
33 1649643452522095203 0 1317398083089011908 /camera_init /aft_mapped 27.10756433572214 0.6569933298493995 0.3635370621860219 -0.0054994816985148 -0.0055505797611551 0.0113107713643993 0.99990550214333
34 1649643452607296466 0 1317398083193218946 /camera_init /aft_mapped 28.113491327442336 0.6831563553509158 0.3823680631143014 -0.0058424877318756 -0.0045584493814526 0.0114081174124543 0.999907466085459
35 1649643452704724550 0 1317398083297426939 /camera_init /aft_mapped 29.130996789880413 0.7136530481447941 0.3998729179154995 -0.0058436353700251 -0.0040591069045716 0.01158392942959 0.999907589808063
36 1649643452802009582 0 1317398083401633978 /camera_init /aft_mapped 30.13204771319464 0.7387321295996286 0.4228806183849505 -0.0055538029466512 -0.0042211339475159 0.0115812998823235 0.9999086012201628
37 1649643452901427745 0 1317398083505842924 /camera_init /aft_mapped 31.159159547486794 0.7680961451533854 0.443657586279358 -0.0061989828206062 -0.0046955300960633 0.0116753768737134 0.9999016002507264
38 1649643453020427465 0 1317398083610049009 /camera_init /aft_mapped 32.20027977526052 0.7948993128120179 0.4645379830797164 -0.0066544260449133 -0.0043942323825873 0.0118916790703995 0.9998974933985318
39 1649643453126303672 0 1317398083714230061 /camera_init /aft_mapped 33.24535313920531 0.8294651166760528 0.4852809668161271 -0.0066343824889493 -0.003050400002529 0.0122400067582561 0.9998984259730448
40 1649643453224942684 0 1317398083818413019 /camera_init /aft_mapped 34.30276759454188 0.8539619438508417 0.5005856980328407 -0.0066060076301888 -0.0013035490662477 0.0125546512320746 0.999898515928223
41 1649643453337288618 0 1317398083922597885 /camera_init /aft_mapped 35.36354534828756 0.8847997953142008 0.5165495366478182 -0.0061649128188431 -4.689998405214475e-05 0.0128399774391102 0.9998985581696228
42 1649643453465756654 0 1317398084026756048 /camera_init /aft_mapped 36.415298664870654 0.9148805191223468 0.531238438589044 -0.0059496435613145 0.0003900674978409 0.0131787209728705 0.9998953799785054
43 1649643453554634094 0 1317398084130933046 /camera_init /aft_mapped 37.4866331857582 0.9461694322390676 0.5420195272959634 -0.0053267629090119 -0.0001330180125132 0.0134087763494492 0.9998959008916528
44 1649643453644282579 0 1317398084235117912 /camera_init /aft_mapped 38.5611686662262 0.9750603388846204 0.5554472373690094 -0.0059782438379186 -0.0003775778242648 0.0136795747245707 0.99988848741795
45 1649643453738018274 0 1317398084339278936 /camera_init /aft_mapped 39.64412644157743 1.01562091576989 0.5685758488262824 -0.0061464752149616 5.1338591149672726e-05 0.0140564574699827 0.9998823101796408
46 1649643453848635196 0 1317398084443464041 /camera_init /aft_mapped 40.71871142577304 1.0526263013883317 0.5851299854518588 -0.0064534693701258 0.0011076042224088 0.0144188976243842 0.9998746028064084
47 1649643453948479413 0 1317398084547667980 /camera_init /aft_mapped 41.800551745364665 1.086762676235732 0.5949331742356994 -0.0062339031135684 0.002382722515709 0.0146660150713349 0.9998701761165352
48 1649643454068949937 0 1317398084651874065 /camera_init /aft_mapped 42.8775373462091 1.1241478181620117 0.6125983936718626 -0.0061198860570121 0.0025689498314531 0.0149979403598581 0.9998654955924696
49 1649643454165031433 0 1317398084756079912 /camera_init /aft_mapped 43.94618243257514 1.1604497352569267 0.6240675058623888 -0.0059570037961605 0.001068849966249 0.0153048885178051 0.9998645568540668
50 1649643454239492177 0 1317398084860287905 /camera_init /aft_mapped 45.01342401283016 1.196891608246537 0.6408975937284215 -0.0069554894978228 -0.0008925728923384 0.0153667607501553 0.9998573333948824
51 1649643454348972082 0 1317398084964518070 /camera_init /aft_mapped 46.08541775940431 1.2447462978852033 0.6533020704978582 -0.0086749249470839 -0.0012343645179648 0.0152266704341459 0.999845673356088
52 1649643454448673486 0 1317398085068747997 /camera_init /aft_mapped 47.17892922510822 1.276419780794737 0.6645370590061476 -0.0086531816288409 -8.309523888955528e-05 0.0153370718991916 0.9998449328613104
53 1649643454564179420 0 1317398085172955036 /camera_init /aft_mapped 48.25567115716317 1.317698940574188 0.6779378021121492 -0.0090426045116744 0.0009091296792792 0.0152032472978076 0.9998431207236832
54 1649643454662132501 0 1317398085277132988 /camera_init /aft_mapped 49.33165341989224 1.3567906160802885 0.6893269941326915 -0.0080644083169921 0.0015894410729868 0.015118193038697 0.999851928654847
55 1649643454780065774 0 1317398085381341934 /camera_init /aft_mapped 50.41763960110395 1.39336330644124 0.7003611088087489 -0.0082682169470703 0.0014896079196784 0.0150045503046542 0.9998521296306354
56 1649643454881462574 0 1317398085485575914 /camera_init /aft_mapped 51.48962828171022 1.433569840477047 0.7113436765858204 -0.0072466954459418 0.0008168469648361 0.0147794371426706 0.999864183978952
57 1649643454981574296 0 1317398085589782000 /camera_init /aft_mapped 52.56338646482496 1.466567747524916 0.7233444421308768 -0.007430960356837 -0.0003065795709422 0.014682004678272 0.9998645536150228
58 1649643455087654113 0 1317398085693989992 /camera_init /aft_mapped 53.63582882847323 1.5006827683956383 0.7411777134090777 -0.0069621390176755 -0.0014975258702283 0.0145812485211252 0.9998683279453008
59 1649643455194464445 0 1317398085798171043 /camera_init /aft_mapped 54.71048130773946 1.5374214417473726 0.7640263002362266 -0.0062971987407903 -0.0029846293819833 0.0145779240712177 0.999869452181256
60 1649643455295291423 0 1317398085902354002 /camera_init /aft_mapped 55.79162694437249 1.5703695067932646 0.78840316949993 -0.0061669750684342 -0.003791671230261 0.0144790696351399 0.999868965510125
61 1649643455422330379 0 1317398086006557941 /camera_init /aft_mapped 56.86558266701482 1.6046858656513083 0.8127503511328319 -0.0061936478017106 -0.0028348626204603 0.0142943848896053 0.9998746285617308
62 1649643455555041074 0 1317398086110738993 /camera_init /aft_mapped 57.95493143639911 1.6418201092600864 0.82704277451496 -0.006038128875683 -0.0002232250993553 0.0141695241642855 0.9998813508387848
63 1649643455649712562 0 1317398086214903116 /camera_init /aft_mapped 59.04577624806408 1.6750137208033733 0.8409594904953643 -0.0051578403957261 0.0027376441119297 0.0140885436522929 0.9998837006996996
64 1649643455742856740 0 1317398086319087029 /camera_init /aft_mapped 60.12464906470901 1.7016076296053335 0.8546501399304115 -0.0034541826543399 0.0035194397183959 0.0140994748287349 0.9998884372647844
65 1649643455835756301 0 1317398086423268080 /camera_init /aft_mapped 61.20603406314898 1.727576645409849 0.8648795480891974 -0.0015627819497837 0.0023055039630019 0.0140351105376002 0.9998976237776802
66 1649643455932294845 0 1317398086527426958 /camera_init /aft_mapped 62.27529136294073 1.758195182142109 0.8737657651625562 -0.000487566442794 0.0006680134517715 0.013941596343414 0.999902469208067
67 1649643456037482261 0 1317398086631583929 /camera_init /aft_mapped 63.364436512318335 1.7982167917241851 0.8934416111300965 -0.0012988231276255 -0.0010380620328214 0.0140259771798186 0.9999002487497692
68 1649643456140276432 0 1317398086735742092 /camera_init /aft_mapped 64.44790314811941 1.8307642419647097 0.9134706777566788 -0.0015913515171711 -0.0029407834803427 0.0140562738850272 0.999895614830538
69 1649643456247504472 0 1317398086839926958 /camera_init /aft_mapped 65.53148828871893 1.8728858043825232 0.9345509485206824 -0.0033645788751205 -0.0034370338374576 0.0135807079072313 0.9998962100038844
70 1649643456363754272 0 1317398086944109917 /camera_init /aft_mapped 66.62536996224304 1.9158713121701123 0.9454516111781576 -0.0054271311107852 -0.0020134035672691 0.0132725143153643 0.999895160913248
71 1649643456467506647 0 1317398087048269033 /camera_init /aft_mapped 67.71592055736026 1.956689787135204 0.96474211657675 -0.0058547345875122 -0.0008793481841847 0.0132191146247992 0.9998950964167276
72 1649643456557369947 0 1317398087152426958 /camera_init /aft_mapped 68.80645894043849 1.9878102290040127 0.98018607103583 -0.0055819680691823 -0.0004568889005151 0.013274791073948 0.9998962010163608
73 1649643456657942056 0 1317398087256587029 /camera_init /aft_mapped 69.90275230586903 2.018023304584855 0.9975332017691488 -0.0049945844234977 -2.2074161729115403e-05 0.0133312818116755 0.99989866014733
74 1649643456762825489 0 1317398087360744953 /camera_init /aft_mapped 70.9979658118385 2.053739803521901 1.0140588223439273 -0.0046153237401759 0.0007097479366179 0.0135295676272371 0.9998975676760394
75 1649643456866628170 0 1317398087464900017 /camera_init /aft_mapped 72.08616630104353 2.074424336447302 1.025524552775394 -0.0037971776338344 0.0017341587510692 0.0136837659624583 0.9998976591054346
76 1649643456979666948 0 1317398087569057941 /camera_init /aft_mapped 73.16902726242692 2.1077343207325656 1.040909158354401 -0.0033063794984838 0.0025887234565973 0.0140424430069623 0.9998925823106568
77 1649643457087472915 0 1317398087673218012 /camera_init /aft_mapped 74.25250187288766 2.139457964898872 1.0577157747681682 -0.0025781469696364 0.0023890076735327 0.0144297744498119 0.9998897076227288
78 1649643457203157663 0 1317398087777376890 /camera_init /aft_mapped 75.32110769994328 2.1793565608318826 1.073655136814642 -0.0025182471147407 0.0006797020770919 0.0148562012853329 0.9998862383891104
79 1649643457305806398 0 1317398087881513119 /camera_init /aft_mapped 76.40271663642514 2.2200403008187672 1.0907810367993516 -0.003135079006377 -0.0003844028375693 0.0150796082356005 0.9998813074208074
80 1649643457417817115 0 1317398087985646963 /camera_init /aft_mapped 77.47781589564191 2.2632676346462968 1.10463868193503 -0.004015286158553 0.0002756901505419 0.0153599507765684 0.999873928745093
81 1649643457524069547 0 1317398088089807034 /camera_init /aft_mapped 78.55934038450677 2.308940276074892 1.1193438302622365 -0.0045628603682492 0.0021657367569977 0.0156592344935108 0.9998646299697956
82 1649643457632536649 0 1317398088193943024 /camera_init /aft_mapped 79.63873627248506 2.3435161026032305 1.1299989040287644 -0.0054162577953648 0.0042357514944152 0.0159841442555703 0.999848603386127
83 1649643457742861032 0 1317398088298078060 /camera_init /aft_mapped 80.69523335503524 2.387982149936631 1.137210239870252 -0.0051187966880353 0.0048005646510031 0.0163047783819152 0.9998424409382785
84 1649643457846112966 0 1317398088402211905 /camera_init /aft_mapped 81.75913209612379 2.4261388264057184 1.144952109090703 -0.0049500055131706 0.0040060908957683 0.0166361474709276 0.9998413310513224
85 1649643457957452297 0 1317398088506345987 /camera_init /aft_mapped 82.81021222799178 2.466342816836609 1.1546247292070728 -0.0049337612670618 0.0034687482865198 0.0169619983574798 0.999837945067502
86 1649643458052970647 0 1317398088610505104 /camera_init /aft_mapped 83.8512760878169 2.5047351324203757 1.1630280463892009 -0.0048817126471849 0.0034487612285465 0.0171533396034391 0.999835005322412
87 1649643458151429414 0 1317398088714670897 /camera_init /aft_mapped 84.87967643017646 2.546083760813437 1.1779307564853312 -0.0042711365727603 0.0036508317207382 0.0174295004747656 0.9998323066061248
88 1649643458253036975 0 1317398088818804979 /camera_init /aft_mapped 85.89753249166132 2.581123583196539 1.1881000784704112 -0.0040007887474872 0.0044077183260265 0.0176766544530412 0.9998260356661574
89 1649643458355547189 0 1317398088922933102 /camera_init /aft_mapped 86.88902378404569 2.621753288264799 1.1993240230500046 -0.0037295242626379 0.0056522352990849 0.0179262462036771 0.9998163794327152
90 1649643458454466104 0 1317398089027069092 /camera_init /aft_mapped 87.86370958063144 2.664203969392939 1.2102365470279994 -0.0034295928964951 0.0063536811205311 0.0185008509908849 0.9998027741216744
91 1649643458544875621 0 1317398089131201982 /camera_init /aft_mapped 88.81955191545379 2.7057673668257958 1.2156896122195289 -0.0029005540184058 0.0065128897848757 0.0194995980778787 0.9997844441317526
92 1649643458660725593 0 1317398089235336065 /camera_init /aft_mapped 89.75493290533385 2.74460763485166 1.2280713305767097 -0.0022562887626511 0.0062438854897776 0.0210440044666619 0.9997565068210446
93 1649643458770882368 0 1317398089339472055 /camera_init /aft_mapped 90.65687214366298 2.7950482053015797 1.235104448090202 -0.0023245711985879 0.0057811479892984 0.0226493090582357 0.9997240536747394
94 1649643458876724481 0 1317398089443630934 /camera_init /aft_mapped 91.54211510328663 2.837205939045005 1.2473004519805249 -0.0022542311641867 0.0058801608270751 0.0242254046310165 0.9996866868779286
95 1649643458966724157 0 1317398089547789097 /camera_init /aft_mapped 92.40203159008236 2.8837022496142506 1.2531403277483883 -0.0027444458606355 0.0064522462944095 0.025676640832597 0.999645710564612
96 1649643459056446313 0 1317398089651947021 /camera_init /aft_mapped 93.24112411267492 2.9411262960295157 1.261309249319391 -0.0033403699417921 0.006945447509311 0.0271298825303282 0.999602206961068
97 1649643459164570569 0 1317398089756105900 /camera_init /aft_mapped 94.05956706500292 2.9920857340572637 1.2684656861467145 -0.0037196176149224 0.0076258754999883 0.0285254260029058 0.9995570571703298
98 1649643459271495819 0 1317398089860289097 /camera_init /aft_mapped 94.85109891932858 3.042769835770612 1.2738606572444455 -0.0042932227973415 0.0081472325815253 0.0299167855098055 0.9995099683264972
99 1649643459384225606 0 1317398089964469910 /camera_init /aft_mapped 95.61258765831066 3.099102216066719 1.2807878226584577 -0.0052320309666548 0.0083673563172673 0.0312123073207163 0.9994640589195496
100 1649643459484415531 0 1317398090068653107 /camera_init /aft_mapped 96.33478016034132 3.151305248431011 1.288858666138532 -0.0058159545740348 0.0079449195630211 0.0325183674575256 0.9994226376780884
101 1649643459583613157 0 1317398090172861099 /camera_init /aft_mapped 97.03493757774535 3.2127325456275213 1.295327801946423 -0.0063609149620913 0.0062142495175733 0.0338138493876711 0.9993885858130293
102 1649643459697580337 0 1317398090277069092 /camera_init /aft_mapped 97.69577664050811 3.2624282993482465 1.3057291078712043 -0.0075529643883256 0.0044292476005473 0.0348890027862081 0.9993528365793664
103 1649643459806285858 0 1317398090381273985 /camera_init /aft_mapped 98.32779600340308 3.317389311488273 1.3092562239020265 -0.0085599839197121 0.0030871577350022 0.0359204044949528 0.9993132245063768
104 1649643459926252126 0 1317398090485506058 /camera_init /aft_mapped 98.93108264426677 3.368086063781709 1.3182360180724804 -0.0096903080706369 0.0025584909572643 0.0364362348053848 0.9992857213263504
105 1649643460040776491 0 1317398090589787006 /camera_init /aft_mapped 99.51321749443692 3.4172855395683293 1.3290745124723595 -0.0110456576172144 0.002649388856503 0.0360209723151346 0.9992864773126686
106 1649643460161282539 0 1317398090694112062 /camera_init /aft_mapped 100.07120535722191 3.4674218218484225 1.3399015771591818 -0.0126993547733255 0.0033206699154097 0.0347873433094227 0.9993085310779282
107 1649643460277586221 0 1317398090798437119 /camera_init /aft_mapped 100.59906411918058 3.506891132285164 1.3479091285376783 -0.0139693016174608 0.0041078450738516 0.0321027985770657 0.9993785041437954
108 1649643460399266481 0 1317398090902772903 /camera_init /aft_mapped 101.11118389760826 3.5374311593275465 1.3495861376372804 -0.0142667779007106 0.0051016992087506 0.0285284800109968 0.9994781426033176
109 1649643460517346620 0 1317398091007123947 /camera_init /aft_mapped 101.59545007427572 3.5613310215195444 1.3528725069877263 -0.0140963262379592 0.0063117111589326 0.0238886166994242 0.9995953130547518
110 1649643460638829708 0 1317398091111466885 /camera_init /aft_mapped 102.0618301476407 3.57702525300289 1.357596041274446 -0.013765716844889 0.0071385495545408 0.0179474379364426 0.9997186782397942
111 1649643460753415584 0 1317398091215840101 /camera_init /aft_mapped 102.50392151398252 3.5864622020937835 1.3625651160750356 -0.0134551839185572 0.0073700730868228 0.0112821979916113 0.9998186595862726
112 1649643460864083528 0 1317398091320264101 /camera_init /aft_mapped 102.92436016658674 3.5896477710752324 1.364201752500836 -0.013073201535329 0.0072150643878409 0.0038118284695319 0.9998812450542388
113 1649643460980066776 0 1317398091424710989 /camera_init /aft_mapped 103.34521600231176 3.579039788382388 1.3734663099934403 -0.0122653797220307 0.0060589411078183 -0.0049070503012745 0.9998943796973094
114 1649643461098021745 0 1317398091529181004 /camera_init /aft_mapped 103.7407357133468 3.5538173411477354 1.3792245755302774 -0.0121423568481221 0.0041998885536016 -0.0154914341290833 0.999797449274069
115 1649643461226193904 0 1317398091738193989 /camera_init /aft_mapped 104.52173176076884 3.4680469358896646 1.3853487788354506 -0.0104558726697031 0.0008250731471222 -0.0410506186662586 0.9991020171574744
116 1649643461352579355 0 1317398091842760086 /camera_init /aft_mapped 104.89732073907898 3.4179712741408697 1.3881329120776154 -0.009152112324689 0.0002904825488261 -0.0559996525898022 0.9983887987000388
117 1649643461458353996 0 1317398091947328091 /camera_init /aft_mapped 105.25788855783932 3.357457759744596 1.3912281030687137 -0.0079884399439408 -0.0004618511315411 -0.072209180642103 0.9973574112382132
118 1649643461557604789 0 1317398092051870108 /camera_init /aft_mapped 105.61731414328524 3.2768702458586 1.3983504529381614 -0.0068066650944487 -0.0010784649097023 -0.0900430811074768 0.9959140272977396
119 1649643461662261247 0 1317398092156388044 /camera_init /aft_mapped 105.9702651705754 3.1796223287759777 1.4069570949614632 -0.0053018018279777 -0.0013842882424494 -0.1092939023635489 0.9939943750090268
120 1649643461769448757 0 1317398092260907888 /camera_init /aft_mapped 106.31614562120504 3.0670980197610573 1.418851028275277 -0.0041388104396959 -0.0016631036046481 -0.1295570292917976 0.9915619398179968
121 1649643461894399404 0 1317398092365426064 /camera_init /aft_mapped 106.65235987204936 2.945970222377693 1.438747376476227 -0.0042947870113364 -0.0018582053893178 -0.150790759178313 0.9885546261202192
122 1649643462017265081 0 1317398092469919920 /camera_init /aft_mapped 106.97044942895732 2.812050530083859 1.443141329242694 -0.0054095397339074 -0.0017639694733253 -0.1734728931947229 0.9848222076183176
123 1649643462159842729 0 1317398092574392080 /camera_init /aft_mapped 107.2892144318103 2.664043021325544 1.4512295147130658 -0.0054701448848095 -0.0010840182820115 -0.1968908682209358 0.980409551376622
124 1649643462292907953 0 1317398092678838968 /camera_init /aft_mapped 107.59771208843384 2.5013138931502685 1.4488427371852024 -0.0053173048437671 -0.0005474860342516 -0.2203924885811561 0.9753966257401374
125 1649643462428765535 0 1317398092887660027 /camera_init /aft_mapped 108.1622149763249 2.1215156725842363 1.4685513748858794 -0.0045114362317272 -0.0017642843126131 -0.2684706143376124 0.9632756944308188
126 1649643462553738355 0 1317398092992036104 /camera_init /aft_mapped 108.4319019793642 1.918864192392392 1.4768960357602947 -0.0046991288172927 -0.0030628884255126 -0.2924371326572014 0.9562682993522716
127 1649643462700508356 0 1317398093096385002 /camera_init /aft_mapped 108.68707447011036 1.7011590990453185 1.4880700180317763 -0.0061569513154696 -0.004609881870291 -0.316831401647941 0.9484506860503829
128 1649643462828835725 0 1317398093305135012 /camera_init /aft_mapped 109.17088876214127 1.2385038392842704 1.498696311107789 -0.0111041924377341 -0.0060537777123383 -0.3673190730284885 0.930009003867816
129 1649643462942748069 0 1317398093409487009 /camera_init /aft_mapped 109.39824325822003 0.9671841040831074 1.498944874120849 -0.0111673068959675 -0.0065411755194849 -0.392511580430002 0.919656002811843
130 1649643463054850339 0 1317398093513813019 /camera_init /aft_mapped 109.61588205624622 0.6737584692729972 1.5190944664910948 -0.0098715560067914 -0.0061904722017593 -0.4173181629879255 0.9086857439600928
131 1649643463174612283 0 1317398093618139982 /camera_init /aft_mapped 109.81725372407335 0.3800260260626811 1.5289632389428638 -0.0090509113082173 -0.0050812761904017 -0.4422130734917517 0.896849964748701
132 1649643463290639400 0 1317398093826792002 /camera_init /aft_mapped 110.17962375631622 -0.2620710269606985 1.536554506930062 -0.007883253642257 -0.002574104187741 -0.4916419781885001 0.8707579420151969
133 1649643463404966592 0 1317398093931118965 /camera_init /aft_mapped 110.33384436022747 -0.6067199727341618 1.5685067046747827 -0.0061987661432962 -0.0010027445268846 -0.5161858529720268 0.8564535801742297
134 1649643463512414693 0 1317398094035423040 /camera_init /aft_mapped 110.4891157117484 -0.9727009502480124 1.5797708076909247 -0.0067045306065781 0.0003979995935453 -0.540158011161554 0.8415368166893612
135 1649643463630164623 0 1317398094139712095 /camera_init /aft_mapped 110.62816647566704 -1.337628710739074 1.5964249407187896 -0.008736587221543 0.0002602647109994 -0.5629176292834646 0.8264667851449836
136 1649643463738515853 0 1317398094243942976 /camera_init /aft_mapped 110.73925580696051 -1.7326621700597653 1.590721665153358 -0.0110193823834003 -0.0011614968927775 -0.5845946816246234 0.8112498273362292
137 1649643463845835208 0 1317398094348114967 /camera_init /aft_mapped 110.8507393953126 -2.147257147477976 1.5908819989804537 -0.0117003653014752 -0.002371232995024 -0.6044261366779956 0.7965717318650019
138 1649643463952951669 0 1317398094452227116 /camera_init /aft_mapped 110.94522614905028 -2.582982925007652 1.591003060394052 -0.010002090268244 -0.0045351085995789 -0.6216003812495591 0.7832575291758508
139 1649643464065835475 0 1317398094556241035 /camera_init /aft_mapped 111.02829985628112 -3.0255907472142245 1.6075522213432325 -0.007586729248628 -0.007128082821425 -0.6360402851116898 0.7715856321171612
140 1649643464169738769 0 1317398094660182953 /camera_init /aft_mapped 111.1066785155618 -3.476775205034778 1.634571351445795 -0.0065160829809518 -0.0087974744548428 -0.6482412741630657 0.7613562868836422
141 1649643464274065732 0 1317398094764101028 /camera_init /aft_mapped 111.17786034030132 -3.938090583798453 1.6621597299438782 -0.0070401962204342 -0.0069172983817849 -0.6590941861591323 0.7519956385455345
142 1649643464379203796 0 1317398094868017912 /camera_init /aft_mapped 111.24238479822051 -4.4326726718094855 1.6724670532442774 -0.0081582755208743 -0.0031889710270738 -0.6688206281044368 0.7433722085377558
143 1649643464487264394 0 1317398094971939087 /camera_init /aft_mapped 111.29414908506163 -4.9339519492548085 1.670017235454658 -0.0087068573351454 -8.053675622106393e-06 -0.6777254972305731 0.7352634500463465
144 1649643464596319913 0 1317398095075882912 /camera_init /aft_mapped 111.31629591379784 -5.452323535881177 1.6713907106501185 -0.0066666536329929 -0.0002217687017411 -0.686120954855408 0.7274569003427515
145 1649643464723597049 0 1317398095179825068 /camera_init /aft_mapped 111.33381233063828 -5.991681519400304 1.6813844309811092 -0.0040921955258502 -0.0031195269957513 -0.693617330205485 0.7203252888283989
146 1649643464855039834 0 1317398095283742905 /camera_init /aft_mapped 111.34201953478664 -6.54836809111199 1.7081052601174371 -0.0025917218750914 -0.0059498403937831 -0.7001091361973458 0.7140063583680588
147 1649643464998327732 0 1317398095387635946 /camera_init /aft_mapped 111.34009597229004 -7.118180037525584 1.7230210726785076 -0.0035599561338012 -0.0082683409300226 -0.7051188693647874 0.7090319748194113
148 1649643465117388248 0 1317398095595354080 /camera_init /aft_mapped 111.33844831866222 -8.357202375382007 1.7215312095496422 -0.0061799089009156 -0.0092450292324883 -0.7114609891000038 0.7026376015765959
149 1649643465237945556 0 1317398095699152946 /camera_init /aft_mapped 111.319538026439 -9.014770714824389 1.7415030373731213 -0.0032095942678071 -0.0099738273756308 -0.7123983094740758 0.7016971354727024
150 1649643465375203371 0 1317398095802953005 /camera_init /aft_mapped 111.30699346288286 -9.681842509058871 1.7612449759741584 -0.0017144655751094 -0.0101233709759205 -0.7123957414959389 0.7017028469846243
151 1649643465475914955 0 1317398095906774044 /camera_init /aft_mapped 111.30675455497472 -10.360206702561957 1.7947778707812518 -0.0018715736883595 -0.0096231594185963 -0.711709447557742 0.702405548292286
152 1649643465572000741 0 1317398096114563942 /camera_init /aft_mapped 111.31120372880322 -11.752975773241342 1.8196744563097795 -0.0037811452097198 -0.0087383199498218 -0.7107901642592929 0.7033396669445034
153 1649643465670262098 0 1317398096218507051 /camera_init /aft_mapped 111.31545936975076 -12.468712949557704 1.8351876977098245 -0.0044028144438495 -0.0085678039644018 -0.710469329763943 0.7036622339055679
154 1649643465766765832 0 1317398096322499037 /camera_init /aft_mapped 111.30765111751292 -13.207735563255168 1.856280638835238 -0.0042281720572904 -0.0084182323552222 -0.7101655225619872 0.703971722790999
155 1649643465874276161 0 1317398096426516056 /camera_init /aft_mapped 111.31465902840652 -13.966254943855873 1.875486390247136 -0.0047919958984581 -0.0070918578702482 -0.7099624587855908 0.7041875101436942
156 1649643465974645853 0 1317398096530553102 /camera_init /aft_mapped 111.31000458870628 -14.733097167711328 1.893982336085424 -0.0039960900556659 -0.0069287585187304 -0.709806427430422 0.7043513747754861
157 1649643466075655221 0 1317398096634635925 /camera_init /aft_mapped 111.30973550648972 -15.510205519676491 1.9172810928144524 -0.0028138469618364 -0.0065325160145339 -0.7099761912878764 0.7041897587327978
158 1649643466173374414 0 1317398096738749027 /camera_init /aft_mapped 111.30549986678434 -16.303660430283884 1.9336870652732223 -0.0025491899363435 -0.0055755457964151 -0.7102342235479507 0.7039387491969595
159 1649643466289179563 0 1317398096842860937 /camera_init /aft_mapped 111.31150923694877 -17.103232671625403 1.9459620921156509 -0.0031511385091995 -0.0044027488127454 -0.7107047903185408 0.7034695353370085
160 1649643466387958049 0 1317398096946971893 /camera_init /aft_mapped 111.2969266677573 -17.91245205438689 1.9576702188823076 -0.0017791076326994 -0.0040517145647087 -0.7110066778371867 0.7031713322199962
161 1649643466495528697 0 1317398097051105022 /camera_init /aft_mapped 111.28878375632227 -18.72780203965017 1.981883941743105 -0.0002055611839365 -0.0040418991413235 -0.7114004278459506 0.7027752500312812
162 1649643466591652870 0 1317398097155263901 /camera_init /aft_mapped 111.28556485961322 -19.55086173203918 1.9980270225719077 -0.0005149771148179 -0.0034246151846489 -0.7118726379000979 0.7023000457201782
163 1649643466694625139 0 1317398097259399891 /camera_init /aft_mapped 111.28734392521108 -20.380707535232407 2.02017857428475 -0.002733640090123 -0.0039017602725747 -0.7122644207038089 0.7018950765449923
164 1649643466802590370 0 1317398097363533974 /camera_init /aft_mapped 111.28055080217104 -21.211847777786357 2.0322445234457 -0.0044228710870227 -0.0053568911297885 -0.7124963041918646 0.7016414742884752
165 1649643466909867763 0 1317398097467693090 /camera_init /aft_mapped 111.27237375279763 -22.04374331607453 2.056387373046756 -0.0046664265031745 -0.0062364185576398 -0.7129120982348242 0.7012101480566898
166 1649643467009685039 0 1317398097571851015 /camera_init /aft_mapped 111.27144021446962 -22.895693385830008 2.0752113148623903 -0.0052887535950025 -0.0043775938079181 -0.7134564763642615 0.7006659133222883
167 1649643467131581544 0 1317398097675986052 /camera_init /aft_mapped 111.27082179088065 -23.751910592544604 2.095365109423994 -0.0049907251811207 -0.00199233453541 -0.7138298287144541 0.7002985783955002
168 1649643467245893716 0 1317398097780143976 /camera_init /aft_mapped 111.25680685509016 -24.60228110086665 2.114777681511885 -0.0037623214171378 0.000365270659117 -0.7138682409584594 0.7002698380380059
169 1649643467366308212 0 1317398097884330034 /camera_init /aft_mapped 111.2440234455626 -25.45517181208817 2.1261488911967 -0.0029571693427268 0.0033843111990329 -0.7138073047209708 0.7003277327895631
170 1649643467491133213 0 1317398097988487005 /camera_init /aft_mapped 111.235861601059 -26.3157729607322 2.134660901704743 -0.0034448432456173 0.0046738559905858 -0.7137601214551942 0.7003661736159585
171 1649643467624407529 0 1317398098092642069 /camera_init /aft_mapped 111.22191743684046 -27.155715762819604 2.151932035159991 -0.0048464448239732 0.0014974245502659 -0.7134499814263451 0.7006878004468411
172 1649643467740604400 0 1317398098196825981 /camera_init /aft_mapped 111.2114898288468 -27.983797211792144 2.1740586537918403 -0.0074086531558362 -0.0029403618418837 -0.7131636586746166 0.7009522537780232
173 1649643467859392404 0 1317398098301007032 /camera_init /aft_mapped 111.20391710658076 -28.80874898686002 2.1975726341985387 -0.0086117047221907 -0.0051423745504869 -0.7130715818208061 0.7010194817017096
174 1649643467985434770 0 1317398098405189037 /camera_init /aft_mapped 111.198892336914 -29.65126687234976 2.211316598194238 -0.0069340358987944 -0.0039395769431277 -0.7127460768958731 0.7013768093893649
175 1649643468104179382 0 1317398098509375095 /camera_init /aft_mapped 111.18879788639664 -30.484834256028357 2.23114262853308 -0.0033754973765392 -0.0021129319335479 -0.7124088519546055 0.7017533535315852
176 1649643468218115091 0 1317398098717755079 /camera_init /aft_mapped 111.16012668147556 -32.131681900772904 2.2758497270688207 -0.0017909684975284 -0.0017988597802813 -0.7122179936019281 0.7019537635236212
177 1649643468328567981 0 1317398098821991920 /camera_init /aft_mapped 111.15740747142148 -32.94476642481587 2.29688066320882 -0.0030250911461407 -0.0009862279979265 -0.7125678963597492 0.7015959444404846
178 1649643468431974411 0 1317398098926244974 /camera_init /aft_mapped 111.1448187585651 -33.76307461858802 2.313441498487686 -0.0039911761096619 -9.910497593843714e-05 -0.713194037156237 0.7009552953336278
179 1649643468551871061 0 1317398099030491114 /camera_init /aft_mapped 111.14250868392864 -34.55532746889143 2.328062103427798 -0.0039583154058934 0.0001127970871413 -0.7139899433158803 0.700144756360962
180 1649643468658608675 0 1317398099134756088 /camera_init /aft_mapped 111.12809042298277 -35.36514433791791 2.3509323645410354 -0.0043270671622148 0.0003835196372154 -0.7146833634705025 0.6994346426800371
181 1649643468771479368 0 1317398099238985062 /camera_init /aft_mapped 111.1183417122979 -36.16851547810592 2.3660701492296985 -0.0047749625802945 0.0006008547840562 -0.7153082642798588 0.6987924768905436
182 1649643468893932342 0 1317398099343214989 /camera_init /aft_mapped 111.10392834451054 -36.96915568645104 2.379621754626758 -0.0051133664356582 0.0014786209396248 -0.7159856325324351 0.6980947222053325
183 1649643469019178867 0 1317398099447480917 /camera_init /aft_mapped 111.08959582613436 -37.75811458747128 2.3971988257631582 -0.00457523192198 0.0017816576890748 -0.7167821099093384 0.6972799293416212
184 1649643469141803979 0 1317398099656029940 /camera_init /aft_mapped 111.05175442669704 -39.32436375088093 2.4317241557862403 -0.0049630736387035 0.0015756155258844 -0.7180387278354491 0.695983671262639
185 1649643469249423503 0 1317398099760288954 /camera_init /aft_mapped 111.0324824544482 -40.09940897471456 2.439645170360114 -0.00477412415744 0.0013468986441328 -0.7183527899132496 0.6956613133029768
186 1649643469358273029 0 1317398099864531994 /camera_init /aft_mapped 111.00753738891736 -40.87603635375567 2.4591487221570243 -0.0038973769614224 0.0013237177320794 -0.7187478921759755 0.6952586034827465
187 1649643469466425895 0 1317398099968785048 /camera_init /aft_mapped 110.98269188441304 -41.64405384921491 2.4737064981531054 -0.0036980738722575 0.001655006171363 -0.7192753531476297 0.6947132873053175
188 1649643469576956987 0 1317398100073040009 /camera_init /aft_mapped 110.96857659400024 -42.39823367190441 2.495131891209053 -0.0038770912129803 0.0021887802488725 -0.7197133279985265 0.6942570870405529
189 1649643469688454627 0 1317398100177292109 /camera_init /aft_mapped 110.94154688561449 -43.14812699603606 2.510042224307736 -0.0038883570923484 0.0030060880668293 -0.7201083427630312 0.693844232372611
190 1649643469803113460 0 1317398100281553984 /camera_init /aft_mapped 110.92069203347404 -43.88835030481722 2.524529788663339 -0.0037379363810085 0.0035052986662959 -0.7203995291493044 0.6935403803055249
191 1649643469931881189 0 1317398100385783911 /camera_init /aft_mapped 110.89710378800132 -44.59811070273175 2.534817612271419 -0.003779201741146 0.003653166141426 -0.7206149387398589 0.6933155717826422
192 1649643470062487125 0 1317398100490016937 /camera_init /aft_mapped 110.8734502848544 -45.30417161180192 2.5505125142143403 -0.0042383842910524 0.0026037102475277 -0.7206661369049648 0.6932644343322558
193 1649643470187323093 0 1317398100594274044 /camera_init /aft_mapped 110.8532639396533 -46.01093755626263 2.5689061486384333 -0.0053902212580145 0.0019374219743365 -0.7207373048599545 0.6931846285760324
194 1649643470311737537 0 1317398100698529005 /camera_init /aft_mapped 110.83294332799905 -46.70726821437904 2.5870836690632446 -0.0066215812689127 0.0019819934204079 -0.720813524668045 0.693094574368614
195 1649643470436388492 0 1317398100907084942 /camera_init /aft_mapped 110.78369835615176 -48.09172266741774 2.61637366045449 -0.006120218884612 0.0011178865744585 -0.7208393788347981 0.6930742263073079
196 1649643470556394577 0 1317398101011372089 /camera_init /aft_mapped 110.76902745048092 -48.78399134851249 2.637520529928569 -0.0058792632491383 0.0012904529778603 -0.7209532682878472 0.6929575412244466
197 1649643470666736602 0 1317398101115647078 /camera_init /aft_mapped 110.74427331180102 -49.466587691072526 2.653364969299988 -0.0069038223685185 0.0021582416052842 -0.721131506534557 0.692760441648538
198 1649643470781830310 0 1317398101324193954 /camera_init /aft_mapped 110.69810386835944 -50.82319912754984 2.681572237376833 -0.0069269079533664 0.0029820971294735 -0.7209844249181155 0.692910228001009
199 1649643470903725624 0 1317398101428493977 /camera_init /aft_mapped 110.67863932542588 -51.51144618355738 2.696578752266397 -0.0069152632345342 0.0034995529241918 -0.7214145092798859 0.6924601346389475
200 1649643471025713682 0 1317398101532847881 /camera_init /aft_mapped 110.6679775588257 -52.1874533113217 2.717317992642156 -0.007987506158157 0.0051027639387965 -0.7226465656876708 0.6911527346725709
201 1649643471126466751 0 1317398101637172937 /camera_init /aft_mapped 110.64539708345228 -52.84797932669469 2.728214084896728 -0.0083236112167711 0.0052303730544984 -0.7244759215997876 0.6892300049447654
202 1649643471223653793 0 1317398101741498947 /camera_init /aft_mapped 110.60313259157896 -53.50905241251024 2.738855518221325 -0.0088069780187252 0.0032803000664875 -0.7264516323127851 0.6871533327283958
203 1649643471317033767 0 1317398101845822096 /camera_init /aft_mapped 110.55872656466376 -54.1750948779811 2.752038246622236 -0.0089813353785262 0.0016621105330325 -0.7287921360455589 0.684674079720816
204 1649643471415051937 0 1317398101950124979 /camera_init /aft_mapped 110.51276450192331 -54.861900622552376 2.775647205345784 -0.0099016485246155 0.0018051504915917 -0.7312603185792103 0.6820242262996453
205 1649643471509419679 0 1317398102054405928 /camera_init /aft_mapped 110.47502302880548 -55.54236580473121 2.7894467872413444 -0.0110225156490494 0.0032965376047555 -0.7334079394767331 0.6796914235894694
206 1649643471602558612 0 1317398102158694983 /camera_init /aft_mapped 110.42289337257208 -56.22701068530785 2.800630525802557 -0.0110827856745375 0.0041319819308891 -0.735151588790506 0.6777995574547168
207 1649643471696223735 0 1317398102262949944 /camera_init /aft_mapped 110.37019940820434 -56.918804683313446 2.8245781479529537 -0.011511103600611 0.0042434672060598 -0.7366448828519441 0.676168473124866
208 1649643471786587715 0 1317398102367181063 /camera_init /aft_mapped 110.31546556857826 -57.60762269165593 2.8330946638036134 -0.0122395702938595 0.0052249106710786 -0.7379715566589652 0.6747005815840421
209 1649643471897763252 0 1317398102471409082 /camera_init /aft_mapped 110.2522312196278 -58.30937843600599 2.84256265587189 -0.0112209050532724 0.0062389659615578 -0.7389093813099049 0.6736824866402046
210 1649643472042162895 0 1317398102575632095 /camera_init /aft_mapped 110.1867627316005 -59.02029870619243 2.8592492187321605 -0.0095026827285127 0.0067290188684807 -0.7395289378135314 0.6730240482051284
211 1649643472173185348 0 1317398102679862976 /camera_init /aft_mapped 110.12569979495277 -59.73322069550322 2.878401849801973 -0.0080086396367 0.0073288882055777 -0.7400701967416523 0.6724420071527446
212 1649643472278343439 0 1317398102784076929 /camera_init /aft_mapped 110.06116506129756 -60.45836427766274 2.8758897807382517 -0.0079749759105006 0.0071185875929896 -0.7404315919895733 0.6720467119581004
213 1649643472386870384 0 1317398102888307095 /camera_init /aft_mapped 109.99161572331596 -61.19048964812409 2.8930738132574634 -0.0081926054951318 0.0049865903102809 -0.7405714520831854 0.6719091750316263
214 1649643472512350320 0 1317398102992527962 /camera_init /aft_mapped 109.90642082753358 -61.916280676353495 2.89426131490104 -0.0078369340549006 0.0016764536611091 -0.7405805447620403 0.67191980822692
215 1649643472652080059 0 1317398103096735954 /camera_init /aft_mapped 109.82979831092008 -62.65859496759109 2.919653890197699 -0.0068543966979986 -0.0019421495732511 -0.7407965374191138 0.6716916967246157
216 1649643472793264150 0 1317398103200953007 /camera_init /aft_mapped 109.75732836338588 -63.40301662122642 2.935227054030016 -0.0072667572915284 -0.0022632012591715 -0.7411017449882149 0.6713495927860159
217 1649643472941392660 0 1317398103305160999 /camera_init /aft_mapped 109.69458323410063 -64.15512862215547 2.9577990274919985 -0.0073142843623311 -0.0004335578256931 -0.7412070800495638 0.6712364544303879
218 1649643473080665588 0 1317398103513622999 /camera_init /aft_mapped 109.54958181568404 -65.65270073085354 2.985764466227891 -0.003926857273945 0.0010771847365113 -0.7412589047145184 0.6712068650173552
219 1649643473243770837 0 1317398103617845058 /camera_init /aft_mapped 109.47907091942812 -66.3988758254406 2.9993987650668754 -0.0037186590309623 0.0010051233772359 -0.7416718725890076 0.6707518130518344
220 1649643473370342731 0 1317398103826351881 /camera_init /aft_mapped 109.34605296507924 -67.87536706107758 3.03146308131807 -0.0047501837066082 0.0009275590093182 -0.7429598023420412 0.6693185396303563
221 1649643473494581222 0 1317398103930605888 /camera_init /aft_mapped 109.27087245985196 -68.62153358719777 3.042545336133741 -0.0045202504861429 0.0006655621619194 -0.7436677627909023 0.6685337560274167
222 1649643473614773988 0 1317398104034859896 /camera_init /aft_mapped 109.19311637143792 -69.38113890436088 3.058100325439798 -0.0047071970295898 0.0006731976140364 -0.7442740638277738 0.667857400209347
223 1649643473733939647 0 1317398104243380070 /camera_init /aft_mapped 109.03475546243008 -70.86386930702442 3.08619367280919 -0.0052206350629761 0.0009024894954994 -0.7454162068531481 0.6665782842569314
224 1649643473858065605 0 1317398104347630024 /camera_init /aft_mapped 108.9564076402262 -71.61814322487938 3.1075249568093164 -0.0057918866688777 0.0006637383346966 -0.7457154094289474 0.6662391024553087
225 1649643474001144886 0 1317398104451884985 /camera_init /aft_mapped 108.87729478958852 -72.39702531262968 3.1227089047677508 -0.0061538935133999 0.0007756179737436 -0.7460155087294267 0.665899683696095
226 1649643474130429744 0 1317398104556132078 /camera_init /aft_mapped 108.79389214094212 -73.15947702051267 3.140446998944983 -0.0062478595132118 0.0007860628779654 -0.7464380869263044 0.6654250737253998
227 1649643474275600194 0 1317398104660388947 /camera_init /aft_mapped 108.7038244508264 -73.93569842565405 3.158756633602695 -0.0056297209219741 0.0012086662993712 -0.7467952789572486 0.6650290645492741
228 1649643474421188592 0 1317398104868918896 /camera_init /aft_mapped 108.53871473477602 -75.51223609186587 3.182725735797584 -0.0056730387047018 0.0040498025464585 -0.7477106952024327 0.663988051105654
229 1649643474601610660 0 1317398104973186016 /camera_init /aft_mapped 108.44709284916956 -76.30582093030421 3.1899293675032654 -0.0054962679187684 0.0041380715379835 -0.7484589265590683 0.6631454611598868
230 1649643474741827011 0 1317398105077466011 /camera_init /aft_mapped 108.35784357146514 -77.09634088941999 3.2078217345492166 -0.0049487654792679 0.0036224768936329 -0.7491254168077714 0.6623998016862391
231 1649643474868556976 0 1317398105285964012 /camera_init /aft_mapped 108.16158725836776 -78.69045316401379 3.222128803526945 -0.0065776701053859 0.001609265970244 -0.7501635524935393 0.6612176563199855
232 1649643474984447240 0 1317398105390229940 /camera_init /aft_mapped 108.05947408614117 -79.49938892090799 3.2349492147655874 -0.0071084618506483 -0.0003062333922869 -0.7503418624751028 0.6610116983901428
233 1649643475114816665 0 1317398105598742962 /camera_init /aft_mapped 107.84945074148987 -81.12991388555534 3.277070544233664 -0.0075730976555693 -0.0028553387234568 -0.7505511115441912 0.6607628350569156
234 1649643475248092412 0 1317398105702996016 /camera_init /aft_mapped 107.7397091676078 -81.96452348727324 3.306706653188769 -0.0059229965818172 -0.003739254516207 -0.7504712686966316 0.6608659553555645
235 1649643475376830577 0 1317398105807250023 /camera_init /aft_mapped 107.63164289361704 -82.80496595846891 3.324180442552371 -0.0051292244249042 -0.0033051543562497 -0.7503644357909546 0.6609962030992331
236 1649643475504766464 0 1317398105911478043 /camera_init /aft_mapped 107.53513519753332 -83.64339517173241 3.3458573229459123 -0.0046678852083718 -0.0027952017273895 -0.7500287232476384 0.6613828785193203
237 1649643475637110948 0 1317398106119962931 /camera_init /aft_mapped 107.32463222428478 -85.33647181987466 3.377680902263949 -0.0028886989877188 -0.0007675798643 -0.7489369688954424 0.6626345017134391
238 1649643475759075641 0 1317398106224193096 /camera_init /aft_mapped 107.22430952078317 -86.19421343433967 3.3939091488314967 -0.0016017553543958 0.0002802458210781 -0.7483866253514789 0.663260744230419
239 1649643475902694702 0 1317398106328866959 /camera_init /aft_mapped 107.1275633946944 -87.04790667248243 3.408508917896532 -0.0018773374806004 0.0005072507562934 -0.7478369682378427 0.6638795728424591
240 1649643476028777360 0 1317398106433121920 /camera_init /aft_mapped 107.02619210422282 -87.89046288228374 3.420302916867576 -0.0025991639024022 -0.001669891783079 -0.747298972316099 0.6644807760829078
241 1649643476157388448 0 1317398106641168118 /camera_init /aft_mapped 106.83886182685748 -89.59636386601852 3.471466413519728 -0.0067308312536861 -0.003446604643324 -0.7462601287394223 0.6656114760736086
242 1649643476286029577 0 1317398106745405912 /camera_init /aft_mapped 106.74846167032284 -90.4628707824727 3.483726702676697 -0.0065307514331626 -0.0024293542820976 -0.7457934548158294 0.6661408036424129
243 1649643476416111946 0 1317398106849661112 /camera_init /aft_mapped 106.65798006685698 -91.33412940881 3.5121135757643698 -0.0052864327902421 -0.0017604528646705 -0.7454387213753085 0.6665508736086173
244 1649643476540938138 0 1317398106953926086 /camera_init /aft_mapped 106.56334410869653 -92.1927357365901 3.5269795353383504 -0.0043730123035497 -0.0014992244014463 -0.7452447245745553 0.6667750217152578
245 1649643476656975269 0 1317398107162436008 /camera_init /aft_mapped 106.3824283784762 -93.92860386126212 3.5770238708071305 -0.0045082464697539 -0.0008530530910886 -0.7448736712082636 0.6671897495877132
246 1649643476764317750 0 1317398107266690016 /camera_init /aft_mapped 106.28350366581972 -94.80440868479197 3.5839318172381143 -0.0033742535186083 -0.0009766933740513 -0.7446091210986973 0.6674915110021032
247 1649643476868234157 0 1317398107370944977 /camera_init /aft_mapped 106.18829164924868 -95.68091050029922 3.607869225609415 -0.0022832112820473 -0.0015032255081411 -0.7442789905610404 0.6678632430885473
248 1649643476972005844 0 1317398107475200891 /camera_init /aft_mapped 106.0995822866429 -96.54219458508015 3.627641628595208 -0.0015543909230472 -0.0028010362469377 -0.7440956307887503 0.6680654386404774
249 1649643477079915046 0 1317398107579457045 /camera_init /aft_mapped 106.00582790416334 -97.39619221710647 3.649973363768853 -0.0015843792746517 -0.0043947453189133 -0.7437874221768414 0.6683999151461834
250 1649643477190216302 0 1317398107683712959 /camera_init /aft_mapped 105.92384784101267 -98.2568179536381 3.675473501179833 -0.0038707557675525 -0.0023679465478985 -0.7435890818336741 0.6686214829458351
251 1649643477298874139 0 1317398107787988901 /camera_init /aft_mapped 105.84889952236182 -99.1160051382988 3.6860068109178106 -0.0040444669202836 -0.0002833283387388 -0.7434951837939218 0.6687289986890246
252 1649643477408994913 0 1317398107892277956 /camera_init /aft_mapped 105.77401163697232 -99.96949375671076 3.710929599416589 -0.0051062718799692 0.002428430122675 -0.743523273653819 0.6686861522790307
253 1649643477521210193 0 1317398107996546984 /camera_init /aft_mapped 105.6962754255132 -100.81321810884472 3.724311867466828 -0.0061613326961951 0.0026835195236817 -0.7439161371124033 0.6682391919411287
254 1649643477636654615 0 1317398108100824118 /camera_init /aft_mapped 105.61826932244222 -101.64459223484664 3.74607257811404 -0.0086635800030097 0.0021015886654389 -0.74425032054066 0.6678412880930154
255 1649643477747156620 0 1317398108205084085 /camera_init /aft_mapped 105.5311104921926 -102.48550121395996 3.761428878803392 -0.0102278259898436 0.0019610534394 -0.7444635558606137 0.667581875008826
256 1649643477868140697 0 1317398108309329033 /camera_init /aft_mapped 105.44126172744146 -103.31877753337857 3.7850969013184046 -0.0099686545317948 0.0015417404634997 -0.7446045405281964 0.6674296421256419
257 1649643477988774061 0 1317398108517808914 /camera_init /aft_mapped 105.27225056315136 -104.97224157583152 3.8269449901071737 -0.0091070324258575 0.0004245390211515 -0.7450255426291549 0.6669736295815204
258 1649643478106409311 0 1317398108622096062 /camera_init /aft_mapped 105.18728722697864 -105.79672184710388 3.8540846776101336 -0.0095352691632594 -0.0007107226396302 -0.745250962187421 0.6667155141992999
259 1649643478238921403 0 1317398108726353884 /camera_init /aft_mapped 105.1032790351491 -106.61336945638894 3.882440453823367 -0.0100491835067182 -0.0011431986800907 -0.7454102494843186 0.6665292694033415
260 1649643478358548164 0 1317398108830606937 /camera_init /aft_mapped 105.02431208555755 -107.4289594490108 3.908159662685777 -0.0110121646278382 -0.0002709736429235 -0.7458325834658094 0.6660423531910045
261 1649643478485017776 0 1317398108934859991 /camera_init /aft_mapped 104.94140350159468 -108.22632327038208 3.9322210203796417 -0.0111018146407767 0.0003767197020025 -0.7466225913308345 0.6651551051509548
262 1649643478602106094 0 1317398109039139986 /camera_init /aft_mapped 104.85044699709744 -109.02552508187402 3.956317269482307 -0.0116195978253071 0.0002093024444084 -0.7476030522008748 0.6640441382007684
263 1649643478719958543 0 1317398109247685909 /camera_init /aft_mapped 104.67165315531238 -110.59254056380172 4.014259218863122 -0.0137438929598338 -0.0001808421771356 -0.7497395913161655 0.6615902190294871
264 1649643478836452245 0 1317398109351977110 /camera_init /aft_mapped 104.58032506367924 -111.36912120187866 4.041569166689095 -0.0134649910325257 -0.000468028721071 -0.7508909690394733 0.6602887456110176
265 1649643478952862501 0 1317398109456233025 /camera_init /aft_mapped 104.47850025863455 -112.14722354105731 4.065147436484303 -0.012720757407705 -0.0004632788307483 -0.751850832240163 0.6592103562319646
266 1649643479067665100 0 1317398109560472012 /camera_init /aft_mapped 104.3741146520966 -112.92118565763104 4.095984053343074 -0.0126266219508166 -0.0011430310297953 -0.7526730779311571 0.6582723597841659
267 1649643479187328815 0 1317398109664726019 /camera_init /aft_mapped 104.28124792813256 -113.68983107599544 4.127197672743429 -0.015921672237222 -0.0011495689874151 -0.753119814646627 0.6576896864258581
268 1649643479302195310 0 1317398109769009113 /camera_init /aft_mapped 104.19142416411776 -114.4564794043004 4.1594073763692085 -0.0189035414644956 -0.0028658179850208 -0.7537253863067424 0.6569113222072893
269 1649643479429919958 0 1317398109873294115 /camera_init /aft_mapped 104.07954157573296 -115.21867312018465 4.186601920538129 -0.0185416641177847 -0.0051519748521287 -0.7546999427917569 0.6557878164444544
270 1649643479559920787 0 1317398109977560043 /camera_init /aft_mapped 103.97618309767807 -115.98885172243952 4.228960964612242 -0.0169716110055008 -0.0047019512429844 -0.7558133982228077 0.6545501990995635
271 1649643479679172039 0 1317398110186005116 /camera_init /aft_mapped 103.754217680412 -117.51595973289857 4.291714767853376 -0.0144676394078836 -0.0011890622918918 -0.7574355969787158 0.652748489060163
272 1649643479796643018 0 1317398110290260077 /camera_init /aft_mapped 103.64470555477718 -118.26878222131992 4.324159461709964 -0.0155937083687539 -0.0019298786204563 -0.7580249565404946 0.6520362544288482
273 1649643479918962955 0 1317398110394514084 /camera_init /aft_mapped 103.54328782462495 -119.0207504583386 4.362537366145615 -0.0178117859033005 -0.0017028216296572 -0.7589416763676896 0.6509127226853333
274 1649643480059485435 0 1317398110498740911 /camera_init /aft_mapped 103.42848362206908 -119.7685602118136 4.382630115373217 -0.0188798016597186 -0.0028771613611465 -0.7597026066991076 0.6499901725459952
275 1649643480193867444 0 1317398110602972984 /camera_init /aft_mapped 103.30559294367552 -120.51109643617576 4.416343701658321 -0.0193327795475897 -0.0053267711144955 -0.7602977276885322 0.6492651495468647
276 1649643480335184097 0 1317398110811491966 /camera_init /aft_mapped 103.0847886539306 -121.97020875694746 4.497201554228289 -0.0218916734490418 -0.0067406974550902 -0.761918822777394 0.6472673521265613
277 1649643480464858293 0 1317398110915747881 /camera_init /aft_mapped 102.96964632680655 -122.71065775614636 4.533645401113335 -0.0209110035943192 -0.0061960398020936 -0.762759369471314 0.6463145389848295
278 1649643480600113630 0 1317398111020029068 /camera_init /aft_mapped 102.84655481783048 -123.43775599668356 4.570949896378533 -0.018106312299743 -0.0064048647970981 -0.7642743293889384 0.6446052191837448
279 1649643480729484319 0 1317398111124346018 /camera_init /aft_mapped 102.72554646145768 -124.16531974567896 4.618710683475738 -0.016796269795741 -0.006187525936741 -0.7661313537427699 0.642434703807322
280 1649643480819192647 0 1317398111332959890 /camera_init /aft_mapped 102.47315121446258 -125.60088602766226 4.689126438539238 -0.0170586316389813 -0.0054233348499651 -0.7711494573894854 0.6364024708418511
281 1649643480905169010 0 1317398111437273026 /camera_init /aft_mapped 102.33896302444272 -126.31345689180878 4.721424048042655 -0.0175694441731779 -0.0053006141200511 -0.7746921960052812 0.6320721632613722
282 1649643480991196155 0 1317398111541614056 /camera_init /aft_mapped 102.18737256559076 -127.02152241478456 4.7599338623930265 -0.0179288668302865 -0.0056960925258716 -0.7785542023288655 0.6272953565109363
283 1649643481072666645 0 1317398111645953894 /camera_init /aft_mapped 102.0260975154967 -127.73059394434932 4.795027699908291 -0.017695345356 -0.006259725740597 -0.7825893920724653 0.6222552000602596
284 1649643481173963069 0 1317398111750279903 /camera_init /aft_mapped 101.85739262441538 -128.4376144876535 4.829268750317532 -0.016792869827096 -0.0069995504335608 -0.786388129706563 0.6174647482029334
285 1649643481266185998 0 1317398111854620934 /camera_init /aft_mapped 101.67273138236489 -129.14149783328867 4.867797784011838 -0.0157001879547807 -0.0077871183588878 -0.789827030915981 0.6130792168393048
286 1649643481371448755 0 1317398111958947897 /camera_init /aft_mapped 101.4804884755748 -129.83238439258582 4.904914520786107 -0.0143616404063447 -0.0089628286436098 -0.7929754782957793 0.6090183099128664
287 1649643481474175214 0 1317398112063227892 /camera_init /aft_mapped 101.28106121919016 -130.5209357972625 4.93525179387366 -0.0124150525941807 -0.010585458802425 -0.7957920463110244 0.6053501743281637
288 1649643481580274581 0 1317398112167484045 /camera_init /aft_mapped 101.07345416940566 -131.21750914331724 4.972843929311595 -0.0108868212920857 -0.0118703991908169 -0.7981894270465031 0.6021911733796669
289 1649643481686630487 0 1317398112271711111 /camera_init /aft_mapped 100.87327426201202 -131.90088147714 5.01276228016579 -0.0104593351981652 -0.0118146000449817 -0.8000827824034814 0.5996820481175777
290 1649643481789331674 0 1317398112375890017 /camera_init /aft_mapped 100.66696958071869 -132.58582726718356 5.039119096395037 -0.0084861090977807 -0.0120779074209894 -0.8014500521096534 0.5978795230463613
