 %time field.transforms0.header.seq field.transforms0.header.stamp field.transforms0.header.frame_id field.transforms0.child_frame_id field.transforms0.transform.translation.x field.transforms0.transform.translation.y field.transforms0.transform.translation.z field.transforms0.transform.rotation.x field.transforms0.transform.rotation.y field.transforms0.transform.rotation.z field.transforms0.transform.rotation.w
6 1317379361892465237 0 1317379361900998115 world base_link 0.0 0.0 0.0 0.0109350537848738 0.0043334447197907 -0.2167516152033228 0.976155921542421
17 1317379361997580123 0 1317379362001003026 world base_link 0.4746550067793578 -0.2296424773521721 -0.0008850097649997 0.0104230250411891 0.0042294368839572 -0.2172264590861862 0.9760564214662556
28 1317379362098637764 0 1317379362101006984 world base_link 0.9493100135587156 -0.4592849421314895 -0.0017700195299994 0.0099108925618244 0.0041259294718112 -0.2177013929085337 0.9759563793737434
39 1317379362199745153 0 1317379362201011896 world base_link 1.4239650203380734 -0.6889274008572102 -0.0026550292949991 0.0093986569155746 0.0040229226737814 -0.2181764161023647 0.9758557950835112
50 1317379362300796174 0 1317379362301017045 world base_link 1.8986200268846003 -0.9185698465444148 -0.0035400390599988 0.0088863186715093 0.0039204166796623 -0.2186515280994057 0.9757546684148228
60 1317379362392002549 0 1317379362401021003 world base_link 2.373275033547543 -1.148212286643684 -0.0044250488249986 0.0083738783989712 0.0038184116786139 -0.2191267283311104 0.975652999187578
71 1317379362494471683 0 1317379362501025915 world base_link 2.847930040443316 -1.377854710444808 -0.0053100585899983 0.0078613366675758 0.0037169078591614 -0.2196020162286602 0.9755507872223124
82 1317379362595645823 0 1317379362601031064 world base_link 3.3225850471062586 -1.6074971281923354 -0.006195068354998 0.0073486940472104 0.0036159054091947 -0.2200773912229659 0.9754480323401992
93 1317379362696771899 0 1317379362701035976 world base_link 3.797240053885616 -1.8371395389549436 -0.0070800781199977 0.0068359511080339 0.0035154045159683 -0.2205528527446673 0.9753447343630492
104 1317379362797914173 0 1317379362801039934 world base_link 4.271895060548559 -2.0667819380760197 -0.0079650878849975 0.0063231084204753 0.0034154053661004 -0.2210284002241349 0.9752408931133104
115 1317379362898999093 0 1317379362901045083 world base_link 4.746550067327917 -2.296424326486885 -0.0088500976499972 0.0058101665552337 0.0033159081455734 -0.2215040330914698 0.97513650841407
126 1317379363000093248 0 1317379363001049995 world base_link 5.221205074107274 -2.5260667065158486 -0.0097351074149969 0.0052971260832773 0.0032169130397325 -0.221979750776505 0.975031580089052
136 1317379363091353010 0 1317379363101053953 world base_link 5.695860080653802 -2.7557090767659247 -0.0106201171799966 0.0047839875758424 0.0031184202332863 -0.2224555527088057 0.9749261079626202
147 1317379363194294816 0 1317379363201059103 world base_link 6.170515087433159 -2.98535143956542 -0.0115051269449963 0.0042707516044332 0.0030204299103059 -0.2229314383176707 0.9748200918597776
158 1317379363295307051 0 1317379363301064014 world base_link 6.645170094096102 -3.2149937939830124 -0.0123901367099961 0.0037574187408206 0.0029229422542244 -0.2234074070321321 0.9747135316061656
168 1317379363386434911 0 1317379363391201972 world base_link 7.069759486359544 -3.4191771033219998 -0.0140151977399938 0.0033148404813151 0.0027799082233586 -0.2237035691884158 0.9746476271326048
180 1317379363497660983 0 1317379363501072883 world base_link 7.594480107654817 -3.674278467427939 -0.0141601562399955 0.0027304646253993 0.0027294756733012 -0.2243595914926477 0.9744987779524048
191 1317379363598839283 0 1317379363601013898 world base_link 8.076503097312525 -3.909075716510415 -0.0124816894399941 0.0020441771669893 0.0028265619324195 -0.2256978192899202 0.97419111382476
203 1317379363710046557 0 1317379363711024999 world base_link 8.612306956551038 -4.17277091415599 -0.0106811523299938 0.0015486036366767 0.0028374574910827 -0.2276511384286774 0.9737373926443876
214 1317379363811059655 0 1317379363811176061 world base_link 9.104241076856852 -4.417633754666895 -0.0093612670799956 0.0014375878454601 0.0026544092927386 -0.2295122868300024 0.9733010827316264
224 1317379363902120557 0 1317379363911164999 world base_link 9.602779547334649 -4.669123309664428 -0.0093002319199939 0.001524374703308 0.0024040935608083 -0.2318342292936052 0.9727511432754808
236 1317379364015351158 0 1317379364021085023 world base_link 10.158406230504625 -4.95138721819967 -0.0087738036999951 0.0012923357272449 0.0025106973064866 -0.2348708528245301 0.9720224836704556
247 1317379364116227177 0 1317379364120985984 world base_link 10.668635375564918 -5.21646517328918 -0.0084457397299928 0.001449092929663 0.0027698947559657 -0.2377520806687771 0.9713208408916127
259 1317379364227425318 0 1317379364230993986 world base_link 11.234594309004024 -5.514540190808475 -0.008399963369996 0.001328802287124 0.0024964654319954 -0.2408205879388274 0.9705655291476336
270 1317379364328635509 0 1317379364330990076 world base_link 11.756006249808706 -5.793377081397921 -0.0079956054599961 0.0020757707904185 0.0018605345167758 -0.2438201716336231 0.9698164535062744
281 1317379364429765352 0 1317379364431184053 world base_link 12.285112432786264 -6.080107731744647 -0.0075073242099961 0.0025282800489413 0.0015332720862181 -0.2466496779810681 0.9691001977239192
292 1317379364541014039 0 1317379364541043996 world base_link 12.87723515869584 -6.403362473007292 -0.0081481933499958 0.0013471529830039 0.0009784834227924 -0.2498165951198096 0.9682917414456124
303 1317379364631989176 0 1317379364641007900 world base_link 13.426164976553991 -6.704709321726114 -0.0075988769399941 -0.0008949649403405 -7.465749595383297e-06 -0.2528331533426852 0.967509480859393
315 1317379364744544905 0 1317379364750988006 world base_link 14.039246333297342 -7.051533672958612 -0.004295349109995 8.588781109015202e-05 -0.00057046864715 -0.2558797798100186 0.9667084387100296
326 1317379364845780079 0 1317379364850994110 world base_link 14.604363276157528 -7.382476959843188 -0.0018997192299963 0.0038389690107887 -0.0001821482327421 -0.2580066446308892 0.9661354979842454
337 1317379364946997903 0 1317379364951062917 world base_link 15.180473425076343 -7.720952647272497 0.0015869140700033 0.0069976325566225 0.0005173200003561 -0.2602320912490897 0.965520597503101
349 1317379365058197885 0 1317379365060981988 world base_link 15.83100193622522 -8.097706247121096 0.0084381103600037 0.0070071947553561 0.0027993795184831 -0.2625673581804555 0.9648841615002852
360 1317379365159216296 0 1317379365160985946 world base_link 16.432426815037616 -8.447882333304733 0.0082702636800036 0.0078759806037472 0.0032952213439723 -0.2637065244357547 0.9645651763441588
372 1317379365270673373 0 1317379365270961046 world base_link 17.10463217261713 -8.847183277830482 -8.392332999562768e-05 0.0094935558973998 0.0010050442594213 -0.2637649103026484 0.9645397526154612
382 1317379365361809859 0 1317379365370971918 world base_link 17.72706780617591 -9.218755221925676 -0.004295349109995 0.0122411365345556 -0.0005670443744164 -0.2628875662630627 0.9647486514845736
393 1317379365465019749 0 1317379365470994949 world base_link 18.364283033646643 -9.59579837275669 -0.0074920654199956 0.0135466831006907 -0.0013546544752184 -0.2606319089108557 0.9653422503680782
405 1317379365576446187 0 1317379365581047058 world base_link 19.0832453033654 -10.012351836077867 -0.0091400146399962 0.0134866835368453 -0.0012160770495375 -0.2568573271985593 0.966354460841465
416 1317379365677712975 0 1317379365680965900 world base_link 19.75358123157639 -10.392927093431354 -0.0099487304599961 0.013600948568232 -0.0004056772772033 -0.2525536206186431 0.9674872186940796
428 1317379365788867179 0 1317379365790999889 world base_link 20.507252797018737 -10.813316775020212 -0.0105438232299945 0.0140034115608923 0.0007595801828465 -0.2475894464343961 0.9687635384947718
439 1317379365889945325 0 1317379365891130924 world base_link 21.206232495605946 -11.192789250984788 -0.0089416503799952 0.0138467910254491 0.0025295065006566 -0.2432398291863881 0.9698640386531184
450 1317379365991125653 0 1317379365991208076 world base_link 21.91458081861492 -11.569310625549406 -0.0095520019399941 0.0139273732188649 0.0037332029180722 -0.2395012259283458 0.9707889854391708
461 1317379366092211595 0 1317379366100954055 world base_link 22.698281491873782 -11.979396177455785 -0.0137481689299931 0.0134419198613889 0.0044516049249215 -0.2358402003629603 0.9716886836311264
472 1317379366194792832 0 1317379366200953006 world base_link 23.413397725322284 -12.34809977049008 -0.0167617797699932 0.0129642024688942 0.0048959200581718 -0.2331561874349755 0.9723405533463654
483 1317379366295869608 0 1317379366301018953 world base_link 24.129256157903 -12.71421984024346 -0.0193252563399966 0.0124315402275563 0.0050975598860313 -0.2306682803285541 0.9729396775448343
495 1317379366407106078 0 1317379366411014080 world base_link 24.917195079498924 -13.116379713173956 -0.0228652953999954 0.0122355689376597 0.0050288932765794 -0.2280905709824034 0.9735500462298308
506 1317379366508230857 0 1317379366510977029 world base_link 25.63396996667143 -13.476614400278777 -0.0258026122899934 0.0122048415903211 0.0050617492787139 -0.2258248929004078 0.9740783019257302
518 1317379366619518679 0 1317379366620934009 world base_link 26.423123140470125 -13.868434999603778 -0.0290222167899969 0.0117734736323125 0.0054372668910832 -0.2235512714131232 0.9746058949631696
529 1317379366720612153 0 1317379366720974922 world base_link 27.14024366089143 -14.218333872035146 -0.0311965942299963 0.0112566975116705 0.0060128746099161 -0.2218778752667744 0.9749909438385352
539 1317379366811494465 0 1317379366820951938 world base_link 27.856404894962907 -14.568665416445585 -0.0347137451099968 0.0103973445564225 0.0066222751581612 -0.220575672727618 0.9752919631057476
551 1317379366924531449 0 1317379366931170940 world base_link 28.64187443139963 -14.946747705806049 -0.0385055541899959 0.009565465404262 0.0070587381713086 -0.2197901523145697 0.9754747382851936
562 1317379367025826895 0 1317379367030919075 world base_link 29.3530715306988 -15.28592301812023 -0.0416717529199957 0.0091802121800517 0.0068636721227006 -0.2193927099665851 0.9755692966277892
574 1317379367137203196 0 1317379367141021966 world base_link 30.128675521933477 -15.653730942402037 -0.045516967759994 0.0080395692628406 0.0065583755032258 -0.2190249545528346 0.9756640929746032
585 1317379367238468669 0 1317379367240952968 world base_link 30.828220468363725 -15.98783785291016 -0.0511398315299942 0.007039285276496 0.0065738467424743 -0.2188396472014979 0.9757132989841464
596 1317379367339476007 0 1317379367340971946 world base_link 31.519598856568336 -16.316709737759084 -0.0540390014499934 0.0062423105627789 0.0071271612025006 -0.2185111697688959 0.975788453415114
607 1317379367450983394 0 1317379367450998067 world base_link 32.27016002498567 -16.67230431875214 -0.0546417236199943 0.0054253842311191 0.007654083781512 -0.218184601248881 0.9758624185740924
618 1317379367542121618 0 1317379367550960063 world base_link 32.94187094597146 -16.98688990995288 -0.0544738769399941 0.0048272739282972 0.007940012972397 -0.2180016726810939 0.9759041573477718
630 1317379367654476405 0 1317379367660957098 world base_link 33.66759068670217 -17.325998421292752 -0.0544738769399941 0.0038236143692944 0.0080253739800843 -0.2177486916184058 0.9759643849260624
641 1317379367755720086 0 1317379367760936021 world base_link 34.31361331604421 -17.629130121320486 -0.0542755126799932 0.0029605009330782 0.0085038022181207 -0.2177285462352532 0.9759678278182858
652 1317379367857008998 0 1317379367860981941 world base_link 34.94712068897206 -17.925688303541392 -0.0532913207899952 0.0015711693246455 0.008920371480542 -0.2179036249167137 0.9759282599903328
664 1317379367968261116 0 1317379367970974922 world base_link 35.630355757661164 -18.24384749727324 -0.0526962280199967 -0.0001434801618009 0.0092931984390562 -0.2186692656523528 0.9757547684409624
675 1317379368069464559 0 1317379368070926904 world base_link 36.24170358025003 -18.528544482775036 -0.0527343749899955 -0.001255368821854 0.0090047364954118 -0.2199900181463672 0.9754597534935668
687 1317379368180733423 0 1317379368180984973 world base_link 36.90209689876065 -18.83991740923375 -0.0518722534099964 -0.002218542638263 0.0086726952214854 -0.2219395242448421 0.975019338271878
697 1317379368271609869 0 1317379368280926942 world base_link 37.49130077497102 -19.120708064176146 -0.0499725341699957 -0.002283954851271 0.0089232959591822 -0.2243270873331946 0.974470377296338
708 1317379368374608601 0 1317379368380903005 world base_link 38.06761059514247 -19.397085349075496 -0.0491104125899966 -0.002694473008959 0.0091548973104485 -0.2268373823253907 0.9738858914935588
720 1317379368485780590 0 1317379368491082906 world base_link 38.68485798628535 -19.697339225094765 -0.0470428466699957 -0.0029006032065375 0.0095633245841836 -0.2300461745662873 0.9731284020576898
731 1317379368587021116 0 1317379368591033935 world base_link 39.23098955198657 -19.966200216207653 -0.0446777343599933 -0.0027375256651334 0.0098066201773663 -0.2334544898761284 0.9723144230703392
743 1317379368698169428 0 1317379368700989007 world base_link 39.81728567555547 -20.262903433758765 -0.0440902709799928 -0.0027890546180609 0.0099303691809827 -0.237935977575634 0.9712260702418332
754 1317379368799394123 0 1317379368800926923 world base_link 40.339732527849264 -20.5295741930604 -0.0442962646399962 -0.0032436967645918 0.0098830670651867 -0.2427411196838525 0.9700353355580992
765 1317379368900421370 0 1317379368901004076 world base_link 40.85105887055397 -20.79732484230772 -0.0439224242999927 -0.0033562052857741 0.0099058112020516 -0.2484078688276431 0.9685990612709768
776 1317379369012786792 0 1317379369010952949 world base_link 41.3998392712092 -21.09197740862146 -0.0410766601399927 -0.0028313337806443 0.0099399648109004 -0.2548696396094737 0.9669201867030792
787 1317379369103748809 0 1317379369110913038 world base_link 41.884794486803 -21.362580252811316 -0.0415496826099968 -0.0024605980187014 0.0096400967101274 -0.2609373609159565 0.9653044637165134
799 1317379369215044580 0 1317379369220933914 world base_link 42.40581583720632 -21.65930242696777 -0.0425491332899952 -0.0026280323662871 0.00973305803949 -0.268490892400046 0.9632294647306574
810 1317379369316234538 0 1317379369320903062 world base_link 42.865938186994754 -21.93122281739488 -0.0428314208899962 -0.002578915341192 0.0100058191331326 -0.276147394504713 0.961059753234624
821 1317379369417755110 0 1317379369421197891 world base_link 43.31487448292319 -22.20579035719857 -0.0432434081899941 -0.0042091263835517 0.010432194450902 -0.2842076758753123 0.9586967453515106
833 1317379369528991151 0 1317379369530919075 world base_link 43.79514218273107 -22.508534960448745 -0.0415802001799932 -0.0035847694806702 0.0096963090603581 -0.2947135760348216 0.955529716502393
844 1317379369630005102 0 1317379369630903005 world base_link 44.21940132707823 -22.789899054914716 -0.0413436889499934 -0.0055492941531611 0.0102092263429807 -0.3053816824096033 0.9521591280245963
855 1317379369731016211 0 1317379369740922927 world base_link 44.66834348917473 -23.103765623643994 -0.0409927367999927 -0.0052783260668876 0.0090183248949375 -0.318286473185488 0.9479369863430608
866 1317379369834554467 0 1317379369840899944 world base_link 45.0583260145504 -23.39665999962017 -0.0437469482299945 -0.0053959002415937 0.0081706819029578 -0.3305505396956187 0.9437374978905728
878 1317379369945731467 0 1317379369951097011 world base_link 45.46724276454188 -23.72258171532303 -0.0485534667899969 -0.0047325230319231 0.0061139196042234 -0.3448814208031435 0.938614419662105
889 1317379370046951847 0 1317379370050909042 world base_link 45.82278404361568 -24.020969764329493 -0.0453414916899959 -0.0039428499919682 0.0057090818000918 -0.3585780140182723 0.9334739783098682
900 1317379370147896475 0 1317379370150867938 world base_link 46.16199680918362 -24.3206905098632 -0.0483551025299959 -0.0048981655365673 0.0045460176548869 -0.3728247857677336 0.9278776971212862
912 1317379370259157057 0 1317379370260927915 world base_link 46.51881843211595 -24.65594916464761 -0.0441970825099957 -0.0056269091836614 0.005049886049846 -0.389081355947524 0.9211723698624262
923 1317379370360342516 0 1317379370360893011 world base_link 46.82460109889507 -24.964842665940523 -0.0353164672699932 -0.0053629433176136 0.0060503819102083 -0.4041644342590273 0.9146506118719832
934 1317379370461566214 0 1317379370470957040 world base_link 47.13946415577084 -25.30757189868018 -0.0267486572099926 -0.0050946575394236 0.0064029726397994 -0.421598563989688 0.9067456629329764
945 1317379370564640457 0 1317379370570874929 world base_link 47.40695166459773 -25.61900300020352 -0.019630432119996 -0.0050674126217557 0.006603598702667 -0.4380872568726071 0.8988939143076503
957 1317379370675929736 0 1317379370680896043 world base_link 47.67920063459314 -25.966532706283036 -0.0158004760599936 -0.0050977502928694 0.0060702301567216 -0.4566835893670464 0.8895938761314778
968 1317379370777018140 0 1317379370780886888 world base_link 47.90774693293497 -26.28481133049354 -0.0132522582899952 -0.0048697030844639 0.0050246123842271 -0.4739238738714301 0.8805380179395745
979 1317379370878208344 0 1317379370880861043 world base_link 48.120567771140486 -26.60805709986016 -0.0109481811399945 -0.0045006530051012 0.0039257205729552 -0.4914511386605366 0.8708846715551796
991 1317379370989452285 0 1317379370991038084 world base_link 48.336397797684185 -26.96984714828432 -0.0066986083899962 -0.0032876522210796 0.0029728094282928 -0.5108705810936456 0.8596462081112305
1002 1317379371090648464 0 1317379371090881109 world base_link 48.51591882877983 -27.303957161027935 -0.0008544921799966 -0.0016651900297618 0.0029395727821811 -0.5289093970714842 0.8486715711884675
1013 1317379371191803603 0 1317379371200856924 world base_link 48.69558666914236 -27.676663658581678 0.0076599121200047 0.0003402985439645 0.0040619486302181 -0.5487342448803522 0.8359869097454912
1024 1317379371294703226 0 1317379371300858974 world base_link 48.84237859072164 -28.018405763898045 0.0134201049900042 0.0018522653130974 0.005133289363204 -0.5667747269348699 0.8238547368082719
1036 1317379371405820830 0 1317379371411000967 world base_link 48.987362185376696 -28.39645262807608 0.0196151733500045 0.0024543134392449 0.0071782718223302 -0.5872238672445499 0.8093890155528071
1047 1317379371506851543 0 1317379371510835886 world base_link 49.099815435823984 -28.742387518286705 0.0253372192500052 0.0035940716728557 0.0081867739592891 -0.6059329628026251 0.7954654637193135
1058 1317379371608133464 0 1317379371610860109 world base_link 49.19225734658539 -29.09061243990436 0.0293579101700061 0.0052108192607965 0.0081860770416069 -0.6243433716848065 0.7810897449964042
1070 1317379371719201771 0 1317379371720854043 world base_link 49.274729325203225 -29.48030507704243 0.0284576416100037 0.0064726262030245 0.0071390996193063 -0.6448190139898062 0.7642745433179595
1081 1317379371820338552 0 1317379371820902109 world base_link 49.33652753254864 -29.84498132346198 0.0231018066500041 0.006158055731932 0.0056823801186739 -0.6635789361958869 0.7480593454686095
1092 1317379371921467693 0 1317379371931068897 world base_link 49.38660117564723 -30.260255319532007 0.0164794922000055 0.0046812998315311 0.0050123759403057 -0.6840326102288588 0.7294191865195312
1103 1317379372029820874 0 1317379372030869960 world base_link 49.41577582922764 -30.650003985501822 0.0111999511800036 0.0027656148988788 0.0057972671591657 -0.7025494357513477 0.7116059537364617
1114 1317379372130962431 0 1317379372140860080 world base_link 49.42579415929504 -31.094650292303413 0.0056915283300043 0.0003697609238843 0.0073750170312363 -0.7224096028304673 0.6914259455205414
1125 1317379372234202646 0 1317379372240838050 world base_link 49.41202111041639 -31.511611012741923 0.0011291504000041 -0.0007265861511999 0.0081341695156912 -0.7395968865918389 0.6730005592141164
1136 1317379372335338827 0 1317379372340846061 world base_link 49.370335539686494 -31.939803659915924 -0.0026550292899969 -0.00060412795062 0.0074968242962663 -0.7556460104136248 0.6549370501054758
1148 1317379372446609813 0 1317379372450902938 world base_link 49.29867058910895 -32.42269423371181 -0.0068435668799935 -0.00037317922603 0.0067864165677487 -0.7715123998943716 0.6361779798897957
1159 1317379372547794257 0 1317379372550834894 world base_link 49.21063242340461 -32.87495683459565 -0.0085830688399966 0.0002106806043021 0.0075030870997401 -0.7843807345316618 0.6202342481621178
1171 1317379372659065300 0 1317379372660897016 world base_link 49.09004304930568 -33.386284390464425 -0.012306213369996 0.0008618882021244 0.0081892350059512 -0.7970716556632372 0.6038285926626945
1182 1317379372760232357 0 1317379372760807037 world base_link 48.95823934162036 -33.860949382185936 -0.0141830444199939 0.0011110466271026 0.0091174974722256 -0.8076581270453396 0.5895794998410736
1192 1317379372851313611 0 1317379372860837936 world base_link 48.803477779147215 -34.348681152798235 -0.0174026489099929 0.0016596638836825 0.009234244277826 -0.8169345596814025 0.5766540552589255
1204 1317379372964860700 0 1317379372970860004 world base_link 48.6074021323584 -34.898559384047985 -0.0210876464699936 0.001992301031677 0.0091845557376561 -0.8258859557468742 0.5637588693515813
1215 1317379373066057374 0 1317379373070827960 world base_link 48.40929192514159 -35.41020278632641 -0.0306167602399938 0.000332925501551 0.0096045512756228 -0.8330764542188315 0.5530743740055071
1226 1317379373167281535 0 1317379373170840024 world base_link 48.19371855200734 -35.93293159594759 -0.0407714843599933 -0.0018805139205347 0.0103770792870249 -0.8391524873045826 0.5437939710436277
1238 1317379373278518690 0 1317379373280800104 world base_link 47.93200372450519 -36.52148792566732 -0.0463790893399931 -0.0026201041686345 0.0104052359794437 -0.8448051501714496 0.5349664703158062
1249 1317379373379430514 0 1317379373380876064 world base_link 47.67308908503037 -37.0661403038539 -0.0491638183499958 -0.0019612254655224 0.0087925042178636 -0.8492583000115341 0.5279007343485812
1261 1317379373490691646 0 1317379373490869045 world base_link 47.3674705560552 -37.68033800367266 -0.052062988269995 -0.0013652506069007 0.0075497707271554 -0.8536075901370773 0.5208600763286808
1271 1317379373581686114 0 1317379373590982913 world base_link 47.07747044134885 -38.25374734587968 -0.0541381835799938 -0.0011997603097424 0.008289068624208 -0.85741714043574 0.5145538836735573
1282 1317379373684447646 0 1317379373690797090 world base_link 46.77095318760257 -38.83862913120538 -0.0558624267499965 -0.0014150471062845 0.0078738303872752 -0.8610225522277056 0.508503849535092
1294 1317379373795620791 0 1317379373800838947 world base_link 46.41313647455536 -39.489990717731416 -0.0584182739099929 -0.0018147424562728 0.0066574225988638 -0.864317715186803 0.5028988692057497
1305 1317379373896624865 0 1317379373901010990 world base_link 46.06931153370533 -40.09270941466093 -0.0611801147299928 0.0010417521678683 -0.0035068110680789 0.8666815565922831 -0.4988483702402272
1316 1317379373997741651 0 1317379374000843048 world base_link 45.708504641079344 -40.702352623455226 -0.0621948242099961 7.87202209163365e-05 0.0006220394101146 0.8682095241545066 -0.4961973690352503
1328 1317379374108926381 0 1317379374110791921 world base_link 45.299092884524725 -41.38664683746174 -0.0578079223499941 -0.0014528181747362 0.0029656923456783 0.8688391356946052 -0.4950834780859824
1339 1317379374210074760 0 1317379374210798025 world base_link 44.921365134534426 -42.02451719669625 -0.0550689697099926 -0.0025123261729626 0.0026059100434652 0.8688150650369271 -0.4951234999623084
1349 1317379374301051121 0 1317379374310956954 world base_link 44.53666260722093 -42.67245447076857 -0.0542068481299935 -0.0037472428729963 0.0041235917040892 0.8682181766510833 -0.496151339708941
1361 1317379374412357210 0 1317379374420958995 world base_link 44.10799985670019 -43.395378339104354 -0.0487823486199943 -0.0050075360439263 0.004461596182161 0.8670006434041038 -0.4982618820250514
1372 1317379374517009543 0 1317379374520795106 world base_link 43.72107681003399 -44.06120068067685 -0.0484619140499944 -0.0042556901806322 0.0039942705040833 0.8660218390085705 -0.4999721084865032
1384 1317379374628256815 0 1317379374630789995 world base_link 43.29809670930263 -44.80082638841122 -0.0497207641499954 0.0033912283291995 -0.0039563146333885 -0.8649164817977005 0.5018887592481315
1395 1317379374729284530 0 1317379374730947971 world base_link 42.91106476821005 -45.47446490311995 -0.0449600219599943 0.0049389026854851 -0.0056594878678356 -0.8638276096861253 0.5037315139846746
1406 1317379374830438621 0 1317379374830769062 world base_link 42.52413220249582 -46.1490363040939 -0.0371246337799959 0.0075551253531448 -0.0075332091966915 -0.8629202680397565 0.5052274555547155
1417 1317379374931477923 0 1317379374941061019 world base_link 42.1072840699926 -46.89897684333846 -0.0326690673699943 0.0099688489636134 -0.007689519107141 -0.8618030557976392 0.507086764138143
1428 1317379375034795597 0 1317379375040776968 world base_link 41.73007290670648 -47.58279830496758 -0.0297164916899959 0.0124756545605324 -0.0080246453217341 -0.8605740791234394 0.5091092392125592
1440 1317379375146012516 0 1317379375150795936 world base_link 41.31806851562578 -48.333493614103645 -0.0296096801599929 0.0139854525284781 -0.0077433069304472 -0.8589851566030682 0.511750866194633
1451 1317379375246984470 0 1317379375250751972 world base_link 40.951143563957885 -49.02142154658213 -0.0335311889499934 0.0140939063931526 -0.006330608113564 -0.8578869618336239 0.5136061194333335
1462 1317379375347948707 0 1317379375350788116 world base_link 40.590902846772224 -49.712563605513424 -0.0421524047699932 0.0127811099868667 -0.0036677101226204 -0.8569467366911391 0.5152334243858483
1474 1317379375459202165 0 1317379375460995912 world base_link 40.19348622474354 -50.47556877927855 -0.0505599975499961 0.0125980787179263 6.018279035411404e-05 -0.8557678100112489 0.5172066706251959
1485 1317379375560438815 0 1317379375560781002 world base_link 39.832557821064256 -51.171025139279664 -0.0578613281099933 0.0125227660884931 0.0017827372421684 -0.8547062061473965 0.5189579013277885
1495 1317379375651426889 0 1317379375660842895 world base_link 39.47151459858287 -51.86879571946338 -0.0655517577999944 0.0113401015285051 0.0010008072198521 -0.8536676676799041 0.5206936850396642
1507 1317379375764556791 0 1317379375770791053 world base_link 39.07314831856638 -52.63644992746413 -0.0818786620999958 0.0081301723257966 -0.0017847675602579 -0.8528814150994813 0.5220383191688276
1518 1317379375865694167 0 1317379375870760917 world base_link 38.711559287970886 -53.33624776266515 -0.0960845947099926 0.0050541672922325 -0.0029220387572354 -0.8523107565898248 0.5230031465333298
1530 1317379375976878913 0 1317379375980811119 world base_link 38.31232183915563 -54.108806455973536 -0.0982284545799956 0.0048602197148794 -0.0023977092479032 -0.8519783738410523 0.523548927763052
1541 1317379376078109928 0 1317379376080791950 world base_link 37.94793097663205 -54.81158565822989 -0.0923080444199939 0.0073391877533836 -0.0021440373899402 -0.8517040238049718 0.5239673608739491
1552 1317379376179153887 0 1317379376180775880 world base_link 37.5821861170698 -55.51622423855588 -0.0908355712799959 0.0080372389537627 -0.0025753095138951 -0.8515720853258298 0.5241695852152485
1564 1317379376290312999 0 1317379376290898084 world base_link 37.18418201664463 -56.30349635332823 -0.0955963134599926 0.0063796623939473 -0.0024885419149113 -0.8515899726320906 0.5241637392832056
1574 1317379376381498937 0 1317379376390793085 world base_link 36.82100074540358 -57.02490362990648 -0.1026000976399927 0.0038593642427165 -8.400674446680986e-05 -0.8516943867452984 0.5240245889622535
1586 1317379376494545422 0 1317379376500844001 world base_link 36.41739418671932 -57.82451071077958 -0.1053085326999934 0.0037285754820362 0.0009792063576027 -0.852036846111176 0.5234676224454614
1597 1317379376595578467 0 1317379376600790977 world base_link 36.04347229329869 -58.55496551422402 -0.103126525869996 0.0042788952942425 0.0011057862464304 -0.8523738046909676 0.5229143002141767
1608 1317379376696619933 0 1317379376700767993 world base_link 35.66731296107173 -59.29120176425204 -0.1058883666899959 0.0030023200635804 0.0005363605400249 -0.8528015429961963 0.522226221722841
1620 1317379376807834998 0 1317379376810890913 world base_link 35.24782711965963 -60.1079645594582 -0.1138992309499968 0.0008826569407585 -0.0008862668852548 -0.8532764312737348 0.5214573494356872
1631 1317379376908937470 0 1317379376910820960 world base_link 34.859464821987785 -60.85729463864118 -0.1152420043799935 0.0001467222079087 -0.0021681350083487 -0.8535170575964734 0.5210603708353164
1642 1317379377010126361 0 1317379377010787963 world base_link 34.46607660059817 -61.61206406960264 -0.1079177856299935 0.0003277544486045 -0.0035685960720165 -0.8537898199003174 0.5206055139293859
1653 1317379377111001468 0 1317379377120713949 world base_link 34.02823221450672 -62.45155937643722 -0.1010055541899959 9.22974492750599e-05 -0.003759914507099 -0.8541297963591533 0.5200462916852225
1664 1317379377216480143 0 1317379377220796108 world base_link 33.62730685353745 -63.22394269425422 -0.0984954833899962 -0.0004319989728968 -0.0037753774170539 -0.8544522578576992 0.5195160237606979
1676 1317379377327790738 0 1317379377330749988 world base_link 33.18103220628109 -64.0847536418587 -0.087501525869996 0.0010761754936807 -0.0016384206907632 -0.8548926888819575 0.5188011641468468
1687 1317379377428902098 0 1317379377430815935 world base_link 32.77073564927559 -64.87295092875138 -0.077049255359995 0.0020446547828992 -0.0006489524835505 -0.8552825943006136 0.5181573912759568
1698 1317379377529965555 0 1317379377530735015 world base_link 32.35456359479576 -65.6641512424685 -0.0727844238199963 0.0009838700084729 -0.0015231594434605 -0.8556401275520035 0.5175680478042551
1709 1317379377631164960 0 1317379377640706062 world base_link 31.89188911882229 -66.54517696518451 -0.0720138549699953 -0.0008091121703502 -0.0033031684138063 -0.8558348133758498 0.517238056053352
1720 1317379377734429308 0 1317379377740731000 world base_link 31.46447918540798 -67.35304492944852 -0.0636749267499965 -0.0005595148751709 -0.0047710478119611 -0.8558462339441918 0.5172080315399443
1732 1317379377845649889 0 1317379377850750923 world base_link 30.98690236301627 -68.25482619879767 -0.0500183105299925 0.0022005072134333 -0.0057897468732327 -0.8558991193182519 0.5171057282117343
1743 1317379377946787869 0 1317379377950920104 world base_link 30.54907333268784 -69.08186968648806 -0.0373229980299925 0.0050922530376574 -0.0051127600591401 -0.8560327347812752 0.5168712466625214
1754 1317379378047831213 0 1317379378050726890 world base_link 30.10902021068614 -69.9163309475407 -0.0254058837799959 0.0071370814844329 -0.0044968890242795 -0.8559379764503432 0.5170096909411658
1766 1317379378159094263 0 1317379378160689115 world base_link 29.62212074385025 -70.84106069384143 -0.0254669189299932 0.0059667389466258 -0.0047581026593025 -0.8555313727841639 0.5176947253618396
1777 1317379378260290771 0 1317379378260736942 world base_link 29.178045912762173 -71.68949344335124 -0.0288162231299935 0.0046780424582683 -0.0055157531022597 -0.8552989200278016 0.5180844041136056
1788 1317379378361508041 0 1317379378370709896 world base_link 28.689694059779868 -72.63245344441384 -0.0241699218599933 0.0026024398615618 -0.0033258006680806 -0.8552732187587708 0.5181600984548064
1799 1317379378464284647 0 1317379378470802068 world base_link 28.242759384331293 -73.49617845704779 -0.0197067260599936 0.0013058379395983 -0.0021745543742131 -0.855465804457873 0.5178530906577589
1810 1317379378565450005 0 1317379378570722103 world base_link 27.78789327549748 -74.3658049730584 -0.0116500854399959 0.0032887822485881 -0.0010495656216308 -0.8555786220274395 0.517661379526187
1822 1317379378676555550 0 1317379378680710077 world base_link 27.28278163471259 -75.33033526968211 -0.0012283325099957 0.0052759344136383 0.0022089222097607 -0.855870254494104 0.5171589626516512
1833 1317379378777625750 0 1317379378780735015 world base_link 26.8195894472301 -76.21268002036959 -0.0016937255699929 0.0058195701345397 0.0008555426360564 -0.8560171154825438 0.516914014756025
1844 1317379378878700143 0 1317379378880681037 world base_link 26.35028050863184 -77.10057015670463 -0.0061798095599954 0.0051392946610855 -0.0012559739611114 -0.8560696419774976 0.5168334144231722
1856 1317379378989822596 0 1317379378990793943 world base_link 25.831875089672398 -78.09101445786655 -0.008407592759994 0.0046180569220844 -0.0030194642604176 -0.8564505118045671 0.5161996486007515
1866 1317379379080895837 0 1317379379090837001 world base_link 25.35576023801696 -79.00371727487072 -0.0066909789899938 0.0056304429274633 -0.0025272010396805 -0.8570402694504724 0.5152124687035511
1878 1317379379194589094 0 1317379379200712919 world base_link 24.82696841377765 -80.00843363301829 -0.0019149780199967 0.0086593693223063 -0.0014789359833969 -0.8578299364006585 0.5138585683689036
1889 1317379379295661844 0 1317379379300678014 world base_link 24.344306705752388 -80.92323904205114 -0.002746582019995 0.0103889378725639 -0.0008454439043881 -0.8586401744139599 0.5124728344769596
1900 1317379379396809815 0 1317379379400909900 world base_link 23.85606805724092 -81.83530131774023 -0.015045165999993 0.01082819653202 -0.0032716201788042 -0.8595429066503861 0.5109383899143572
1912 1317379379508261412 0 1317379379510699987 world base_link 23.31446684617549 -82.83587614214048 -0.0212936401199925 0.0124776281204092 -0.0040593388618585 -0.8605471788687744 0.5092017120017243
1923 1317379379609524796 0 1317379379610691070 world base_link 22.81940718437545 -83.7428350718692 -0.0254745483299956 0.0143669743168089 -0.0051174683933801 -0.8614561452507751 0.5076029071783357
1934 1317379379710737729 0 1317379379720710039 world base_link 22.270521973259747 -84.73578662006184 -0.035545349109995 0.0151471071375274 -0.0065776395373022 -0.8622683354688605 0.5061823954378917
1945 1317379379814316430 0 1317379379820689916 world base_link 21.76924316061195 -85.6371343806386 -0.0478897094599943 0.0148935141212847 -0.0091868862727911 -0.8628200176547327 0.5052082753597932
1956 1317379379915552108 0 1317379379920882940 world base_link 21.26601656817365 -86.53961531538516 -0.0602493285999941 0.0135653459954702 -0.0109461841126669 -0.8633162363973984 0.5043622095419386
1968 1317379380026809787 0 1317379380030711889 world base_link 20.70962770539336 -87.53134521050379 -0.068466186509994 0.0134442199575336 -0.0131998656952688 -0.8637363186500487 0.5035916881166939
1979 1317379380127812692 0 1317379380130681991 world base_link 20.202839242178012 -88.43251117691398 -0.0713424682499948 0.0131546841809914 -0.0128451141162021 -0.8635985175337682 0.5038447755419502
1991 1317379380239119985 0 1317379380240670919 world base_link 19.647872083005492 -89.4248908283189 -0.0716094970599954 0.0147327970940587 -0.0122997787047072 -0.862911166735953 0.5049910676992181
2002 1317379380340167567 0 1317379380340739011 world base_link 19.142533777747303 -90.32642683945596 -0.0736618041899959 0.0171692233173722 -0.0129550988705552 -0.8617293941953977 0.5069120578202546
2012 1317379380430890339 0 1317379380440673112 world base_link 18.64311217260547 -91.23153377883136 -0.0774230956899941 0.0184466093809277 -0.0122181055795451 -0.8604166007873898 0.5091107085770918
2024 1317379380544532728 0 1317379380550682067 world base_link 18.097731280256998 -92.23022753186524 -0.0839996337799959 0.0203712134554221 -0.0118177452214209 -0.859052635135516 0.5113452108184461
2035 1317379380645673161 0 1317379380650661945 world base_link 17.605463317828253 -93.140745641198 -0.0921707153199946 0.0213157051166954 -0.0119722388859971 -0.8578185156121866 0.5133709190091895
2046 1317379380746804716 0 1317379380750680923 world base_link 17.118481321725994 -94.05319206696004 -0.1060714721599964 0.0198347284805126 -0.0132638148695924 -0.8568966245279297 0.514935752918604
2058 1317379380857741777 0 1317379380860656023 world base_link 16.587783204973675 -95.0611251173541 -0.1239624023299938 0.0172039204082632 -0.014313828169899 -0.856308865185992 0.5159789403159659
2069 1317379380959075294 0 1317379380961066961 world base_link 16.10483255388681 -95.98004924412815 -0.1313552856299935 0.0172247502717208 -0.0143205662849648 -0.8559946981468828 0.5164990862564831
2081 1317379381070383504 0 1317379381070621013 world base_link 15.573255707509816 -96.9930417733267 -0.1323394775299959 0.0183404236928761 -0.0136723362497577 -0.8555977184754359 0.5171356110536851
2091 1317379381161266238 0 1317379381170672893 world base_link 15.09145322383847 -97.91463653044777 -0.1396713256699939 0.0175259525825399 -0.0146096399236505 -0.8551721773761627 0.5178416229399572
2102 1317379381264534427 0 1317379381270658969 world base_link 14.61112092237454 -98.83696838654578 -0.1501693725499961 0.0150316447725334 -0.0163801886159236 -0.8546385383779219 0.5187472484703783
2114 1317379381375779613 0 1317379381380690097 world base_link 14.084653288475238 -99.848197796382 -0.1521377563399966 0.0132493459063916 -0.0168619386224366 -0.8540464839956211 0.5197544930384566
2125 1317379381476977838 0 1317379381480695962 world base_link 13.606565358466469 -100.766414265614 -0.1431274413899927 0.0134618632430853 -0.0167486574386258 -0.8534381015192094 0.5207510610525109
2136 1317379381577907325 0 1317379381580641984 world base_link 13.129572047269903 -101.6879250188358 -0.1309356689299932 0.0142303481311675 -0.0154971817006275 -0.8525586565491389 0.5222078816855709
2148 1317379381689009574 0 1317379381690773963 world base_link 12.608271119417624 -102.70817484660074 -0.124618530259994 0.0160638832252652 -0.0139906284005255 -0.8512919035258337 0.5242597724068155
2159 1317379381790102422 0 1317379381790815114 world base_link 12.136234067380428 -103.6311073587276 -0.1204833984299966 0.0166443664549854 -0.0129274813696796 -0.8500411932986993 0.5262944185397294
2170 1317379381891269970 0 1317379381900959014 world base_link 11.62741669814568 -104.65507438220084 -0.1234741210799938 0.0140995460332048 -0.0120522926642743 -0.8491131348156591 0.5278852425733422
2181 1317379381995291233 0 1317379382000680923 world base_link 11.168928171158768 -105.58346724277362 -0.1251602172699932 0.0092727983788281 -0.0130132180850036 -0.8486798939333265 0.528665403633163
2192 1317379382096733643 0 1317379382100655078 world base_link 10.712435325607656 -106.5176308657974 -0.1237487792899969 0.0041716501513702 -0.0131581342151071 -0.8484302103228374 0.5291272427786509
2204 1317379382208110633 0 1317379382210664987 world base_link 10.207271254155785 -107.5422800653614 -0.1056137084799928 0.0038631940266668 -0.0127258703231639 -0.8482919743836964 0.5293617422449799
2215 1317379382309174123 0 1317379382310781002 world base_link 9.746369579108432 -108.4775472912006 -0.0817794799699953 0.0065453593121562 -0.0107283084557508 -0.8481222412870723 0.5296515132644731
2226 1317379382410278702 0 1317379382410839080 world base_link 9.286393212853 -109.4123317967169 -0.0670928954999965 0.0092388910292275 -0.0094375654761527 -0.8484198332920366 0.5291591081396465
2237 1317379382523657282 0 1317379382520652055 world base_link 8.78078173683025 -110.43636744096877 -0.0594635009599926 0.011335675892468 -0.0075799120841919 -0.8490097849557343 0.5282011287703527
2248 1317379382614780387 0 1317379382620649099 world base_link 8.320466758217663 -111.36755094770342 -0.0516815185399934 0.0134354123306721 -0.0053686792270494 -0.8495717401177303 0.5272746204514248
2260 1317379382725924039 0 1317379382730635881 world base_link 7.811278822598979 -112.38452148390934 -0.0552368163899927 0.0133892982529853 -0.006233970111611 -0.8501448925237712 0.5263416438252685
2271 1317379382826986320 0 1317379382830638885 world base_link 7.348987017758191 -113.30811583483592 -0.0602798461799949 0.0129032979726863 -0.0061085365971546 -0.8506837268482782 0.5254839555662888
2282 1317379382928112344 0 1317379382930735111 world base_link 6.886473881779239 -114.22597441403197 -0.0659255981299935 0.0138482812588255 -0.0060561135594006 -0.8511830439257474 0.524651288312562
2294 1317379383039406855 0 1317379383040630102 world base_link 6.376344557618722 -115.23465085355564 -0.0692138671799966 0.013601667999303 -0.0065345850296192 -0.8514933300135707 0.5241482641090476
2305 1317379383140563296 0 1317379383140636920 world base_link 5.9142605770612136 -116.14387256931514 -0.0800094604399959 0.0104017925266225 -0.009066840400893 -0.8516559733081464 0.5239195532197017
2316 1317379383241747280 0 1317379383250627994 world base_link 5.406897989916615 -117.14362146658824 -0.0900497436399945 0.0058211582328998 -0.0102918481692728 -0.8518764467108928 0.5236093119085178
2327 1317379383344607904 0 1317379383350615024 world base_link 4.944537507370114 -118.04978621797636 -0.0880584716699957 0.0048323562294484 -0.0093808820006528 -0.8521799722451102 0.5231423728685005
2338 1317379383445576907 0 1317379383450642108 world base_link 4.486777810729109 -118.95599111309276 -0.073638915999993 0.0061885957556035 -0.0057471338361044 -0.8528214968984301 0.52213424151569
2350 1317379383556809029 0 1317379383560627937 world base_link 3.9816942737670615 -119.95346273807807 -0.063087463369996 0.0077193837342879 -0.0009702777807112 -0.8535971413495725 0.5208755993091143
2361 1317379383657756474 0 1317379383660614013 world base_link 3.5212508955737576 -120.85514595871793 -0.058692932119996 0.0103948248060084 0.0022485129125568 -0.8541562350088941 0.519907701426287
2372 1317379383758821899 0 1317379383760588884 world base_link 3.054986211238429 -121.75038722390308 -0.0582962035999941 0.0141866772749915 0.0028279139067477 -0.8546485060608522 0.5190054644979997
2384 1317379383870214172 0 1317379383870599985 world base_link 2.544945216854103 -122.730289070867 -0.0734634399299949 0.0143186193245593 0.0030892188060732 -0.8551945584439086 0.5181000878939652
2394 1317379383961425277 0 1317379383970655918 world base_link 2.0806706324219704 -123.61250928463414 -0.0874862670799956 0.0124888271016291 0.0004329926123387 -0.8555257646148976 0.5176094162543007
2406 1317379384074346870 0 1317379384080610990 world base_link 1.5687613702611998 -124.57270201249048 -0.1041717529199957 0.0081946379549085 -0.0077391173608113 -0.8556837267210462 0.5173763753748767
2417 1317379384175487669 0 1317379384180660009 world base_link 1.1057642586529255 -125.44300945987924 -0.1132583617999927 0.0049464528564813 -0.012320307501029 -0.8559622638102088 0.5168678221364931
2428 1317379384276594968 0 1317379384280575037 world base_link 0.6441841825144365 -126.3135187011212 -0.1020736694199939 0.0058037315404122 -0.0120370771268784 -0.8561089748530732 0.5166225398203881
2440 1317379384387970953 0 1317379384390772104 world base_link 0.1371566647430881 -127.26833291118965 -0.0788955688399966 0.0113936409904281 -0.0093330235317018 -0.8560913141026133 0.5166146934948704
2451 1317379384489120897 0 1317379384490633964 world base_link -0.3213296632748097 -128.13311649905518 -0.066024780259994 0.0156095756684948 -0.0072545985914405 -0.8559632116040441 0.5167501256189658
2462 1317379384590315272 0 1317379384590583086 world base_link -0.7750248630763963 -128.99413366196677 -0.0657958984299966 0.017710863356789 -0.0054209288716696 -0.8559787190430379 0.5166791764671436
2473 1317379384691434610 0 1317379384700607061 world base_link -1.270413888851181 -129.93837830983102 -0.0734100341699957 0.0190464759853288 -0.0029755235322008 -0.8559280016166733 0.5167355552511728
2484 1317379384794417204 0 1317379384800617933 world base_link -1.7177745343651625 -130.79299581004307 -0.0827636718599933 0.0199285442341895 -0.0006740223906803 -0.8559167804050118 0.516729004256236
2496 1317379384905750716 0 1317379384910819053 world base_link -2.205407770117745 -131.73302926169708 -0.1013183593599933 0.0187981181161812 -0.0002756093315227 -0.8559477917313575 0.5167203621157183
2507 1317379385006825718 0 1317379385010656118 world base_link -2.647680637193844 -132.58783995173872 -0.1211166381699939 0.0151349828093289 -0.0011768134107954 -0.8559602746293253 0.5168186874156614
2518 1317379385107994223 0 1317379385110580921 world base_link -3.0890888083959 -133.43883267231286 -0.1366577148299939 0.0125228812372649 -0.0024968002032793 -0.8560147765706597 0.5167936200524788
2530 1317379385219153848 0 1317379385220628976 world base_link -3.573893423192203 -134.3704802966677 -0.1425781249899955 0.0105289000818293 -0.0040157137514615 -0.8559751243950141 0.5168941890978014
2541 1317379385320261874 0 1317379385320566892 world base_link -4.012167147709988 -135.21000689221546 -0.1455612182499948 0.0090478916596386 -0.0055649112308664 -0.8560134136526979 0.5168444669977257
2552 1317379385421510691 0 1317379385430731058 world base_link -4.490581059129909 -136.127436615061 -0.1454467773299939 0.007086054193325 -0.0071604936740154 -0.8559434105142044 0.5169713659030118
2563 1317379385524074400 0 1317379385530602931 world base_link -4.922766297124326 -136.9543870538473 -0.1380386352399938 0.0079414446973834 -0.0072437861079242 -0.8559577218307866 0.5169340765099463
2574 1317379385625145807 0 1317379385630572080 world base_link -5.351215371978469 -137.77607942884788 -0.1276016235199932 0.0101176250511389 -0.0056920466385549 -0.8559537865318019 0.5169219956533668
2586 1317379385736440320 0 1317379385740643024 world base_link -5.818489238619804 -138.6777207921259 -0.1132965087799959 0.0141345032368213 -0.0019709389023514 -0.8560573145119035 0.516683854488177
2597 1317379385837625540 0 1317379385840578079 world base_link -6.23679646383971 -139.48952499078587 -0.1077194213699925 0.016247953778861 0.0024106723803352 -0.856310062540259 0.5162008034175968
2609 1317379385948961072 0 1317379385950639963 world base_link -6.686777694267221 -140.36123847495764 -0.1149444579999965 0.0163255318149723 0.0054254805536937 -0.8569430549297473 0.5151239091513726
2620 1317379386050207613 0 1317379386050561904 world base_link -7.083366198698059 -141.15106640011072 -0.1247558593599933 0.014219680307239 0.006841161553248 -0.8575090319872724 0.5142268558338949
2630 1317379386141271871 0 1317379386150540113 world base_link -7.475628132116981 -141.91801597177982 -0.1384124755699929 0.0105485242915532 0.006403302302899 -0.8579428073788504 0.5135969875513146
2642 1317379386253486870 0 1317379386260556936 world base_link -7.903986715245992 -142.741257364396 -0.1481399535999941 0.007426652599047 0.0037616676912305 -0.8581092432064621 0.5133996702482253
2653 1317379386354587430 0 1317379386360565900 world base_link -8.288505146512762 -143.46936846338212 -0.1504821777199936 0.0061694571372934 0.0005705126916159 -0.8578978706258713 0.5137828878908829
2664 1317379386455555031 0 1317379386460809946 world base_link -8.664408380631357 -144.1822199583985 -0.1453018188399966 0.0063844041734401 -0.0012750072258357 -0.8572316979922149 0.5148897257639816
2676 1317379386566611061 0 1317379386570558071 world base_link -9.066809176234528 -144.94357400434092 -0.139953613269995 0.0074858932094646 -0.0031169380956356 -0.8560146448022392 0.5168879704383348
2687 1317379386667742470 0 1317379386670564889 world base_link -9.4222526504891 -145.62057548156008 -0.127754211409993 0.0101963686044023 -0.0034023500905803 -0.8547504377861588 0.5189278824514196
2699 1317379386779011617 0 1317379386780579090 world base_link -9.791800546692684 -146.3470204588957 -0.1191940307499948 0.0128210445583184 -0.0023525168516482 -0.8535972906123057 0.5207703447204219
2710 1317379386880227548 0 1317379386880541086 world base_link -10.114625807618722 -146.9806188880466 -0.1167602538899927 0.0129914683752474 -0.0026116597366272 -0.8525237366535884 0.5225205062244715
2720 1317379386971152305 0 1317379386980573892 world base_link -10.421658084378578 -147.59228031802922 -0.1204452514499934 0.0116672464793657 -0.004253341796601 -0.851401406568112 0.5243676471112527
2732 1317379387083894287 0 1317379387090593099 world base_link -10.74196284438949 -148.2393123935908 -0.1289596557499948 0.0096314981150183 -0.0057581562768722 -0.8501713790056703 0.5263864589823224
2743 1317379387184954649 0 1317379387190529108 world base_link -11.019275842932984 -148.80219456879422 -0.1358032226399927 0.0097674567065723 -0.0063484650224984 -0.8491009890071597 0.5281020774891978
2755 1317379387296239391 0 1317379387300728082 world base_link -11.305199078284204 -149.39399693487212 -0.1354446410999941 0.0092627293056709 -0.0052327626543547 -0.8479094886853356 0.5300342621361244
2766 1317379387397306491 0 1317379387400665044 world base_link -11.547777686733752 -149.90761677362025 -0.1340866088699925 0.0083896544946497 -0.0030052802591862 -0.8469402307560541 0.5316134192389299
2777 1317379387498471083 0 1317379387500602960 world base_link -11.777745805564336 -150.39906009845436 -0.1338500976399927 0.0072554960593761 -0.0008896585390435 -0.8460617598921697 0.533034768784158
2789 1317379387609830317 0 1317379387610507011 world base_link -12.021569473203272 -150.91947416076437 -0.1375045776199925 0.0051673378975133 -0.0010292671717637 -0.8452874359102401 0.5342858691004597
2799 1317379387700752454 0 1317379387710536003 world base_link -12.238603947917 -151.38368560746312 -0.1395339965699946 0.003221721380405 -0.0019029672289088 -0.8449614630142466 0.5348141034489426
2811 1317379387813631590 0 1317379387820533037 world base_link -12.472930642194116 -151.89240433368832 -0.1366500854399959 0.0017774605544531 -0.0008007684380054 -0.845087458658539 0.5346245286384997
2822 1317379387914491064 0 1317379387920675992 world base_link -12.681852859910578 -152.35463860444725 -0.1330261230299925 0.0009151934259313 0.0022050345926413 -0.845586730309438 0.5338327282661042
2833 1317379388015475679 0 1317379388020590066 world base_link -12.88997122098226 -152.81510892417282 -0.129211425769995 0.0011363677208092 0.0057566897034697 -0.8461991103390923 0.5328345285859295
2845 1317379388126550721 0 1317379388130518913 world base_link -13.122915383428335 -153.31513159256428 -0.1240615844599943 0.002932072216365 0.0078236067402894 -0.8469077486621812 0.5316742041758723
2856 1317379388227724060 0 1317379388230530023 world base_link -13.338412656332366 -153.76274110935628 -0.1185684203999954 0.0051615811691979 0.007334569274025 -0.8474872629609486 0.530739956374455
2868 1317379388338898338 0 1317379388340524911 world base_link -13.57233457325492 -154.2486364170909 -0.116027832019995 0.0050873734577009 0.0060057752610885 -0.8482342656469686 0.5295627251583739
2879 1317379388439927468 0 1317379388440556049 world base_link -13.781744061037898 -154.68804640881717 -0.1188735961799949 0.0036233928871441 0.0051662985570798 -0.8490067472251399 0.528344322908264
2890 1317379388540904528 0 1317379388550539970 world base_link -14.010596513981 -155.1683997497894 -0.1249694824099947 0.0017924878389045 0.0062738263457509 -0.8497453035701195 0.527153056664624
2901 1317379388643521311 0 1317379388650523900 world base_link -14.219250937690958 -155.6019894881174 -0.1317825317299963 0.0007341099965075 0.0064402870181115 -0.8503529204489696 0.5261728750796127
2912 1317379388744766264 0 1317379388750510931 world base_link -14.431570954504425 -156.03077021194622 -0.136543273909993 0.0004831121241854 0.0051703542102351 -0.850849065148934 0.5253845281079387
2924 1317379388856069706 0 1317379388860544919 world base_link -14.664177943603136 -156.50119836302474 -0.1322708129799963 0.0018230462150795 0.0054317553407086 -0.8516252065184733 0.5241199100957569
2935 1317379388957150858 0 1317379388960848093 world base_link -14.873867418034934 -156.9283566973172 -0.1255264282099943 0.0039044270196774 0.0075241986622742 -0.8523045834789594 0.5229770921033691
2947 1317379389068412873 0 1317379389070532083 world base_link -15.106019660830498 -157.39474164741114 -0.1278610229399959 0.0049200386453743 0.0083859691057152 -0.8529638504960398 0.5218794290723247
2958 1317379389169486837 0 1317379389170480012 world base_link -15.314745333977044 -157.8161084605381 -0.1299285888599968 0.0047891868491452 0.0096272200623193 -0.8536529862316725 0.5207311776924287
2968 1317379389270497662 0 1317379389270512104 world base_link -15.523609364405274 -158.23502282472327 -0.1289672851399927 0.0050678630534132 0.0106399187557443 -0.8541882814277171 0.5198302499513722
2980 1317379389384238328 0 1317379389380525112 world base_link -15.755285850493236 -158.69164188718423 -0.1280975341699957 0.0057388658279964 0.0115651553026932 -0.8544929917443556 0.519302454896579
2991 1317379389475398379 0 1317379389480530977 world base_link -15.963472341420127 -159.10456058289856 -0.1331787109299966 0.0056767809333075 0.011903319983292 -0.854780613664155 0.5188219228555607
3003 1317379389586602087 0 1317379389590698957 world base_link -16.192056204308756 -159.55321478424594 -0.142890930159993 0.0057046198962471 0.0101766273656343 -0.8545658018621737 0.5192120798430645
3014 1317379389687609253 0 1317379389690649032 world base_link -16.400090765208006 -159.95334873953834 -0.1498794555499927 0.0053080333954403 0.008390414163268 -0.8533539183330339 0.5212374850270266
3025 1317379389788711795 0 1317379389790524005 world base_link -16.600016641197726 -160.34983795089647 -0.1525497436399945 0.0048439199358741 0.0077787527015604 -0.8515856764720852 0.5241353480482341
3037 1317379389899966274 0 1317379389900687932 world base_link -16.808420197688974 -160.78149750176817 -0.1542205810399934 0.0044680737571825 0.0087585044528988 -0.8488878219415742 0.528481589722801
3047 1317379390002198636 0 1317379390000540018 world base_link -16.993170578498393 -161.16671822220087 -0.1569061279199957 0.0053846177459867 0.0085889206287333 -0.8450917205220364 0.534525228814569
3058 1317379390093011443 0 1317379390100467920 world base_link -17.17413911584299 -161.54528720863163 -0.1612091064299932 0.0068998642380148 0.0062659049765673 -0.8395337346884459 0.5432276121741159
3070 1317379390204261465 0 1317379390210505962 world base_link -17.36313003161922 -161.95755883306265 -0.1649627685399934 0.0087665824577439 0.0027033833752893 -0.831085514170154 0.5560689767347828
3081 1317379390305346262 0 1317379390310622930 world base_link -17.51676789263729 -162.33191366959363 -0.1647109985199932 0.0097925492060369 0.0019873764093517 -0.8214077217952429 0.5702539003726352
3093 1317379390416652844 0 1317379390420675039 world base_link -17.661454296321608 -162.7438194481656 -0.1632919311399945 0.0095042405670656 0.0035734255637111 -0.8090581974861547 0.5876408198223112
3104 1317379390517696912 0 1317379390520452976 world base_link -17.775066708913073 -163.1185751920566 -0.1666946410999941 0.0075898709375069 0.0045508746680059 -0.7970504059512704 0.6038479392792717
3115 1317379390618708738 0 1317379390620479106 world base_link -17.875072094844654 -163.49280516523868 -0.1745300292899969 0.0060253397803189 0.0033046506134323 -0.78462488778964 0.6199327060463496
3127 1317379390729940825 0 1317379390730460882 world base_link -17.970302527071908 -163.90382645232603 -0.1834716796799966 0.0049251399384985 0.0010178302550697 -0.7703202204755936 0.6376374086772129
3137 1317379390821116936 0 1317379390830445051 world base_link -18.039865166530944 -164.2774781952612 -0.1883468627799942 0.0045978220477575 -0.000567207292053 -0.7567223528758686 0.6537199851360783
3148 1317379390926379909 0 1317379390930574893 world base_link -18.091004214365967 -164.65188507921994 -0.1925506591699957 0.0038876893423825 -0.0004133270175046 -0.7429002525826931 0.6693907153112633
3160 1317379391037374448 0 1317379391040487051 world base_link -18.124571099411696 -165.0636506555602 -0.1985931396399962 0.0011652412260277 0.0017719614222338 -0.7274570911683982 0.6861498982543219
3171 1317379391138472061 0 1317379391140503883 world base_link -18.138244970235974 -165.4378364137374 -0.2044525146399962 -0.001875356279602 0.0037356242627338 -0.7130195982777568 0.7011316428617512
3183 1317379391249728291 0 1317379391250463962 world base_link -18.13851209206041 -165.85665336158127 -0.2095031738199964 -0.004636092369882 0.0033905173039272 -0.6966604584478856 0.71737801518804
3193 1317379391340544293 0 1317379391350457906 world base_link -18.1250243994873 -166.24611219996586 -0.2119674682499948 -0.005874784811297 0.0021722249481257 -0.6815557241783878 0.7317394093404216
3204 1317379391444516406 0 1317379391450470924 world base_link -18.098393068881705 -166.64396825432777 -0.2118530273299939 -0.0048626694023579 0.0008946681457273 -0.6660557169460046 0.7458856051290547
3216 1317379391555853925 0 1317379391560441017 world base_link -18.047186468262225 -167.09127837093547 -0.2110519409099964 -0.0039823901870839 0.0017307934357954 -0.6490317903940361 0.7607488941696808
3227 1317379391657011866 0 1317379391660437107 world base_link -17.977862649364397 -167.5037440508604 -0.2093887328999955 -0.0043168795682288 0.0033967753950479 -0.6337705562725624 0.7735015891836782
3238 1317379391758222309 0 1317379391760433912 world base_link -17.887770381057635 -167.91985541861504 -0.2080535888599968 -0.0064764885990819 0.0052809236335241 -0.6186153516556923 0.7856495488682642
3250 1317379391869275531 0 1317379391870441913 world base_link -17.769568272167817 -168.38419423345476 -0.2071685790899948 -0.0083581432245556 0.0065495269235905 -0.6021283693209886 0.7983286741673272
3261 1317379391970207849 0 1317379391970467090 world base_link -17.64693361299578 -168.81336569273844 -0.2091674804599961 -0.0085114172121659 0.0057510151003418 -0.5875810083343745 0.8091001422859323
3272 1317379392071249227 0 1317379392080434083 world base_link -17.495946523034945 -169.2940884954296 -0.2163085937399955 -0.0067466545061271 0.0027734727619094 -0.5724920576762541 0.8198778167504123
3283 1317379392184662806 0 1317379392180445909 world base_link -17.335022272891365 -169.7366548832506 -0.2228698730299925 -0.0069990942720372 0.002038472609253 -0.5595575508422499 0.8287594371132163
3294 1317379392275666395 0 1317379392280474901 world base_link -17.147358631016687 -170.1828661719337 -0.2269821166899959 -0.0090659233368575 0.0037362015968747 -0.5475575899978254 0.8367105446135188
3306 1317379392386960401 0 1317379392390655994 world base_link -16.91423838667106 -170.6762049747631 -0.2299423217699967 -0.0108094191210694 0.0077537513670542 -0.5360441894182945 0.8440851039965618
3317 1317379392487969261 0 1317379392490667104 world base_link -16.6956409876002 -171.12146075861529 -0.2279739379799963 -0.0102418427223352 0.0099040993885897 -0.5274292533597047 0.8494794854340959
3329 1317379392598838961 0 1317379392600395917 world base_link -16.44363290036563 -171.62292576674372 -0.2305831909099964 -0.0074264721184333 0.0097595223181759 -0.5196775223127763 0.8542744711384328
3340 1317379392700027564 0 1317379392700468063 world base_link -16.20252744713798 -172.09449414117262 -0.2305374145399952 -0.0036171784757097 0.0096915737140342 -0.5135947743102423 0.8579705106937136
3350 1317379392790950169 0 1317379392800412893 world base_link -15.945028331014328 -172.57198058767244 -0.2292404174699953 -0.0002593427015326 0.0103670158297617 -0.5085115247405808 0.8609927333782545
3362 1317379392905686555 0 1317379392910634994 world base_link -15.6427997329738 -173.11255011800677 -0.2338333129799963 0.0015039746917994 0.0113551573667159 -0.5034956254629734 0.8639218446138243
3373 1317379393006774051 0 1317379393010461091 world base_link -15.35760547418613 -173.61204665899277 -0.2431106567299963 0.0030473110267718 0.0115130749868893 -0.4985622502841229 0.8667720839941051
