%time,field.header.seq,field.header.stamp,field.header.frame_id,field.pose.position.x,field.pose.position.y,field.pose.position.z,field.pose.orientation.x,field.pose.orientation.y,field.pose.orientation.z,field.pose.orientation.w
1317357625563828560,0,1317357625563828560,world,4.656612873077393e-10,4.656612873077393e-10,0.0,0.011313581382858522,0.005597112517126813,-6.332843319423187e-05,0.9999203324251754
1317357625663884440,0,1317357625663884440,world,0.08598982286639512,-0.003052358515560627,0.00038146973000152684,0.011116024471527278,0.005739263027502965,0.003005731887851859,0.9999172267921319
1317357625773821306,0,1317357625773821306,world,0.1835187072865665,-0.006315200123935938,0.0005798339900024985,0.010876940949710444,0.005657144461922961,0.0067304935334902005,0.9999021898810448
1317357625873814372,0,1317357625873814372,world,0.27589961141347885,-0.007712228689342737,0.00038146973000152684,0.010768627628247977,0.005342031571179127,0.010349955051511539,0.9998741809788512
1317357625973948698,0,1317357625973948698,world,0.3740195333957672,-0.007683434057980776,-0.0034255981399979873,0.010501623655514977,0.004653323352651445,0.014718953582751937,0.9998256922523059
1317357626083809147,0,1317357626083809147,world,0.4926595778670162,-0.006763778161257505,-0.007316589349997571,0.010453185792845085,0.0037000898140296173,0.02072057745742198,0.9997238108157569
1317357626183795327,0,1317357626183795327,world,0.6117266663350165,-0.005249063018709421,-0.009948730470000555,0.01055986622937392,0.0032060713410713526,0.027197935055753714,0.9995691485137367
1317357626293903806,0,1317357626293903806,world,0.7556569296866655,-0.0010134093463420868,-0.011726379389997987,0.010644759613552567,0.0031632237477807927,0.03579375346819691,0.9992974984062298
1317357626393852192,0,1317357626393852192,world,0.8983194367028773,0.004193269181996584,-0.012840270989997293,0.01134079790271986,0.0031205204967178625,0.044766502967584,0.9989282300880342
1317357626493846274,0,1317357626493846274,world,1.0510086356662214,0.013639168348163366,-0.013885498039996946,0.012120672958778724,0.0030773556435602905,0.0543757936946766,0.9984422327953397
1317357626603834116,0,1317357626603834116,world,1.2268636696971953,0.028536197263747454,-0.013031005860000278,0.012242703133149267,0.0028893432305881397,0.06618511984310207,0.9977280680761886
1317357626703813969,0,1317357626703813969,world,1.3925983775407076,0.0474373297765851,-0.012077331539998681,0.01068451434773445,0.0021205546603838446,0.07791495009237329,0.9969004990234424
1317357626803794909,0,1317357626803794909,world,1.5633224328048527,0.07332958467304707,-0.010200500490000763,0.008582447737378356,0.0009912892734292925,0.09026624865936894,0.9958801952490954
1317357626913933944,0,1317357626913933944,world,1.758176430594176,0.10858911788091063,-0.006889343259999237,0.0067870099549571785,0.0003271733658600324,0.10473922871226266,0.9944765072248918
1317357627013807652,0,1317357627013807652,world,1.9408702545333654,0.1455792156048119,-0.006896972649997224,0.006487886723111849,-4.362198512883504e-05,0.11917431491397848,0.9928521481508584
1317357627123905384,0,1317357627123905384,world,2.146404890343547,0.19554810831323266,-0.007209777829999098,0.005607482607511014,-2.5376700102718768e-05,0.1359538760618303,0.9906992980105487
1317357627223849836,0,1317357627223849836,world,2.335638133343309,0.24986439617350698,-0.006317138669999167,0.004618687086585323,0.00017011616688919484,0.1518056171990934,0.9883995616029422
1317357627323798634,0,1317357627323798634,world,2.527904794551432,0.30854655988514423,-0.006156921379997016,0.003813247052874785,0.0003402843892259808,0.16872839133202144,0.9856551492849597
1317357627433997661,0,1317357627433997661,world,2.7379019514191896,0.38402961473912,-0.006980895989997293,0.0024410194218933926,-1.4820333723916039e-05,0.18739801621319963,0.982281031438507
1317357627533740219,0,1317357627533740219,world,2.9286131400149316,0.4651912320405245,-0.0124893188399966,0.0009409205341617341,-0.00029130140577775156,0.20442797926932765,0.9788811118332493
1317357627633784033,0,1317357627633784033,world,3.120742227649316,0.5510821831412613,-0.018478393549997918,0.0005031251112419695,-0.00038214593790968586,0.22247138360612942,0.9749390156855858
1317357627743780668,0,1317357627743780668,world,3.3338816424366087,0.6517535583116114,-0.02490234375,0.002616105172780738,-0.0007325294154153974,0.24349942822746762,0.9698972357148342
1317357627843790349,0,1317357627843790349,world,3.527857800014317,0.7513107159174979,-0.02672576903999868,0.005270334201842123,-0.0006635743419192829,0.2636273025755313,0.9646099878102253
1317357627953850901,0,1317357627953850901,world,3.738148260861635,0.8774002413265407,-0.022605895989997293,0.004829212478474444,0.000404125509200405,0.2875321937542907,0.9577587133220221
1317357628053785341,0,1317357628053785341,world,3.9256179889198393,1.0083004427142441,-0.016868591310000625,0.0017909199585566346,0.0012977111648924812,0.3107193740439628,0.9504991210649079
1317357628153761396,0,1317357628153761396,world,4.112436995608732,1.1507314797490835,-0.014518737789998681,0.00024003980902095965,0.00125419200231594,0.3347213419839932,0.9423162911696613
1317357628263747746,0,1317357628263747746,world,4.31964734219946,1.320649344008416,-0.012672424309997155,0.00024478490082598505,0.0010438657857924072,0.3619330929582158,0.9322034577527982
1317357628363778809,0,1317357628363778809,world,4.508749335072935,1.4863089728169143,-0.011070251459997849,0.0028691549315758404,0.002092049914572072,0.38730950088687083,0.9219429167795024
1317357628463954939,0,1317357628463954939,world,4.694437919417396,1.670717460103333,-0.00980377196999882,0.0052164531599982,0.002890367882483971,0.41290749011202055,0.9107534457795508
1317357628573779082,0,1317357628573779082,world,4.890179874608293,1.8944853176362813,-0.006446838380000486,0.006130070305634944,0.004104806776592081,0.44046085970889703,0.8977415016940422
1317357628673768334,0,1317357628673768334,world,5.0621159474831074,2.116616021376103,-0.003654479979999792,0.00647300063001949,0.005408716793008116,0.4658302663875271,0.8848338877794083
1317357628773772283,0,1317357628773772283,world,5.22661815257743,2.355114955920726,-0.0027770996100002776,0.006839237934919133,0.006202310302261538,0.49137132704529674,0.8709012430402933
1317357628883735390,0,1317357628883735390,world,5.396167597500607,2.6398216686211526,-0.0021057128899997224,0.006526582657602036,0.007070675858344292,0.5189227988754811,0.8547669495651764
1317357628983836914,0,1317357628983836914,world,5.539950811304152,2.9206042611040175,-0.002784728999998265,0.006204355390846775,0.008110525675956397,0.5435004976609561,0.8393467307315473
1317357629093943764,0,1317357629093943764,world,5.684974517906085,3.2533049429766834,-0.0029373168899979873,0.005591570879681252,0.008755294922543023,0.5698297493769224,0.8216971071331275
1317357629193756222,0,1317357629193756222,world,5.804183958796784,3.575782807543874,0.0016174316399997224,0.005285092019643271,0.010565719501150149,0.5926303949695577,0.8053878868793551
1317357629293896150,0,1317357629293896150,world,5.91375471604988,3.914938245434314,0.007682800300003123,0.005700894264587902,0.012605144972623477,0.614201016114811,0.7890283403834977
1317357629403975003,0,1317357629403975003,world,6.014009356731549,4.3107848023064435,0.009696960450000347,0.006409901588666363,0.013390888612977703,0.6358369647952308,0.7716806019745261
1317357629503876764,0,1317357629503876764,world,6.085044242208824,4.690934794489294,0.007751464850002776,0.005375341991750741,0.012620761199536723,0.6536401198449839,0.7566811850536861
1317357629613752502,0,1317357629613752502,world,6.144183909520507,5.131988251116127,0.001960754400002429,0.004362435325613162,0.011431002467482866,0.6706849024613112,0.7416414652317381
1317357629713736387,0,1317357629713736387,world,6.183366062352434,5.550710754934698,-0.005546569819998126,0.0042461537326776875,0.01016698119813817,0.6842521657258589,0.7291622428316396
1317357629813882901,0,1317357629813882901,world,6.208894406445324,5.986314055509865,-0.011291503899997224,0.005227446587399454,0.00928500207079557,0.6963864814797924,0.7175878559109792
1317357629923812290,0,1317357629923812290,world,6.224557186011225,6.481463222764432,-0.013702392580000833,0.006319450050265605,0.008329490909139894,0.7082778028060515,0.7058563863736651
1317357630023773567,0,1317357630023773567,world,6.221344516612589,6.949130916036665,-0.015403747560000625,0.006578449214523337,0.007352084032738903,0.7173661365808345,0.6966265118077226
1317357630133784522,0,1317357630133784522,world,6.202678355621174,7.482439640443772,-0.019920349119999514,0.007181960839114494,0.006182651860907334,0.7250707879685163,0.6886091392721905
1317357630233719064,0,1317357630233719064,world,6.176368243293837,7.984570347238332,-0.024162292479999792,0.007710171789354555,0.005741204352812241,0.7304688886538342,0.6828783160508102
1317357630333711468,0,1317357630333711468,world,6.140978086506948,8.501357331406325,-0.023216247560000625,0.007944987495392778,0.006187516226046467,0.7348648421530853,0.6781388173404993
1317357630443881710,0,1317357630443881710,world,6.093419291777536,9.084754470270127,-0.0159072875899966,0.006830135046095284,0.006339214063931196,0.7383746695050026,0.6743263386919437
1317357630543749181,0,1317357630543749181,world,6.0415131349582225,9.631125356536359,-0.007904052729998057,0.00542960859728071,0.006089660543697448,0.7405962314812473,0.671900779357129
1317357630653735687,0,1317357630653735687,world,5.9819624030496925,10.249079935718328,-0.005622863770000208,0.005082736471990416,0.006372346235569853,0.7421906372940483,0.6701392518771486
1317357630753729843,0,1317357630753729843,world,5.924383662175387,10.827857539989054,-0.006782531740000763,0.005887658379358245,0.007222679280775298,0.7427539187718596,0.6694996523762059
1317357630863713531,0,1317357630863713531,world,5.856201125541702,11.481348066590726,-0.00406646727999771,0.005922556289252745,0.008686152889249033,0.742511093709145,0.6697512596433352
1317357630964064511,0,1317357630964064511,world,5.792318269377574,12.091328960377723,0.003280639650000694,0.004685424881644752,0.009384481233263214,0.742034136727372,0.6702800297166287
1317357631063717383,0,1317357631063717383,world,5.727210080018267,12.713768902700394,0.006752014159999931,0.0036260321017906228,0.008770789192673767,0.7414261472943765,0.6709673563269318
1317357631173708160,0,1317357631173708160,world,5.65322040184401,13.414815000258386,0.002998352049999653,0.004067361507368803,0.0071679955322455245,0.7408389682675902,0.671632116196531
1317357631273706416,0,1317357631273706416,world,5.5880474504083395,14.0675561982207,-0.0005874633800004858,0.004034895342259549,0.006944352874050253,0.7404423596069707,0.6720718768721089
1317357631383729338,0,1317357631383729338,world,5.516079673077911,14.803620222955942,-0.002609252930000139,0.00330460537979758,0.007945912477062413,0.7398876072653084,0.6726754571659408
1317357631483760716,0,1317357631483760716,world,5.449532265076414,15.48726080590859,-0.0010147094699988202,0.0017638920121549493,0.008783075100384754,0.7392833700931264,0.67333486838311
1317357631593772842,0,1317357631593772842,world,5.377237558597699,16.25483762472868,0.0014877319400028455,0.0001715938003699095,0.009469001096125688,0.7386250052045517,0.6740500057565353
1317357631693825257,0,1317357631693825257,world,5.3118353022728115,16.966196779627353,-0.005523681639999722,0.00017440197151752206,0.00871058184127472,0.7380345167439368,0.6747067121664658
1317357631793725771,0,1317357631793725771,world,5.246114265872166,17.69020569231361,-0.01704406737999875,0.0004315283677252882,0.007006484001375645,0.7374206196778572,0.6753973294580985
1317357631903828696,0,1317357631903828696,world,5.174022929742932,18.50085524050519,-0.025047302239997293,0.0002770805915626763,0.006261040375597605,0.7368514730703117,0.6760256128534425
1317357632003767676,0,1317357632003767676,world,5.1123826410621405,19.253017598297447,-0.028053283689999375,0.0003970989300520031,0.0078980087168749,0.7363073371977845,0.676601041204827
1317357632113703960,0,1317357632113703960,world,5.044844247866422,20.087789624929428,-0.02896881102999771,0.0004606158488212786,0.009525734751100735,0.7358840113496035,0.6770404493459072
1317357632213674031,0,1317357632213674031,world,4.981873241951689,20.855390587821603,-0.030288696290000416,-8.353525500546122e-05,0.01055014602501952,0.7354391407764944,0.6775086402804347
1317357632313836302,0,1317357632313836302,world,4.919047984760255,21.627896541263908,-0.03625488280999889,0.0012934956762192269,0.00920425113997011,0.7352122270346053,0.6777732584343407
1317357632423827962,0,1317357632423827962,world,4.852195099927485,22.485861474182457,-0.04348754883000083,0.004702530946424782,0.0070402864174383805,0.7350450567313023,0.6779654011413379
1317357632523663961,0,1317357632523663961,world,4.792748789535835,23.27627786900848,-0.04886627196999882,0.007636276050861126,0.006629944058003382,0.7350258462964883,0.6779636689425138
1317357632633685624,0,1317357632633685624,world,4.726290041813627,24.15443955734372,-0.04638671875,0.008267362277034639,0.007089638884147943,0.7351954278113764,0.6777677114371264
1317357632733682328,0,1317357632733682328,world,4.661157093010843,24.959651256911457,-0.032852172849999306,0.004876139833667959,0.009566741924811682,0.7351398772282278,0.6778304077113481
1317357632833697207,0,1317357632833697207,world,4.594937684945762,25.768699515145272,-0.024299621579999098,0.00204188607585352,0.011447656687873283,0.7352431321748972,0.6777037099258467
1317357632943883455,0,1317357632943883455,world,4.518344440031797,26.66021471004933,-0.02038574217999667,-0.000960641650077405,0.01280823182265866,0.7353406291485128,0.6775759628917382
1317357633043678989,0,1317357633043678989,world,4.4472321793437,27.47065331414342,-0.021385192869999514,-0.0019143098127631486,0.012492273142319616,0.7354542801925413,0.6774564785107229
1317357633153689055,0,1317357633153689055,world,4.369907173328102,28.361196795012802,-0.02861022948999903,-0.0007337760441886725,0.011189600688801897,0.7356087623557829,0.6773138143833591
1317357633253672565,0,1317357633253672565,world,4.3011032631620765,29.16939449775964,-0.0370178222599975,0.0004912955579565296,0.010170827883662673,0.7357640354303651,0.6771614261430284
1317357633353674513,0,1317357633353674513,world,4.2316991437692195,29.978248591534793,-0.041030883790000416,-0.00045673735307950577,0.01002354383885536,0.7357517149172365,0.6771770329509458
1317357633463915026,0,1317357633463915026,world,4.155628887936473,30.866545365191996,-0.03870391844999688,-0.0019142623304865861,0.010588052181279832,0.7356693842362132,0.6772553328311619
1317357633563663789,0,1317357633563663789,world,4.084809449501336,31.67400663951412,-0.0411300659200009,-0.0018565359089783235,0.00995534376378828,0.7356759509024815,0.6772579565192963
1317357633673797881,0,1317357633673797881,world,4.0087997789960355,32.558435645885766,-0.04959106444999861,-0.00014126070222079783,0.007834693544077136,0.7355414150833274,0.6774344428206325
1317357633773659817,0,1317357633773659817,world,3.941665023099631,33.362475355155766,-0.05483245848999729,0.001057705138578971,0.005934144233565792,0.7354267814526616,0.6775773876940067
1317357633873661077,0,1317357633873661077,world,3.874994322191924,34.16651197941974,-0.05135345459000007,0.0008847659540550646,0.0060570411369792135,0.7352867803965537,0.6777284707137081
1317357633983723037,0,1317357633983723037,world,3.8030656524933875,35.05159569950774,-0.04065704344999688,0.00013258243452383186,0.007436236408620098,0.7350117740269199,0.6780135521151278
1317357634083645262,0,1317357634083645262,world,3.7379195948597044,35.85614174650982,-0.033714294429998404,-0.0012736859514506553,0.00908081120667047,0.734852193117502,0.6781652975951538
1317357634193636296,0,1317357634193636296,world,3.6658171438612044,36.74155210936442,-0.029441833489997293,-0.0030863233175313855,0.011320517233347264,0.734621426424391,0.6783757663243448
1317357634293816681,0,1317357634293816681,world,3.601343129063025,37.54401809722185,-0.02812194823999903,-0.004510753840983529,0.012569558387887049,0.7346555161563717,0.6783088764587522
1317357634393815862,0,1317357634393815862,world,3.537506522843614,38.3451552670449,-0.03292083739999896,-0.004217947571130146,0.012517707874539064,0.7345682024768849,0.6784062734215633
1317357634503686555,0,1317357634503686555,world,3.4664340117014945,39.224974242504686,-0.04491424559999757,-0.002801343669088282,0.01128058446046916,0.7345188371174247,0.6784887462644786
1317357634603643870,0,1317357634603643870,world,3.400999078527093,40.02298586349934,-0.05327606200999924,-0.001376508583163857,0.009523128015105195,0.734405002063614,0.6786432849449489
1317357634713641467,0,1317357634713641467,world,3.3267949970904738,40.90084980940446,-0.05988311766999743,-0.0018426143907094023,0.007123266009739455,0.7342756827106518,0.6788115243816709
1317357634813767630,0,1317357634813767630,world,3.2600883580744267,41.697761522606015,-0.06539154051999674,-0.0022332590568551274,0.005339522269184258,0.7344267903253489,0.6786632388072362
1317357634913886629,0,1317357634913886629,world,3.1965368094388396,42.492956407833844,-0.06404113768999764,-0.001283545701340176,0.005251064993200375,0.7346432620658211,0.6784320572674605
1317357635023729150,0,1317357635023729150,world,3.129683611448854,43.36502317059785,-0.06423187256000062,0.0014688270054800552,0.005392530046884426,0.7351088922461126,0.6779260134466111
1317357635123551246,0,1317357635123551246,world,3.0666272605303675,44.15607884014025,-0.06406402588000049,0.003753420945253527,0.006051873562423014,0.7353477004853711,0.6776525998241791
1317357635233615169,0,1317357635233615169,world,2.9967404261697084,45.024400615133345,-0.05532836913999972,0.0027812517394225737,0.007607530555209742,0.7359373597759421,0.6770011762202699
1317357635333605138,0,1317357635333605138,world,2.932379658333957,45.81179115315899,-0.043235778810000625,0.0010471037180053927,0.010391921406019746,0.736509645184053,0.6763464009619294
1317357635433763063,0,1317357635433763063,world,2.868022986454889,46.59561906429008,-0.03520202635999681,0.00029957885694903083,0.012446628034939615,0.7370889865634626,0.6756810028333754
1317357635543609172,0,1317357635543609172,world,2.79589323932305,47.45234944252297,-0.034164428709999584,0.0010858111929078137,0.012298703538903893,0.7377066861638064,0.6750084503874975
1317357635643605235,0,1317357635643605235,world,2.7237377332057804,48.22603181004524,-0.03518676758000083,0.000854010465094836,0.009966223224409798,0.7380312001425711,0.6746924430263638
1317357635743639519,0,1317357635743639519,world,2.6503279716707766,48.996468822006136,-0.038185119630000486,0.0008914054187749967,0.007213957653579236,0.7384431413640408,0.6742765687637078
1317357635853582292,0,1317357635853582292,world,2.5668791707139462,49.839368543587625,-0.04048919676999674,-0.00016333044629729594,0.005066698166225391,0.738832391955746,0.6738701644158231
1317357635953733267,0,1317357635953733267,world,2.49179241922684,50.60401793010533,-0.03479003905999889,-0.0014708925695041902,0.004730640505903164,0.7391380973787938,0.6735356935743715
1317357636063600705,0,1317357636063600705,world,2.4122885931283236,51.441413403023034,-0.0283203125,-0.0019343260270429075,0.0054200039073203825,0.7394749446421147,0.6731594819855151
1317357636163633070,0,1317357636163633070,world,2.3390688041690737,52.19779398944229,-0.025527954099999306,-0.0024208350031919594,0.004679502216199114,0.7397677907806631,0.6728416288699688
1317357636263578389,0,1317357636263578389,world,2.2657114807516336,52.95056132413447,-0.019752502439999375,-0.002760296539261434,0.0042072019012959734,0.7399519689806879,0.6726408877081294
1317357636373584103,0,1317357636373584103,world,2.187761106295511,53.7732269493863,-0.014099121089998334,-0.0028328160990157077,0.005301272195715153,0.7401448135688735,0.6724206470752914
1317357636473640262,0,1317357636473640262,world,2.1171334551181644,54.51826737029478,-0.006889343259999237,-0.003299877960370974,0.0065440885871539236,0.740246192698278,0.6722959615420234
1317357636583663679,0,1317357636583663679,world,2.0361392875202,55.332361123058945,-0.00019073485999854256,-0.005230906794982218,0.007909423817005415,0.7402280694926985,0.6722889882811541
1317357636683621682,0,1317357636683621682,world,1.964314668206498,56.06584053253755,0.0025329589900024985,-0.006104420841351578,0.008733952721259479,0.7403698484694028,0.6721152740367146
1317357636783596818,0,1317357636783596818,world,1.8949356540106237,56.79283942049369,0.0009689331100020127,-0.00593031497987484,0.008842318211274708,0.740611199474289,0.6718494593181903
1317357636893618122,0,1317357636893618122,world,1.818314298056066,57.58525752602145,-0.0005798339799980567,-0.004961459979060289,0.008426849248745892,0.740782234996035,0.6716740671195324
1317357636993850046,0,1317357636993850046,world,1.7474076875951141,58.29429372260347,-0.001876831049997918,-0.0036009549769044245,0.007352863449310436,0.7408268359863739,0.6716461625028227
1317357637103592345,0,1317357637103592345,world,1.6705203230958432,59.06281352415681,-0.001396179200000347,-0.0026523731938991597,0.006327306217393586,0.7408070141879157,0.6716828848812935
1317357637203598576,0,1317357637203598576,world,1.6023467557970434,59.746677483897656,0.0005493164100016656,-0.0019356360757447348,0.0053475325714594886,0.740408446454176,0.6721331636124593
1317357637303629825,0,1317357637303629825,world,1.5361449709162116,60.41670550359413,0.005500793460001319,-0.0023623038107881866,0.004383851111597124,0.7396752113434704,0.6729456018833387
1317357637413754895,0,1317357637413754895,world,1.4674566891044378,61.13640691945329,0.014846801760000972,-0.003133341331394973,0.004460707250016566,0.738284200730824,0.6744677332639263
1317357637513618246,0,1317357637513618246,world,1.4101954454090446,61.775197142735124,0.022819519050003123,-0.00316864299944273,0.005146856998355192,0.7363870460640136,0.676533508374638
1317357637623595998,0,1317357637623595998,world,1.3525419307406992,62.462463504169136,0.03248596192000264,-0.003472108693819925,0.006083223287577495,0.7338144685896781,0.6793138188967601
1317357637723597431,0,1317357637723597431,world,1.3037460769992322,63.073291022796184,0.0399246215799991,-0.004237457817214801,0.006262473853751038,0.7309827197768793,0.6823540787304454
1317357637823522181,0,1317357637823522181,world,1.2591914818622172,63.66990084480494,0.045799255369999514,-0.005494784289293725,0.006166718878635034,0.7270709623181218,0.6865126325696318
1317357637933747536,0,1317357637933747536,world,1.2197018708102405,64.30968095222488,0.048812866209999584,-0.007103880511043168,0.005733740292069238,0.721738779940759,0.6921053334815249
1317357638033577257,0,1317357638033577257,world,1.1934128173161298,64.87309219641611,0.05071258545000035,-0.007949215214396043,0.005721875618376182,0.7156190490065973,0.6984221122041999
1317357638143615296,0,1317357638143615296,world,1.1780080716125667,65.47263651015237,0.05290985108000257,-0.008411296325817908,0.005717011451853054,0.7074899557505143,0.7066502164340669
1317357638243560573,0,1317357638243560573,world,1.1781582897529006,65.99689995264634,0.055969238279999445,-0.008321780280220278,0.006183105475857674,0.698847313351187,0.7151957422981975
1317357638353567260,0,1317357638353567260,world,1.1973948103841394,66.55073292599991,0.05852508545000035,-0.007187284291328841,0.006754854295142607,0.6878657247622758,0.7257709415409492
1317357638453630731,0,1317357638453630731,world,1.2282132194377482,67.03328210487962,0.06249237061000201,-0.006548781220900636,0.007363775459308413,0.6760324591910333,0.7368059462271117
1317357638553572432,0,1317357638553572432,world,1.2715855080168694,67.4989687348716,0.06519317627000021,-0.006036659298019713,0.007900268919191614,0.6627162979165957,0.7488045492458268
1317357638663552866,0,1317357638663552866,world,1.3368073941674083,67.99653764395043,0.06864929200000347,-0.005508943502171291,0.008158695729426837,0.6465153661123877,0.7628374457288065
1317357638763546547,0,1317357638763546547,world,1.413549586897716,68.44111869717017,0.07228088379000042,-0.0052014913341706746,0.009195825354406377,0.6297633329231805,0.7767152153713993
1317357638873513253,0,1317357638873513253,world,1.5200637562666088,68.9204850657843,0.07711791991999917,-0.0036057151493391715,0.010313934415814756,0.6094756511497158,0.7927294949923069
1317357638973591693,0,1317357638973591693,world,1.6419635268393904,69.34445747360587,0.08010864258000083,0.00033455797900635567,0.011899570470062322,0.5897091382221862,0.807527968921717
1317357639083500005,0,1317357639083500005,world,1.7998442112002522,69.7995234313421,0.07975006104000215,0.004017812897261011,0.012664765829467857,0.5665756938563429,0.8239025694930261
1317357639183539742,0,1317357639183539742,world,1.9640716649591923,70.20402961829677,0.07477569579999965,0.0072273784354771175,0.013448044443624482,0.5442669344471546,0.8387731631192603
1317357639293597533,0,1317357639293597533,world,2.164969071978703,70.63920378265902,0.06896972657000333,0.007605796096427588,0.01374808991187397,0.5190273356853432,0.8546132263783943
1317357639393712727,0,1317357639393712727,world,2.3687562372069806,71.0216518305242,0.06610870362000298,0.008293400233920657,0.014385587618585004,0.49638808777823673,0.8679418993765042
1317357639493769198,0,1317357639493769198,world,2.5938277940731496,71.38780235825107,0.06622314452999944,0.011192096934705634,0.016723704037817824,0.4741135363360588,0.8802337242757609
1317357639603553315,0,1317357639603553315,world,2.865312130888924,71.7686473573558,0.07012939452999944,0.016399710827220384,0.02037832010185567,0.44917824114747196,0.8930591700633689
1317357639703588849,0,1317357639703588849,world,3.122774804709479,72.10297591192648,0.0682220459000007,0.018221429370749484,0.019770872551915432,0.42587752945389074,0.9043812370988648
1317357639813688748,0,1317357639813688748,world,3.421178727177903,72.46221598656848,0.057846069340001804,0.01829790956275555,0.015963154956568935,0.39944322644039626,0.9164362896788582
1317357639913719132,0,1317357639913719132,world,3.7152912749443203,72.78119556745514,0.04016113282000333,0.01915367899696585,0.010336621964158393,0.37431609956012074,0.927045710004285
1317357640023540497,0,1317357640023540497,world,4.068041155347601,73.12359282467514,0.023185729979999792,0.018694548278396176,0.0051907384418041855,0.3454308925860899,0.9382436083162371
1317357640123538867,0,1317357640123538867,world,4.417253238847479,73.42303468892351,0.018409729010002707,0.01835004766515716,0.0036624630420337765,0.3185029045703116,0.9477371797578836
1317357640223507396,0,1317357640223507396,world,4.795342453755438,73.70858507277444,0.01424407959000007,0.018795036659948118,0.0028248932666194108,0.2914699632063321,0.9563911475560001
1317357640333545361,0,1317357640333545361,world,5.24153340770863,74.00993467401713,0.00968933106000236,0.01757574607144819,0.0011170422429707659,0.26185834809263125,0.964945620696243
1317357640433576639,0,1317357640433576639,world,5.674970489926636,74.2671106630005,0.0153427124100034,0.016595429222606147,0.001962282032818944,0.23626621042311852,0.9715446561998268
1317357640543560524,0,1317357640543560524,world,6.1820000149309635,74.53152174549177,0.01542663575000347,0.013330295230903915,0.0019271957018669645,0.21070429817690672,0.9774570516782621
1317357640643508569,0,1317357640643508569,world,6.665726668899879,74.75651636952534,0.008255004890003192,0.010768957377038788,0.0006838789558296704,0.18924569779992678,0.9818704740090741
1317357640743517906,0,1317357640743517906,world,7.175395020982251,74.96460991213098,0.0061569213900014574,0.00842977040987011,0.0008593766429657722,0.17044009053083123,0.9853316071163375
1317357640853522035,0,1317357640853522035,world,7.760024496586993,75.17420750577003,0.01147460938000222,0.007727802721339952,0.0022129538284621423,0.15349230980925027,0.9881171462584151
1317357640953718974,0,1317357640953718974,world,8.313330871751532,75.35045081796125,0.014671325690002845,0.008309072042230713,0.0030952146074236936,0.1411822365469237,0.9899439151042546
1317357641063513762,0,1317357641063513762,world,8.94097682624124,75.53184260148555,0.014152526860002013,0.00838236668018601,0.004326925910094731,0.12953375077862228,0.9915301412716758
1317357641163541363,0,1317357641163541363,world,9.530240587657318,75.68892378127202,0.015274047849999306,0.007126466065292689,0.0056716759465540965,0.12042893006254055,0.992680169227415
1317357641263570618,0,1317357641263570618,world,10.134196164319292,75.84005398442969,0.012931823729999792,0.005157099923763029,0.005932934215338149,0.11275938158476839,0.9935912270529533
1317357641373514528,0,1317357641373514528,world,10.816772214137018,75.99729033606127,0.01110839844000111,0.002835013636433829,0.006851892240191036,0.10537502019485132,0.9944049071627434
1317357641473535024,0,1317357641473535024,world,11.454153115861118,76.12965098116547,0.005027771000001735,0.0035708907778059847,0.00685157934639281,0.0988534692222009,0.9950720055464571
1317357641573462793,0,1317357641573462793,world,12.106475702254102,76.2544221682474,-0.0029449462900004164,0.003536365169254262,0.006792288796433021,0.09214767832756263,0.995715905423397
1317357641683479385,0,1317357641683479385,world,12.842644773423672,76.38785015186295,-0.01180267334000007,0.003265401296010443,0.007123585780689409,0.08428648433290845,0.9964107487571575
1317357641783536911,0,1317357641783536911,world,13.528188938042149,76.49958786414936,-0.018127441399997224,0.002585567360542206,0.007395845519841924,0.07725896029834409,0.9969802753134535
1317357641893711519,0,1317357641893711519,world,14.295742408605292,76.61439179023728,-0.023742675779999445,0.0023533123080300223,0.006106308637451529,0.07039725497780813,0.9974975696249061
1317357641993512662,0,1317357641993512662,world,15.005822278093547,76.70991464843974,-0.031066894529999445,0.0015224940858712599,0.004001238908236582,0.0648978346413693,0.9978827301631283
1317357642093627784,0,1317357642093627784,world,15.727361971978098,76.79931011097506,-0.04296112059999757,0.002608515473394042,0.0006604738427442592,0.060102210417848495,0.998188601279446
1317357642203481647,0,1317357642203481647,world,16.533838940318674,76.88989404588938,-0.04931640625,0.0028026539785130887,0.00019196654299126112,0.05572130519540047,0.9984424091688233
1317357642303501053,0,1317357642303501053,world,17.274785466259345,76.97029185900465,-0.04299926758000083,0.0020623877441821995,0.0033181566099602083,0.052411414908638626,0.9986179349384721
1317357642403639682,0,1317357642403639682,world,18.017638261662796,77.0492288065143,-0.03294372557999736,-4.082041181394948e-05,0.007306507538605807,0.04991904510968809,0.9987265402584529
1317357642513519120,0,1317357642513519120,world,18.83446728507988,77.13003843836486,-0.029525756829997363,-0.0005277584816130252,0.01002407005648172,0.04764954372728389,0.9988136765548765
1317357642613490198,0,1317357642613490198,world,19.57503598043695,77.19729476654902,-0.03569793700999924,0.00039820192152170697,0.009117819805285267,0.04596495580835619,0.9989013613139008
1317357642723475439,0,1317357642723475439,world,20.38997937273234,77.26916641788557,-0.04206848143999764,0.0002674046311644364,0.00867721205329056,0.04422726464938789,0.9989837754174882
1317357642823511893,0,1317357642823511893,world,21.131842580623925,77.33161365287378,-0.045593261720000555,0.0010458066795161754,0.009629992329110396,0.042827927006098,0.9990355039759552
1317357642923604207,0,1317357642923604207,world,21.873884077882394,77.39026017906144,-0.047706603999998265,0.001992655309195014,0.011096920703782537,0.041641806011189025,0.9990689904445232
1317357643033459912,0,1317357643033459912,world,22.688644292764366,77.45002520829439,-0.04837799071999882,0.0032400699921544492,0.012197099609196604,0.03998172296594718,0.9991207106932792
1317357643133448738,0,1317357643133448738,world,23.426779435016215,77.49963998561725,-0.05261230467999667,0.003536045708831235,0.010871072041176332,0.038622950772570025,0.9991884626270663
1317357643233436695,0,1317357643233436695,world,24.164996383478865,77.5517606320791,-0.06751251219999688,0.002131086113935531,0.007126230178627184,0.03764067933867682,0.9992636561860633
1317357643343428920,0,1317357643343428920,world,24.97598820924759,77.61315394425765,-0.0767974853499993,0.0017011971446163436,0.0030721105434841547,0.03675853757349848,0.9993180064326577
1317357643443719078,0,1317357643443719078,world,25.711239070864394,77.6666906857863,-0.0823135375899966,0.0013339404412986825,0.0006616784247437423,0.03616723851711395,0.9993446420742984
1317357643553451041,0,1317357643553451041,world,26.520602066535503,77.72646299097687,-0.07791137694999861,0.0003620819181260415,0.0016967746589523448,0.035148996170925956,0.9993805771179554
1317357643653489463,0,1317357643653489463,world,27.24978180229664,77.78614385891706,-0.06583404540999993,-0.0010120474807543858,0.0034505385429454624,0.03404581295635825,0.999413804269183
1317357643753461756,0,1317357643753461756,world,27.977090921951458,77.84285301715136,-0.05325317383000083,-0.00288836612079433,0.006130441464628077,0.03302294088094193,0.9994316186734212
1317357643863413146,0,1317357643863413146,world,28.774134020786732,77.90011057117954,-0.0487136840799991,-0.0017894035942906865,0.007073079896404849,0.03182641955846996,0.9994667821361767
1317357643963659720,0,1317357643963659720,world,29.49721095105633,77.94560673600063,-0.04557037352999771,-0.00028887477365352205,0.006963315778469703,0.03126863741805627,0.9994867188205916
1317357644073441726,0,1317357644073441726,world,30.29218386905268,77.99456157861277,-0.04135131836000028,0.0006762766319685233,0.007238208328292517,0.03080432627280366,0.9994989967343599
1317357644173441371,0,1317357644173441371,world,31.0186489589978,78.03899591555819,-0.042175292970000555,0.0006393204481750631,0.006469222110699501,0.03020688569683816,0.9995225282559392
1317357644273421157,0,1317357644273421157,world,31.748257932486013,78.08117553172633,-0.0412979125899966,0.0016487301988184773,0.00543121964004418,0.029905818807262063,0.9995366054044346
1317357644383504527,0,1317357644383504527,world,32.5569137558341,78.12914169067517,-0.036842346189999375,0.002415552930335232,0.005749369834994509,0.02954595624244441,0.9995439691780752
1317357644483432476,0,1317357644483432476,world,33.29457409493625,78.17759816301987,-0.03620147704999965,0.0009449909648627448,0.00598254975669915,0.029142677593253924,0.9995569120531258
1317357644583452859,0,1317357644583452859,world,34.03679674072191,78.22607396915555,-0.0360412597599975,0.000992245592370641,0.005504171374571781,0.029090635222803696,0.9995611309412235
1317357644693588042,0,1317357644693588042,world,34.85953463660553,78.27884367248043,-0.030288696290000416,0.0009548255181340932,0.005480615897564931,0.03002442428486049,0.999533683826601
1317357644793580394,0,1317357644793580394,world,35.614060015650466,78.32570946635678,-0.02876281737999875,0.002204944943776677,0.005787158908085666,0.031015805742861752,0.9994997082559296
1317357644903603608,0,1317357644903603608,world,36.44793450227007,78.38116293726489,-0.02738189696999882,0.001630362534925827,0.005479640328652003,0.032652352603340234,0.9994504186448372
1317357645003478926,0,1317357645003478926,world,37.212715247645974,78.43579909065738,-0.024200439449998612,-0.0002238076760796258,0.0055730795773901096,0.034124029648733345,0.9994020418703777
1317357645103466825,0,1317357645103466825,world,37.97950672195293,78.49297819286585,-0.026550292970000555,-0.0010398689015177407,0.0035549385501118256,0.03536915776550403,0.9993674518231678
1317357645213435191,0,1317357645213435191,world,38.82869811891578,78.55680487677455,-0.030303955080000833,-0.0010297500601490624,0.0009678219903209231,0.03673869217309905,0.999323907165649
1317357645313580852,0,1317357645313580852,world,39.61064822366461,78.6145538543351,-0.034484863279999445,-0.0004577003999409432,0.000514632341226597,0.03765032299963067,0.9992907378945932
1317357645423652587,0,1317357645423652587,world,40.47747859940864,78.67987360106781,-0.03026580809999757,-0.0009102546289604875,0.0011355280260406733,0.038810721642937085,0.9992455203292967
1317357645523435051,0,1317357645523435051,world,41.27374832006171,78.74145384738222,-0.025543212889999722,-0.0005445520106839743,0.001797225772907789,0.039851232804509085,0.9992038594233859
1317357645623414750,0,1317357645623414750,world,42.0770863792859,78.80100457929075,-0.026947021479998057,0.0004202327020642383,0.0023195695322130007,0.040788884185012364,0.9991650063571096
1317357645733435125,0,1317357645733435125,world,42.96756320935674,78.87203037645668,-0.02462005614999896,0.0007295637849838695,0.004315863116867937,0.04136691035816001,0.9991344352936996
1317357645833413656,0,1317357645833413656,world,43.782210102071986,78.93877208931372,-0.018096923830000833,0.0010190143792374324,0.00657082327150168,0.04181944190398523,0.9991030578324083
1317357645933576742,0,1317357645933576742,world,44.60400301916525,79.00640675844625,-0.015228271479998057,0.0011546720178320924,0.007988940489653675,0.041642303384538004,0.9990999760440463
1317357646043407407,0,1317357646043407407,world,45.512949598021805,79.08473512483761,-0.019218444819998126,-0.0007128285180032154,0.00786147992797939,0.04054821851088439,0.9991464011767441
1317357646143412229,0,1317357646143412229,world,46.3426010760013,79.15510445926338,-0.024566650389999722,-0.0007938112957991477,0.007306705226970412,0.039651222723962126,0.9991865503792811
1317357646253397365,0,1317357646253397365,world,47.25947197340429,79.22772770375013,-0.028633117669997432,0.0004174451667453699,0.006154797087314444,0.03880349270671618,0.9992278184508807
1317357646353456356,0,1317357646353456356,world,48.0967178309802,79.28930045617744,-0.030197143549997918,0.0023621410172079303,0.005324659271106461,0.038022279837674366,0.9992599134006162
1317357646453488349,0,1317357646453488349,world,48.9354393708054,79.35233985306695,-0.03279113768999764,0.003035763339320822,0.005264675774637573,0.03707469151107087,0.9992940180844146
1317357646563433474,0,1317357646563433474,world,49.862283416092396,79.42256968747824,-0.027282714839998334,0.003978248740778184,0.006538559291084673,0.03649489737127498,0.9993045297831955
1317357646663452446,0,1317357646663452446,world,50.70440275152214,79.48211036529392,-0.023422241209999584,0.005546330866646812,0.007939415772063948,0.0361778140731121,0.9992984387358999
1317357646773400205,0,1317357646773400205,world,51.62855339422822,79.55005427682772,-0.024383544919999167,0.00604525681215134,0.008091626613928258,0.03571025318593676,0.9993111418703445
1317357646873365754,0,1317357646873365754,world,52.46448137331754,79.61362470593303,-0.029083251949998612,0.005177272950516159,0.006874110528371679,0.03521019217767135,0.9993428765023801
1317357646973575754,0,1317357646973575754,world,53.296546935802326,79.67797436984256,-0.03593444823999903,0.0037886406747705765,0.004015129538052999,0.0348841521893721,0.9993761158155916
1317357647083415240,0,1317357647083415240,world,54.208311069523916,79.74723044177517,-0.03779602049999653,0.0027611766726637435,0.001177534746860429,0.034346059238903104,0.9994054920451758
1317357647183385263,0,1317357647183385263,world,55.03376864083111,79.81025349721313,-0.034973144529999445,0.0004147626548252598,-0.002088099051478913,0.03401408234392542,0.9994190862779198
1317357647293441777,0,1317357647293441777,world,55.93818600685336,79.87621279386804,-0.023818969719997085,0.00013457565675231362,-0.0024193483377209666,0.033480273270773464,0.999436441173088
1317357647393605048,0,1317357647393605048,world,56.75612670276314,79.93565022340044,-0.009208679200000347,0.0019079700169244587,3.272598146390683e-05,0.03339029066842514,0.9994405670516395
1317357647493432693,0,1317357647493432693,world,57.57184417080134,79.99438636377454,0.01164245606000236,0.0022686677580682772,0.005281230544074342,0.03361139358234472,0.9994184488851485
1317357647603401869,0,1317357647603401869,world,58.46484733838588,80.061096847523,0.030387878420000902,0.0017693307488138724,0.009860290164919527,0.0342674376288562,0.9993624902231009
1317357647703367697,0,1317357647703367697,world,59.27025310648605,80.11602459242567,0.028839111330000833,0.0036661856541541967,0.008047726242268202,0.03550489169377832,0.9993303737257723
1317357647813550920,0,1317357647813550920,world,60.151710643200204,80.17827886156738,0.027458190920000902,0.0067352912892184235,0.006429916458976167,0.03666814024721396,0.999284113511463
1317357647913473856,0,1317357647913473856,world,60.95014185109176,80.23643103335053,0.030303955080000833,0.006941051610391765,0.006036316780850268,0.03793995029155997,0.9992376818625971
1317357648013417299,0,1317357648013417299,world,61.74334855750203,80.29962512711063,0.033142089850002776,0.0062683296952446375,0.00470703201975131,0.03913955082025852,0.999203006127376
1317357648123378429,0,1317357648123378429,world,62.61046923068352,80.37264217250049,0.03601074219000111,0.0052559568393425625,0.002948024338632768,0.041002090445422634,0.9991408872873269
1317357648223403100,0,1317357648223403100,world,63.396459160605446,80.43504516640678,0.03894042969000111,0.004946646575287043,0.001161552235731287,0.04295149519823996,0.999064237446371
1317357648333339536,0,1317357648333339536,world,64.25520425359719,80.50864921929315,0.04756164551000097,0.00415710018956773,-0.0011079868275814502,0.044653037911384474,0.9989932918135576
1317357648433546717,0,1317357648433546717,world,65.03402665397152,80.57910832483321,0.060768127439999375,0.0015457519829236925,-0.0008586071244459237,0.04613144766351507,0.998933813113302
1317357648533364183,0,1317357648533364183,world,65.80943211354315,80.65015717316419,0.07139587403000291,0.0002303940124668135,-0.00036839629271966123,0.04785629022162141,0.9988541368433104
1317357648643354487,0,1317357648643354487,world,66.6583168937359,80.73192038107663,0.08983612061000201,-0.0014013818069243673,0.002364430494315759,0.049966611983729675,0.998747106771447
1317357648743332775,0,1317357648743332775,world,67.42651117546484,80.81105834059417,0.10411071778000291,-0.0017209297099877803,0.005690362977266609,0.0518735063480501,0.9986359684636233
1317357648853341407,0,1317357648853341407,world,68.26633211527951,80.89913543686271,0.11220550536999951,-0.0012578054357514751,0.007336267503418987,0.05452276691080754,0.9984847845575783
1317357648953516248,0,1317357648953516248,world,69.02592732617632,80.98340050783008,0.11457061768000187,-0.0009691937228470076,0.007580653722314101,0.057661856719007365,0.9983069190546494
1317357649053356549,0,1317357649053356549,world,69.78180303820409,81.0709172305651,0.11836242676000097,0.0004395811865475271,0.00938723062746362,0.060568312603647784,0.9981198155421391
1317357649163385873,0,1317357649163385873,world,70.60772510664538,81.17316951788962,0.11780548096000132,0.0003208074532050449,0.009363095058600113,0.06399634844865276,0.9979061563687941
1317357649263370206,0,1317357649263370206,world,71.35057116812095,81.27819325821474,0.11551666260000104,-0.0019376994077596453,0.008948822845732125,0.06688032381509854,0.9977189915888482
1317357649363327668,0,1317357649363327668,world,72.09037706558593,81.38615166023374,0.10944366454999965,-0.002965775415067444,0.007037107454250275,0.06959749918175487,0.9975459244578717
1317357649473403276,0,1317357649473403276,world,72.9002369043883,81.50527340685949,0.10522460938000222,-0.0025730375310818823,0.005440507786081159,0.07284228758660319,0.9973253137728149
1317357649573378613,0,1317357649573378613,world,73.63384507107548,81.61911770934239,0.10488128661999951,-0.0034667260435153856,0.0050172823071675575,0.07543407594080467,0.997132142133502
1317357649683347055,0,1317357649683347055,world,74.43408158887178,81.7572534638457,0.11074829102000194,-0.004189100451833918,0.00689952547861752,0.07792359718609768,0.9969266577773678
1317357649783393376,0,1317357649783393376,world,75.15951641788706,81.88089237594977,0.11708831786999951,-0.00445511873157753,0.009141679292516086,0.08083906584169026,0.9966752866659447
1317357649883321862,0,1317357649883321862,world,75.87966541387141,82.00771665433422,0.12647247315000243,-0.00419611494121914,0.010543883143146675,0.08392006461677576,0.9964078692495257
1317357649993436699,0,1317357649993436699,world,76.667988169007,82.14827662194148,0.12175750733000257,-0.0031450615368519954,0.008820786841780904,0.08760309876624317,0.9961114392446125
1317357650093373895,0,1317357650093373895,world,77.38143740943633,82.28107965225354,0.11170959473000153,-0.0020031131605987816,0.005005982435490424,0.09163835718760399,0.9957777559121705
1317357650203316370,0,1317357650203316370,world,78.16345588839613,82.43148949416354,0.11392211913999972,-0.0007417887453953709,0.0038584151258196178,0.09649878599134526,0.9953253471525632
1317357650303316510,0,1317357650303316510,world,78.87130475463346,82.57587362453341,0.12707519532000333,-0.0009078743760289577,0.005689635193568482,0.1017065028374674,0.9947977639179
1317357650403474318,0,1317357650403474318,world,79.5772836401593,82.72669686051086,0.13200378418000014,-2.8495783286500674e-05,0.007844108954321482,0.1072436948206594,0.9942018200868052
1317357650513300775,0,1317357650513300775,world,80.35064962599427,82.90267862053588,0.14276885987000298,-0.0006502825272631878,0.012025177064500433,0.11357992042971005,0.9934558741707569
1317357650613306581,0,1317357650613306581,world,81.04966568364762,83.06405034754425,0.14584350586000028,-0.0007845634374029626,0.01438392229689218,0.11905755202590002,0.9927828496429468
1317357650723294121,0,1317357650723294121,world,81.81117329350673,83.2486235932447,0.1370620727600027,-0.00258618418356898,0.011580449862449676,0.12529163934171036,0.9920489957373165
1317357650823313494,0,1317357650823313494,world,82.49674171861261,83.42555678915232,0.12255096436000201,-0.0024471442874766333,0.006612539779772831,0.13120206295149203,0.9913305727555112
1317357650923452826,0,1317357650923452826,world,83.1838714366313,83.6049086805433,0.10815429688000222,-0.001768116608566088,0.004132878010626677,0.13728975067075874,0.990520730446248
1317357651033285058,0,1317357651033285058,world,83.94482835242525,83.81079869857058,0.10363769532000333,-0.0003805146526514097,0.00630638367714378,0.14398108329608775,0.9895602722353
1317357651133261530,0,1317357651133261530,world,84.63429642072879,84.01293677138165,0.1106948852600027,-0.00071243368038682,0.010288614327334912,0.14969852356436525,0.9886778994678315
1317357651233299504,0,1317357651233299504,world,85.32378634507768,84.22273292159662,0.11297607422000056,-0.0009338042904466328,0.013168643931000678,0.1555186469127359,0.9877447369077688
1317357651343360767,0,1317357651343360767,world,86.07693016692065,84.46057929331437,0.10311126709000007,0.0011424036248160563,0.012370182065951694,0.16244156239516305,0.9866399608348689
1317357651443470683,0,1317357651443470683,world,86.75941178179346,84.6851665135473,0.09069824219000111,0.0018649553466983642,0.009951665806602882,0.16827049676406644,0.985688858721657
1317357651553310795,0,1317357651553310795,world,87.5054902783595,84.94581646332517,0.08172607422000056,0.003002414236342906,0.00712739016646877,0.1732282081906532,0.9848513459935077
1317357651653260770,0,1317357651653260770,world,88.18513317359611,85.18694466957822,0.07279968262000125,0.004768989500346203,0.0038555394568115806,0.1770908145675499,0.9841754086291956
1317357651753304205,0,1317357651753304205,world,88.86372494371608,85.43620766652748,0.06974029540999993,0.00495334039988645,0.002835527441617867,0.18083493118813027,0.9834968997740638
1317357651863272033,0,1317357651863272033,world,89.60736715141684,85.72157083963975,0.07329559325999924,0.0021664466635130794,0.0022336499529978,0.1851136666657252,0.982712189672191
1317357651963540119,0,1317357651963540119,world,90.27725625806488,85.98890076810494,0.06975555420000035,0.001774835468202097,0.0034377118579783502,0.18912430792805224,0.9819455322200806
1317357652073252233,0,1317357652073252233,world,91.0165211209096,86.28560987208039,0.060813903810000625,0.0024042642797626546,0.006511592422837831,0.19357552907438907,0.9810608203475268
1317357652173285818,0,1317357652173285818,world,91.68934214999899,86.56284941360354,0.05815124512000125,0.0028957289966577695,0.010226003170073718,0.19712620055341534,0.9803205111942308
1317357652273293039,0,1317357652273293039,world,92.35854768496938,86.85278079006821,0.059066772459999584,-0.00154410101553907,0.013478394700072532,0.20022802548885524,0.9796553916746426
1317357652383271830,0,1317357652383271830,world,93.08789742155932,87.18351201480255,0.03849029540999993,-0.006082160101607267,0.011799298904198285,0.20337592574332647,0.9790107337010729
1317357652483306257,0,1317357652483306257,world,93.75182675663382,87.48162314435467,0.012977600100001041,-0.0051731858491138125,0.007540335571122341,0.20631633861412416,0.9784426145198846
1317357652593328313,0,1317357652593328313,world,94.48562587168999,87.80847795307636,-0.009872436519998473,-0.001657153131756166,0.004188529358096961,0.2091465607415633,0.9778739316472701
1317357652693411531,0,1317357652693411531,world,95.15429588337429,88.11196647025645,-0.019073486330000833,-0.0018291510950562075,0.003309879243850037,0.21116227890080722,0.9774437021512186
1317357652793406975,0,1317357652793406975,world,95.82509049377404,88.42416584026068,-0.019279479979999792,-0.004713807907012314,0.005431224414662919,0.21338123794394237,0.9769425413553675
1317357652903453987,0,1317357652903453987,world,96.56538467970677,88.76572539238259,-0.015777587889999722,-0.005688693730018621,0.007627235624782006,0.216369504130302,0.9762651800216872
1317357653003295941,0,1317357653003295941,world,97.23613346880302,89.0786302043125,-0.01850891112999875,-0.004049836457192417,0.007719585292499423,0.21912832661257808,0.9756571033429486
1317357653113242958,0,1317357653113242958,world,97.96920878859237,89.43027713010088,-0.029548645020000208,-0.003607349210592822,0.004151972598879228,0.221733292055726,0.9750918394435166
1317357653213260452,0,1317357653213260452,world,98.63401702488773,89.75436083925888,-0.04290008545000035,-0.002867570351951556,0.0006137842685554495,0.2241753899358272,0.9745444037375967
1317357653313410667,0,1317357653313410667,world,99.29753069020808,90.08276963746175,-0.045631408689999375,-0.0032664322230378426,-0.0005893444819947414,0.22669916618482208,0.9739591732432731
1317357653423351047,0,1317357653423351047,world,100.02572419145145,90.45001720124856,-0.03751373290999993,-0.004749050737595015,0.0016658722813601204,0.22897055556025578,0.9734203388429181
1317357653523249389,0,1317357653523249389,world,100.68512918544002,90.78529182914644,-0.032577514650000694,-0.005209593467515778,0.0025745430621279767,0.23114859183881442,0.9729011051257254
1317357653633252627,0,1317357653633252627,world,101.40961552993394,91.15148645965382,-0.030693054200000347,-0.005604359390361181,0.0028837018325401803,0.23378657309922074,0.97226751136613
1317357653733254345,0,1317357653733254345,world,102.06251268880442,91.48882350185886,-0.02966308592999667,-0.004940611445701209,0.0028648909961274853,0.23613101264364317,0.9717044445848803
1317357653833263000,0,1317357653833263000,world,102.71158431167714,91.82714556762949,-0.029449462889999722,-0.0038821009759201102,0.0025482448470598436,0.23831948335966927,0.9711757099471713
1317357653943409093,0,1317357653943409093,world,103.4217810111586,92.2045816234313,-0.028022766109998543,-0.003665288138449889,0.00301785213184259,0.24074707807334628,0.9705762734739184
1317357654043251923,0,1317357654043251923,world,104.06125734443776,92.55165414419025,-0.02770233153999868,-0.004102864955563832,0.0029393761688071983,0.2429204759619119,0.9700330762016998
1317357654153236857,0,1317357654153236857,world,104.76005403883755,92.93291355064139,-0.0272521972599975,-0.004565231397882276,0.0031096908855089197,0.2454242298531393,0.9694000391406399
1317357654253242003,0,1317357654253242003,world,105.38852423033677,93.2794436821714,-0.02803039549999653,-0.0034922510736279046,0.0012402945867947932,0.24780371303089943,0.9688031717845871
1317357654353226618,0,1317357654353226618,world,106.01079041347839,93.62820023111999,-0.027938842769998473,-0.0024023275342479537,-0.0006937943461787192,0.2500694806309721,0.9682246652140087
1317357654463478788,0,1317357654463478788,world,106.69097031163983,94.01237586373463,-0.028465270989997293,-0.0017965253700595676,-0.002195887956785027,0.25233357965045605,0.967636148122559
1317357654563225848,0,1317357654563225848,world,107.30497378436849,94.36582372477278,-0.024673461909998196,-0.0021620773264545306,-0.0006882039723930048,0.2541981803989411,0.9671494904505684
1317357654663230454,0,1317357654663230454,world,107.91305966838263,94.71710754511878,-0.013214111330000833,-0.0032306476538520724,0.0033689370880143205,0.255903152655429,0.9666911552505513
1317357654773210730,0,1317357654773210730,world,108.57328873826191,95.10019268328324,0.0002517700200002082,-0.0031115215115696112,0.008612595071273533,0.25748402155504185,0.9662391630874129
1317357654873242393,0,1317357654873242393,world,109.16268378240056,95.4416827969253,0.0053939819400028455,-0.002246332486244111,0.011621452777301325,0.25894501087691596,0.965819536542754
1317357654983257414,0,1317357654983257414,world,109.79782147658989,95.81060344306752,-0.0012664794899990284,-0.00028685792933352047,0.011815974080695847,0.260636033637821,0.9653647799866106
1317357655083234230,0,1317357655083234230,world,110.35943763284013,96.14112372789532,-0.009658813469997085,0.00023377064391874982,0.010061463193966218,0.2622755906420579,0.964940530220926
1317357655183261367,0,1317357655183261367,world,110.90732679190114,96.46834417665377,-0.017074584959999584,0.0008216877201133212,0.00879522452826111,0.26377969748347657,0.9645425029776103
1317357655293355329,0,1317357655293355329,world,111.49285389692523,96.8220934998244,-0.0242080688399966,0.0015023394373743083,0.008367972881417829,0.2653080565510977,0.9641262132807873
1317357655393348451,0,1317357655393348451,world,112.01124582975172,97.13172112265602,-0.028694152829999098,0.0025473429449648847,0.008218687810530683,0.2665060171157558,0.9637948469750657
1317357655503249959,0,1317357655503249959,world,112.56200451729819,97.46303141023964,-0.028289794919999167,0.0024132943143650083,0.00889052190875548,0.2677899116466408,0.9634332866633925
1317357655603209553,0,1317357655603209553,world,113.04414847516455,97.75627132831141,-0.027435302729998057,0.002601036284740929,0.009811236243027288,0.2688762288458604,0.9631212529143242
1317357655703221565,0,1317357655703221565,world,113.5076827632729,98.03653416456655,-0.030342102049999653,0.0033887159671890372,0.010261171519213127,0.27007653352830596,0.9627782148555716
1317357655813362151,0,1317357655813362151,world,113.99527000868693,98.33251507533714,-0.03268432616999917,0.004608185714930263,0.010625622143096772,0.2713851295826819,0.9624011493238565
1317357655913439650,0,1317357655913439650,world,114.41730438894592,98.59246010379866,-0.03593444823999903,0.005064395279227249,0.010375053537320267,0.27238451503374894,0.9621192161756164
1317357656023250686,0,1317357656023250686,world,114.85939886653796,98.87108788266778,-0.036117553709999584,0.004397020034988661,0.00846689419978273,0.2735449404286173,0.961811906499044
1317357656123204757,0,1317357656123204757,world,115.24402285693213,99.1136807273142,-0.03697967528999868,0.0050205096523749555,0.006497886120786203,0.27486392133319515,0.9614480728089952
1317357656223209041,0,1317357656223209041,world,115.6129434844479,99.34608279308304,-0.03955078125,0.006675361259582727,0.005810232264230126,0.2767724800709289,0.9608947262986081
1317357656333220417,0,1317357656333220417,world,116.00066217361018,99.59382812771946,-0.0412979125899966,0.009135027056999227,0.006669177884336995,0.27925045810925725,0.9601516833254967
1317357656433397120,0,1317357656433397120,world,116.33388478052802,99.81185186933726,-0.040878295900000694,0.009072727225458863,0.007232378118959951,0.2820792230851991,0.9593209526696929
1317357656533203749,0,1317357656533203749,world,116.64853109861724,100.02476838463917,-0.038635253899997224,0.007391373877402624,0.007746539873683787,0.2851409961651754,0.9584257775217239
1317357656643193917,0,1317357656643193917,world,116.97494943649508,100.25079959444702,-0.032890319819998126,0.0046395521027185645,0.009088618677850298,0.2884228609531479,0.9574487583397954
1317357656743242756,0,1317357656743242756,world,117.2561455250252,100.44688119320199,-0.026023864739997293,0.002624263676468682,0.012069347439066737,0.29151356376842985,0.9564869503718181
1317357656853185421,0,1317357656853185421,world,117.54702325444669,100.64732197998092,-0.0222549438399966,0.0023046748145508196,0.014295684926218069,0.2955943623188227,0.9552037975384194
1317357656953439817,0,1317357656953439817,world,117.79614203586243,100.81920901779085,-0.02181243895999785,0.003961948411816092,0.01539897745544071,0.2998527829089674,0.9538529672018934
1317357657053168015,0,1317357657053168015,world,118.03152499999851,100.98213588586077,-0.02086639403999868,0.005594253094938885,0.016238377452573928,0.3050583882411049,0.9521787643051891
1317357657163158440,0,1317357657163158440,world,118.27292713685893,101.1549821565859,-0.0198135375899966,0.006806355903478416,0.017236521584046274,0.3122277851269408,0.9498265031245038
1317357657263181253,0,1317357657263181253,world,118.47536246967502,101.3077351800166,-0.018402099610000278,0.006809369200656277,0.01769707823101689,0.31974470470451294,0.947313976317566
1317357657373187641,0,1317357657373187641,world,118.68121909396723,101.47225518757477,-0.018981933589998334,0.005911936577651094,0.01716701759030306,0.32931421102715613,0.9440458108209147
1317357657473191216,0,1317357657473191216,world,118.85811037174426,101.61369330948219,-0.017112731929998404,0.006168500407772479,0.016208889581375275,0.33907555581526544,0.940599271182913
1317357657573177922,0,1317357657573177922,world,119.02245652698912,101.75133969122544,-0.02021789549999653,0.006627242677082151,0.013610606963730678,0.34917057660746903,0.9369368919325278
1317357657683181395,0,1317357657683181395,world,119.19147212198004,101.90013510221615,-0.026008605949996877,0.007747137413725675,0.010965265093929978,0.36010976618182233,0.932813325978883
1317357657783193602,0,1317357657783193602,world,119.3356316741556,102.03768467064947,-0.03404998778999868,0.006907631208709862,0.008257305336889557,0.36995581509429903,0.9289869732227523
1317357657883199595,0,1317357657883199595,world,119.47288010921329,102.18237805040553,-0.041976928709999584,0.004034087437118499,0.005826637001746054,0.3796868328164098,0.9250879338882564
1317357657993300522,0,1317357657993300522,world,119.62432022113353,102.34075696533546,-0.04410552977999771,0.0023687579074048045,0.005000783663678087,0.39109797581467687,0.9203324151970244
1317357658093273851,0,1317357658093273851,world,119.76222503674217,102.48648066539317,-0.04667663573999903,0.0036377969456439707,0.006023338325774129,0.4021105590478519,0.9155640797513953
1317357658193276483,0,1317357658193276483,world,119.89681572793052,102.63234661519527,-0.048645019529999445,0.004757152359894189,0.007041261708621549,0.41353702685571964,0.9104476467948651
1317357658303229117,0,1317357658303229117,world,120.03616186417639,102.79735868005082,-0.050270080559997155,0.004487829064111931,0.008122413776894384,0.4270147397061146,0.90419704592442
1317357658403345957,0,1317357658403345957,world,120.15563601139002,102.95164284808561,-0.053207397459999584,0.0022222730544845842,0.00854739659691608,0.4399332439957484,0.897987051321601
1317357658513203523,0,1317357658513203523,world,120.2834038415458,103.12359705101699,-0.053237915040000416,0.000427138215998333,0.009520484472736105,0.4540457130639585,0.890927420375302
1317357658613145030,0,1317357658613145030,world,120.39535338338464,103.28074931586161,-0.05248260497999979,-0.0008881319360846715,0.010054100764714649,0.4670288729151112,0.884184459342686
