%time field.header.seq field.header.stamp field.header.frame_id field.status.status field.status.service field.latitude field.longitude field.altitude field.position_covariance0 field.position_covariance1 field.position_covariance2 field.position_covariance3 field.position_covariance4 field.position_covariance5 field.position_covariance6 field.position_covariance7 field.position_covariance8 field.position_covariance_type
1317065162154764890 0 1317065162154764890 imu_link 0 1 49.001294841471 8.4597240869032 121.97145843506 0.0 0.0 0.0 0.0 0.0 0.0 0.0 0.0 0.0 0
1317065162254658937 0 1317065162254658937 imu_link 0 1 49.0012951379 8.4597245054543 121.94879150391 0.0 0.0 0.0 0.0 0.0 0.0 0.0 0.0 0.0 0
1317065162354669094 0 1317065162354669094 imu_link 0 1 49.00129532038 8.459724762432 121.93461608887 0.0 0.0 0.0 0.0 0.0 0.0 0.0 0.0 0.0 0
1317065162464709043 0 1317065162464709043 imu_link 0 1 49.001295522542 8.4597250508157 121.91911315918 0.0 0.0 0.0 0.0 0.0 0.0 0.0 0.0 0.0 0
1317065162564723014 0 1317065162564723014 imu_link 0 1 49.001295646628 8.459725228409 121.90944671631 0.0 0.0 0.0 0.0 0.0 0.0 0.0 0.0 0.0 0
1317065162664904117 0 1317065162664904117 imu_link 0 1 49.001295785714 8.4597254244862 121.89827728271 0.0 0.0 0.0 0.0 0.0 0.0 0.0 0.0 0.0 0
1317065162774734973 0 1317065162774734973 imu_link 0 1 49.001296010796 8.4597257312596 121.88188934326 0.0 0.0 0.0 0.0 0.0 0.0 0.0 0.0 0.0 0
1317065162874733924 0 1317065162874733924 imu_link 0 1 49.001296149451 8.4597259216175 121.87219238281 0.0 0.0 0.0 0.0 0.0 0.0 0.0 0.0 0.0 0
1317065162974729061 0 1317065162974729061 imu_link 0 1 49.001296313432 8.4597261419762 121.86154937744 0.0 0.0 0.0 0.0 0.0 0.0 0.0 0.0 0.0 0
1317065163084731101 0 1317065163084731101 imu_link 0 1 49.001296425951 8.4597262804761 121.85474395752 0.0 0.0 0.0 0.0 0.0 0.0 0.0 0.0 0.0 0
1317065163184813976 0 1317065163184813976 imu_link 0 1 49.001296645806 8.459726525377 121.84320068359 0.0 0.0 0.0 0.0 0.0 0.0 0.0 0.0 0.0 0
1317065163284739971 0 1317065163284739971 imu_link 0 1 49.001296800702 8.4597266974767 121.83471679688 0.0 0.0 0.0 0.0 0.0 0.0 0.0 0.0 0.0 0
1317065163394743919 0 1317065163394743919 imu_link 0 1 49.001296978664 8.4597268903301 121.82524871826 0.0 0.0 0.0 0.0 0.0 0.0 0.0 0.0 0.0 0
1317065163494762897 0 1317065163494762897 imu_link 0 1 49.001297091595 8.4597270128165 121.81925964355 0.0 0.0 0.0 0.0 0.0 0.0 0.0 0.0 0.0 0
1317065163604809999 0 1317065163604809999 imu_link 0 1 49.001297219631 8.4597271504789 121.81229400635 0.0 0.0 0.0 0.0 0.0 0.0 0.0 0.0 0.0 0
1317065163704807043 0 1317065163704807043 imu_link 0 1 49.001297324473 8.4597272415218 121.8069152832 0.0 0.0 0.0 0.0 0.0 0.0 0.0 0.0 0.0 0
1317065163804791927 0 1317065163804791927 imu_link 0 1 49.001297426455 8.4597273220798 121.80113983154 0.0 0.0 0.0 0.0 0.0 0.0 0.0 0.0 0.0 0
1317065163904766082 0 1317065163904766082 imu_link 0 1 49.001297546081 8.4597274189128 121.79463195801 0.0 0.0 0.0 0.0 0.0 0.0 0.0 0.0 0.0 0
1317065164014786958 0 1317065164014786958 imu_link 0 1 49.001297602844 8.4597274649874 121.7911605835 0.0 0.0 0.0 0.0 0.0 0.0 0.0 0.0 0.0 0
1317065164114758014 0 1317065164114758014 imu_link 0 1 49.001297673638 8.4597275193495 121.78614044189 0.0 0.0 0.0 0.0 0.0 0.0 0.0 0.0 0.0 0
1317065164224845886 0 1317065164224845886 imu_link 0 1 49.001297757563 8.4597275682858 121.7813873291 0.0 0.0 0.0 0.0 0.0 0.0 0.0 0.0 0.0 0
1317065164324821949 0 1317065164324821949 imu_link 0 1 49.001297893954 8.459727636855 121.77667999268 0.0 0.0 0.0 0.0 0.0 0.0 0.0 0.0 0.0 0
1317065164424833059 0 1317065164424833059 imu_link 0 1 49.00129798558 8.4597276739208 121.77364349365 0.0 0.0 0.0 0.0 0.0 0.0 0.0 0.0 0.0 0
1317065164534794092 0 1317065164534794092 imu_link 0 1 49.00129807297 8.4597277115389 121.77010345459 0.0 0.0 0.0 0.0 0.0 0.0 0.0 0.0 0.0 0
1317065164635011911 0 1317065164635011911 imu_link 0 1 49.001298137034 8.4597277289774 121.76671600342 0.0 0.0 0.0 0.0 0.0 0.0 0.0 0.0 0.0 0
1317065164734847068 0 1317065164734847068 imu_link 0 1 49.00129822698 8.459727749484 121.76308441162 0.0 0.0 0.0 0.0 0.0 0.0 0.0 0.0 0.0 0
1317065164844993114 0 1317065164844993114 imu_link 0 1 49.001298333452 8.4597277835442 121.75959777832 0.0 0.0 0.0 0.0 0.0 0.0 0.0 0.0 0.0 0
1317065164944837093 0 1317065164944837093 imu_link 0 1 49.001298410573 8.4597278104924 121.7571105957 0.0 0.0 0.0 0.0 0.0 0.0 0.0 0.0 0.0 0
1317065165044864892 0 1317065165044864892 imu_link 0 1 49.001298506274 8.4597278468954 121.75411987305 0.0 0.0 0.0 0.0 0.0 0.0 0.0 0.0 0.0 0
1317065165155108928 0 1317065165155108928 imu_link 0 1 49.001298585726 8.4597278761987 121.7513961792 0.0 0.0 0.0 0.0 0.0 0.0 0.0 0.0 0.0 0
1317065165254817962 0 1317065165254817962 imu_link 0 1 49.00129874251 8.4597279332774 121.74731445312 0.0 0.0 0.0 0.0 0.0 0.0 0.0 0.0 0.0 0
1317065165354795932 0 1317065165354795932 imu_link 0 1 49.001298847638 8.4597279750664 121.74391937256 0.0 0.0 0.0 0.0 0.0 0.0 0.0 0.0 0.0 0
1317065165464827060 0 1317065165464827060 imu_link 0 1 49.001298964482 8.4597280271004 121.7405166626 0.0 0.0 0.0 0.0 0.0 0.0 0.0 0.0 0.0 0
1317065165564841985 0 1317065165564841985 imu_link 0 1 49.001299034927 8.4597280528493 121.7380065918 0.0 0.0 0.0 0.0 0.0 0.0 0.0 0.0 0.0 0
1317065165675028085 0 1317065165675028085 imu_link 0 1 49.001299145672 8.4597280921206 121.73386383057 0.0 0.0 0.0 0.0 0.0 0.0 0.0 0.0 0.0 0
1317065165774844884 0 1317065165774844884 imu_link 0 1 49.001299271018 8.4597281335853 121.72908782959 0.0 0.0 0.0 0.0 0.0 0.0 0.0 0.0 0.0 0
1317065165874872922 0 1317065165874872922 imu_link 0 1 49.001299388255 8.4597281741339 121.72425842285 0.0 0.0 0.0 0.0 0.0 0.0 0.0 0.0 0.0 0
1317065165974857091 0 1317065165974857091 imu_link 0 1 49.001299538131 8.4597282324753 121.71793365479 0.0 0.0 0.0 0.0 0.0 0.0 0.0 0.0 0.0 0
1317065166084853887 0 1317065166084853887 imu_link 0 1 49.001299632032 8.4597282629846 121.71318817139 0.0 0.0 0.0 0.0 0.0 0.0 0.0 0.0 0.0 0
1317065166184905052 0 1317065166184905052 imu_link 0 1 49.001299765528 8.4597283046799 121.70892333984 0.0 0.0 0.0 0.0 0.0 0.0 0.0 0.0 0.0 0
1317065166294842958 0 1317065166294842958 imu_link 0 1 49.001299865394 8.4597283297238 121.70576477051 0.0 0.0 0.0 0.0 0.0 0.0 0.0 0.0 0.0 0
1317065166394805908 0 1317065166394805908 imu_link 0 1 49.001299975937 8.4597283642361 121.70265960693 0.0 0.0 0.0 0.0 0.0 0.0 0.0 0.0 0.0 0
1317065166494882106 0 1317065166494882106 imu_link 0 1 49.001300038412 8.4597283823059 121.70148468018 0.0 0.0 0.0 0.0 0.0 0.0 0.0 0.0 0.0 0
1317065166604878902 0 1317065166604878902 imu_link 0 1 49.001300098152 8.4597284035899 121.70073699951 0.0 0.0 0.0 0.0 0.0 0.0 0.0 0.0 0.0 0
1317065166704905033 0 1317065166704905033 imu_link 0 1 49.001300162768 8.4597284143749 121.70086669922 0.0 0.0 0.0 0.0 0.0 0.0 0.0 0.0 0.0 0
1317065166804852962 0 1317065166804852962 imu_link 0 1 49.001300239182 8.4597284277028 121.7010269165 0.0 0.0 0.0 0.0 0.0 0.0 0.0 0.0 0.0 0
1317065166914922952 0 1317065166914922952 imu_link 0 1 49.00130031687 8.459728421536 121.70151519775 0.0 0.0 0.0 0.0 0.0 0.0 0.0 0.0 0.0 0
1317065167014867067 0 1317065167014867067 imu_link 0 1 49.00130036909 8.4597283922601 121.70055389404 0.0 0.0 0.0 0.0 0.0 0.0 0.0 0.0 0.0 0
1317065167114837884 0 1317065167114837884 imu_link 0 1 49.001300436212 8.4597283475601 121.69962310791 0.0 0.0 0.0 0.0 0.0 0.0 0.0 0.0 0.0 0
1317065167225128889 0 1317065167225128889 imu_link 0 1 49.001300544868 8.4597282910585 121.69863128662 0.0 0.0 0.0 0.0 0.0 0.0 0.0 0.0 0.0 0
1317065167324963092 0 1317065167324963092 imu_link 0 1 49.001300635783 8.4597282142804 121.70130157471 0.0 0.0 0.0 0.0 0.0 0.0 0.0 0.0 0.0 0
1317065167424912929 0 1317065167424912929 imu_link 0 1 49.001300691646 8.4597281208084 121.7033996582 0.0 0.0 0.0 0.0 0.0 0.0 0.0 0.0 0.0 0
1317065167534904003 0 1317065167534904003 imu_link 0 1 49.00130075202 8.4597280239517 121.70552825928 0.0 0.0 0.0 0.0 0.0 0.0 0.0 0.0 0.0 0
1317065167635086059 0 1317065167635086059 imu_link 0 1 49.001300830424 8.4597279446868 121.70519256592 0.0 0.0 0.0 0.0 0.0 0.0 0.0 0.0 0.0 0
1317065167744981050 0 1317065167744981050 imu_link 0 1 49.001300954577 8.4597278808069 121.70291900635 0.0 0.0 0.0 0.0 0.0 0.0 0.0 0.0 0.0 0
1317065167844963073 0 1317065167844963073 imu_link 0 1 49.001301038505 8.4597278133098 121.7010269165 0.0 0.0 0.0 0.0 0.0 0.0 0.0 0.0 0.0 0
1317065167944896936 0 1317065167944896936 imu_link 0 1 49.001301102483 8.4597277422981 121.70011901855 0.0 0.0 0.0 0.0 0.0 0.0 0.0 0.0 0.0 0
1317065168044974088 0 1317065168044974088 imu_link 0 1 49.001301169607 8.4597276871674 121.69879150391 0.0 0.0 0.0 0.0 0.0 0.0 0.0 0.0 0.0 0
1317065168155154943 0 1317065168155154943 imu_link 0 1 49.001301212515 8.4597276260444 121.69780731201 0.0 0.0 0.0 0.0 0.0 0.0 0.0 0.0 0.0 0
1317065168254976987 0 1317065168254976987 imu_link 0 1 49.001301291648 8.4597276087359 121.69541931152 0.0 0.0 0.0 0.0 0.0 0.0 0.0 0.0 0.0 0
1317065168354933023 0 1317065168354933023 imu_link 0 1 49.001301349128 8.4597275881061 121.69387817383 0.0 0.0 0.0 0.0 0.0 0.0 0.0 0.0 0.0 0
1317065168464952945 0 1317065168464952945 imu_link 0 1 49.001301411389 8.4597275814731 121.69262695312 0.0 0.0 0.0 0.0 0.0 0.0 0.0 0.0 0.0 0
1317065168564963102 0 1317065168564963102 imu_link 0 1 49.001301445117 8.4597275856428 121.69156646729 0.0 0.0 0.0 0.0 0.0 0.0 0.0 0.0 0.0 0
1317065168675160884 0 1317065168675160884 imu_link 0 1 49.001301492255 8.4597276216954 121.68927764893 0.0 0.0 0.0 0.0 0.0 0.0 0.0 0.0 0.0 0
1317065168774935960 0 1317065168774935960 imu_link 0 1 49.001301528431 8.4597276569938 121.68687438965 0.0 0.0 0.0 0.0 0.0 0.0 0.0 0.0 0.0 0
1317065168874941110 0 1317065168874941110 imu_link 0 1 49.001301547095 8.4597276763568 121.68552398682 0.0 0.0 0.0 0.0 0.0 0.0 0.0 0.0 0.0 0
1317065168984967947 0 1317065168984967947 imu_link 0 1 49.001301564052 8.4597276934254 121.68476867676 0.0 0.0 0.0 0.0 0.0 0.0 0.0 0.0 0.0 0
1317065169084964990 0 1317065169084964990 imu_link 0 1 49.001301573032 8.459727707818 121.68418884277 0.0 0.0 0.0 0.0 0.0 0.0 0.0 0.0 0.0 0
1317065169185192108 0 1317065169185192108 imu_link 0 1 49.001301611012 8.459727757008 121.68035125732 0.0 0.0 0.0 0.0 0.0 0.0 0.0 0.0 0.0 0
1317065169294966936 0 1317065169294966936 imu_link 0 1 49.00130163533 8.4597277866858 121.67707824707 0.0 0.0 0.0 0.0 0.0 0.0 0.0 0.0 0.0 0
1317065169395010948 0 1317065169395010948 imu_link 0 1 49.001301671084 8.4597278384425 121.67261505127 0.0 0.0 0.0 0.0 0.0 0.0 0.0 0.0 0.0 0
1317065169504977941 0 1317065169504977941 imu_link 0 1 49.001301703837 8.4597278762386 121.66960144043 0.0 0.0 0.0 0.0 0.0 0.0 0.0 0.0 0.0 0
1317065169605036973 0 1317065169605036973 imu_link 0 1 49.001301746489 8.459727915442 121.66609954834 0.0 0.0 0.0 0.0 0.0 0.0 0.0 0.0 0.0 0
1317065169705064058 0 1317065169705064058 imu_link 0 1 49.001301780031 8.4597279393177 121.66176605225 0.0 0.0 0.0 0.0 0.0 0.0 0.0 0.0 0.0 0
1317065169804991960 0 1317065169804991960 imu_link 0 1 49.001301803061 8.4597279598102 121.65727996826 0.0 0.0 0.0 0.0 0.0 0.0 0.0 0.0 0.0 0
1317065169915023088 0 1317065169915023088 imu_link 0 1 49.00130182704 8.4597279868562 121.65251159668 0.0 0.0 0.0 0.0 0.0 0.0 0.0 0.0 0.0 0
1317065170015047073 0 1317065170015047073 imu_link 0 1 49.001301843101 8.459728002116 121.64949035645 0.0 0.0 0.0 0.0 0.0 0.0 0.0 0.0 0.0 0
1317065170115009069 0 1317065170115009069 imu_link 0 1 49.001301879221 8.4597280283493 121.64474487305 0.0 0.0 0.0 0.0 0.0 0.0 0.0 0.0 0.0 0
1317065170225054025 0 1317065170225054025 imu_link 0 1 49.001301913476 8.4597280209758 121.63917541504 0.0 0.0 0.0 0.0 0.0 0.0 0.0 0.0 0.0 0
1317065170325088024 0 1317065170325088024 imu_link 0 1 49.001301968359 8.4597279546868 121.63076782227 0.0 0.0 0.0 0.0 0.0 0.0 0.0 0.0 0.0 0
1317065170425057888 0 1317065170425057888 imu_link 0 1 49.001302025973 8.4597278015127 121.62411499023 0.0 0.0 0.0 0.0 0.0 0.0 0.0 0.0 0.0 0
1317065170535034894 0 1317065170535034894 imu_link 0 1 49.001302101242 8.4597275492573 121.61817932129 0.0 0.0 0.0 0.0 0.0 0.0 0.0 0.0 0.0 0
1317065170635243892 0 1317065170635243892 imu_link 0 1 49.001302204703 8.4597272406506 121.61330413818 0.0 0.0 0.0 0.0 0.0 0.0 0.0 0.0 0.0 0
1317065170745098114 0 1317065170745098114 imu_link 0 1 49.001302354506 8.4597268334108 121.604347229 0.0 0.0 0.0 0.0 0.0 0.0 0.0 0.0 0.0 0
1317065170845036029 0 1317065170845036029 imu_link 0 1 49.001302495655 8.4597263784497 121.59866333008 0.0 0.0 0.0 0.0 0.0 0.0 0.0 0.0 0.0 0
1317065170945020914 0 1317065170945020914 imu_link 0 1 49.00130265233 8.459725858636 121.59286499023 0.0 0.0 0.0 0.0 0.0 0.0 0.0 0.0 0.0 0
1317065171055079936 0 1317065171055079936 imu_link 0 1 49.001302844475 8.4597252067259 121.58512115479 0.0 0.0 0.0 0.0 0.0 0.0 0.0 0.0 0.0 0
1317065171155294895 0 1317065171155294895 imu_link 0 1 49.00130302747 8.4597245135625 121.57948303223 0.0 0.0 0.0 0.0 0.0 0.0 0.0 0.0 0.0 0
1317065171265090942 0 1317065171265090942 imu_link 0 1 49.001303237743 8.4597236140554 121.56979370117 0.0 0.0 0.0 0.0 0.0 0.0 0.0 0.0 0.0 0
1317065171365077972 0 1317065171365077972 imu_link 0 1 49.001303437864 8.459722668394 121.56157684326 0.0 0.0 0.0 0.0 0.0 0.0 0.0 0.0 0.0 0
1317065171465120077 0 1317065171465120077 imu_link 0 1 49.001303678956 8.4597215841569 121.5518951416 0.0 0.0 0.0 0.0 0.0 0.0 0.0 0.0 0.0 0
1317065171565120935 0 1317065171565120935 imu_link 0 1 49.001303940763 8.4597203544676 121.54412078857 0.0 0.0 0.0 0.0 0.0 0.0 0.0 0.0 0.0 0
1317065171675190925 0 1317065171675190925 imu_link 0 1 49.001304279581 8.4597188749335 121.53721618652 0.0 0.0 0.0 0.0 0.0 0.0 0.0 0.0 0.0 0
1317065171785115003 0 1317065171785115003 imu_link 0 1 49.001304655747 8.4597172550886 121.53234863281 0.0 0.0 0.0 0.0 0.0 0.0 0.0 0.0 0.0 0
1317065171875097990 0 1317065171875097990 imu_link 0 1 49.001304986977 8.4597158347536 121.52825164795 0.0 0.0 0.0 0.0 0.0 0.0 0.0 0.0 0.0 0
1317065171985101938 0 1317065171985101938 imu_link 0 1 49.001305425135 8.459713987527 121.52294921875 0.0 0.0 0.0 0.0 0.0 0.0 0.0 0.0 0.0 0
1317065172085117101 0 1317065172085117101 imu_link 0 1 49.001305828745 8.4597121980763 121.51759338379 0.0 0.0 0.0 0.0 0.0 0.0 0.0 0.0 0.0 0
1317065172185183048 0 1317065172185183048 imu_link 0 1 49.001306265377 8.4597103188945 121.5135269165 0.0 0.0 0.0 0.0 0.0 0.0 0.0 0.0 0.0 0
1317065172295124053 0 1317065172295124053 imu_link 0 1 49.001306772438 8.4597081373308 121.50945281982 0.0 0.0 0.0 0.0 0.0 0.0 0.0 0.0 0.0 0
1317065172395091056 0 1317065172395091056 imu_link 0 1 49.001307276338 8.4597060266219 121.50691986084 0.0 0.0 0.0 0.0 0.0 0.0 0.0 0.0 0.0 0
1317065172495142936 0 1317065172495142936 imu_link 0 1 49.001307808706 8.4597037609546 121.50598907471 0.0 0.0 0.0 0.0 0.0 0.0 0.0 0.0 0.0 0
1317065172605186939 0 1317065172605186939 imu_link 0 1 49.001308433086 8.4597011262972 121.51419830322 0.0 0.0 0.0 0.0 0.0 0.0 0.0 0.0 0.0 0
1317065172705226898 0 1317065172705226898 imu_link 0 1 49.00130895474 8.4596985178205 121.5114364624 0.0 0.0 0.0 0.0 0.0 0.0 0.0 0.0 0.0 0
1317065172815159082 0 1317065172815159082 imu_link 0 1 49.001309607867 8.4596954321667 121.51998138428 0.0 0.0 0.0 0.0 0.0 0.0 0.0 0.0 0.0 0
1317065172915143966 0 1317065172915143966 imu_link 0 1 49.001310240685 8.4596925176651 121.52283477783 0.0 0.0 0.0 0.0 0.0 0.0 0.0 0.0 0.0 0
1317065173025166988 0 1317065173025166988 imu_link 0 1 49.001310966133 8.459689115662 121.5265045166 0.0 0.0 0.0 0.0 0.0 0.0 0.0 0.0 0.0 0
1317065173125196933 0 1317065173125196933 imu_link 0 1 49.001311668212 8.4596857953503 121.52837371826 0.0 0.0 0.0 0.0 0.0 0.0 0.0 0.0 0.0 0
1317065173225176095 0 1317065173225176095 imu_link 0 1 49.001312396278 8.4596822553626 121.52816009521 0.0 0.0 0.0 0.0 0.0 0.0 0.0 0.0 0.0 0
1317065173325215101 0 1317065173325215101 imu_link 0 1 49.001313171161 8.459678467572 121.52935791016 0.0 0.0 0.0 0.0 0.0 0.0 0.0 0.0 0.0 0
1317065173435297012 0 1317065173435297012 imu_link 0 1 49.001314091213 8.4596740719433 121.52772521973 0.0 0.0 0.0 0.0 0.0 0.0 0.0 0.0 0.0 0
1317065173535376071 0 1317065173535376071 imu_link 0 1 49.00131497799 8.4596697895797 121.52685546875 0.0 0.0 0.0 0.0 0.0 0.0 0.0 0.0 0.0 0
1317065173645251989 0 1317065173645251989 imu_link 0 1 49.001316000445 8.4596647724939 121.52182769775 0.0 0.0 0.0 0.0 0.0 0.0 0.0 0.0 0.0 0
1317065173745212078 0 1317065173745212078 imu_link 0 1 49.001316928288 8.4596598492764 121.51851654053 0.0 0.0 0.0 0.0 0.0 0.0 0.0 0.0 0.0 0
1317065173845196962 0 1317065173845196962 imu_link 0 1 49.001317983729 8.4596547053933 121.51194000244 0.0 0.0 0.0 0.0 0.0 0.0 0.0 0.0 0.0 0
1317065173945374965 0 1317065173945374965 imu_link 0 1 49.00131907437 8.4596493058522 121.50247955322 0.0 0.0 0.0 0.0 0.0 0.0 0.0 0.0 0.0 0
1317065174055182933 0 1317065174055182933 imu_link 0 1 49.001320338896 8.4596430761719 121.49618530273 0.0 0.0 0.0 0.0 0.0 0.0 0.0 0.0 0.0 0
1317065174155235052 0 1317065174155235052 imu_link 0 1 49.001321559051 8.4596372145899 121.49111938477 0.0 0.0 0.0 0.0 0.0 0.0 0.0 0.0 0.0 0
1317065174265285968 0 1317065174265285968 imu_link 0 1 49.001322902323 8.4596304707428 121.48398590088 0.0 0.0 0.0 0.0 0.0 0.0 0.0 0.0 0.0 0
1317065174365185976 0 1317065174365185976 imu_link 0 1 49.001324163522 8.4596241480819 121.47329711914 0.0 0.0 0.0 0.0 0.0 0.0 0.0 0.0 0.0 0
1317065174465200901 0 1317065174465200901 imu_link 0 1 49.001325495968 8.459617628531 121.46077728271 0.0 0.0 0.0 0.0 0.0 0.0 0.0 0.0 0.0 0
1317065174565208911 0 1317065174565208911 imu_link 0 1 49.001326877565 8.4596109057971 121.44318389893 0.0 0.0 0.0 0.0 0.0 0.0 0.0 0.0 0.0 0
1317065174675348997 0 1317065174675348997 imu_link 0 1 49.001328455275 8.4596032605951 121.42481994629 0.0 0.0 0.0 0.0 0.0 0.0 0.0 0.0 0.0 0
1317065174775228023 0 1317065174775228023 imu_link 0 1 49.001329951334 8.4595960672276 121.41034698486 0.0 0.0 0.0 0.0 0.0 0.0 0.0 0.0 0.0 0
1317065174875197887 0 1317065174875197887 imu_link 0 1 49.001331504177 8.4595886650001 121.39542388916 0.0 0.0 0.0 0.0 0.0 0.0 0.0 0.0 0.0 0
1317065174985191106 0 1317065174985191106 imu_link 0 1 49.00133325411 8.4595802659795 121.38214111328 0.0 0.0 0.0 0.0 0.0 0.0 0.0 0.0 0.0 0
1317065175085241079 0 1317065175085241079 imu_link 0 1 49.001334909073 8.4595724253116 121.36744689941 0.0 0.0 0.0 0.0 0.0 0.0 0.0 0.0 0.0 0
1317065175185379981 0 1317065175185379981 imu_link 0 1 49.001336573329 8.4595643235254 121.35504150391 0.0 0.0 0.0 0.0 0.0 0.0 0.0 0.0 0.0 0
1317065175295244932 0 1317065175295244932 imu_link 0 1 49.001338478127 8.4595552033635 121.33925628662 0.0 0.0 0.0 0.0 0.0 0.0 0.0 0.0 0.0 0
1317065175395239114 0 1317065175395239114 imu_link 0 1 49.001340243333 8.4595466880521 121.32276916504 0.0 0.0 0.0 0.0 0.0 0.0 0.0 0.0 0.0 0
1317065175505239963 0 1317065175505239963 imu_link 0 1 49.001342247574 8.4595371104459 121.30444335938 0.0 0.0 0.0 0.0 0.0 0.0 0.0 0.0 0.0 0
1317065175605299949 0 1317065175605299949 imu_link 0 1 49.001344094065 8.4595281771115 121.28659820557 0.0 0.0 0.0 0.0 0.0 0.0 0.0 0.0 0.0 0
1317065175705312967 0 1317065175705312967 imu_link 0 1 49.001345981796 8.459519036146 121.27030181885 0.0 0.0 0.0 0.0 0.0 0.0 0.0 0.0 0.0 0
1317065175815227985 0 1317065175815227985 imu_link 0 1 49.001348102378 8.4595087221738 121.25540924072 0.0 0.0 0.0 0.0 0.0 0.0 0.0 0.0 0.0 0
1317065175915273904 0 1317065175915273904 imu_link 0 1 49.001350063098 8.4594991521122 121.23575592041 0.0 0.0 0.0 0.0 0.0 0.0 0.0 0.0 0.0 0
1317065176015239000 0 1317065176015239000 imu_link 0 1 49.001352073997 8.4594893996445 121.21685791016 0.0 0.0 0.0 0.0 0.0 0.0 0.0 0.0 0.0 0
1317065176125282049 0 1317065176125282049 imu_link 0 1 49.001354333631 8.4594784101398 121.19861602783 0.0 0.0 0.0 0.0 0.0 0.0 0.0 0.0 0.0 0
1317065176225378990 0 1317065176225378990 imu_link 0 1 49.001356410459 8.4594682031146 121.18547058105 0.0 0.0 0.0 0.0 0.0 0.0 0.0 0.0 0.0 0
1317065176325263023 0 1317065176325263023 imu_link 0 1 49.001358531908 8.4594578174703 121.17049407959 0.0 0.0 0.0 0.0 0.0 0.0 0.0 0.0 0.0 0
1317065176435549974 0 1317065176435549974 imu_link 0 1 49.001360924546 8.4594462364188 121.15077209473 0.0 0.0 0.0 0.0 0.0 0.0 0.0 0.0 0.0 0
1317065176535293102 0 1317065176535293102 imu_link 0 1 49.001363106768 8.4594355398336 121.1322555542 0.0 0.0 0.0 0.0 0.0 0.0 0.0 0.0 0.0 0
1317065176635516881 0 1317065176635516881 imu_link 0 1 49.001365316911 8.4594247203655 121.11329650879 0.0 0.0 0.0 0.0 0.0 0.0 0.0 0.0 0.0 0
1317065176745313882 0 1317065176745313882 imu_link 0 1 49.001367762531 8.459412637334 121.09241485596 0.0 0.0 0.0 0.0 0.0 0.0 0.0 0.0 0.0 0
1317065176845309019 0 1317065176845309019 imu_link 0 1 49.001370041675 8.4594015067802 121.07266235352 0.0 0.0 0.0 0.0 0.0 0.0 0.0 0.0 0.0 0
1317065176955286979 0 1317065176955286979 imu_link 0 1 49.001372579695 8.4593890747996 121.05137634277 0.0 0.0 0.0 0.0 0.0 0.0 0.0 0.0 0.0 0
1317065177055309057 0 1317065177055309057 imu_link 0 1 49.00137493405 8.4593776152642 121.03472900391 0.0 0.0 0.0 0.0 0.0 0.0 0.0 0.0 0.0 0
1317065177155520915 0 1317065177155520915 imu_link 0 1 49.001377328597 8.4593660307784 121.01630401611 0.0 0.0 0.0 0.0 0.0 0.0 0.0 0.0 0.0 0
1317065177255273103 0 1317065177255273103 imu_link 0 1 49.001379708857 8.4593542576776 120.99823760986 0.0 0.0 0.0 0.0 0.0 0.0 0.0 0.0 0.0 0
1317065177365295886 0 1317065177365295886 imu_link 0 1 49.001382357623 8.4593411649937 120.97634124756 0.0 0.0 0.0 0.0 0.0 0.0 0.0 0.0 0.0 0
1317065177465282917 0 1317065177465282917 imu_link 0 1 49.001384792026 8.459329132151 120.95787811279 0.0 0.0 0.0 0.0 0.0 0.0 0.0 0.0 0.0 0
1317065177575339078 0 1317065177575339078 imu_link 0 1 49.001387506283 8.4593157938669 120.93341064453 0.0 0.0 0.0 0.0 0.0 0.0 0.0 0.0 0.0 0
1317065177675425052 0 1317065177675425052 imu_link 0 1 49.001389959317 8.4593034841004 120.90923309326 0.0 0.0 0.0 0.0 0.0 0.0 0.0 0.0 0.0 0
1317065177775346040 0 1317065177775346040 imu_link 0 1 49.001392431171 8.4592909913186 120.89720153809 0.0 0.0 0.0 0.0 0.0 0.0 0.0 0.0 0.0 0
1317065177885379076 0 1317065177885379076 imu_link 0 1 49.001395180568 8.4592770703995 120.89917755127 0.0 0.0 0.0 0.0 0.0 0.0 0.0 0.0 0.0 0
1317065177985349893 0 1317065177985349893 imu_link 0 1 49.001397730052 8.4592642974123 120.89588165283 0.0 0.0 0.0 0.0 0.0 0.0 0.0 0.0 0.0 0
1317065178085369110 0 1317065178085369110 imu_link 0 1 49.001400298256 8.4592514058115 120.8904800415 0.0 0.0 0.0 0.0 0.0 0.0 0.0 0.0 0.0 0
1317065178195590019 0 1317065178195590019 imu_link 0 1 49.001403121944 8.459237073324 120.87782287598 0.0 0.0 0.0 0.0 0.0 0.0 0.0 0.0 0.0 0
1317065178295381069 0 1317065178295381069 imu_link 0 1 49.00140570124 8.4592239252324 120.86602020264 0.0 0.0 0.0 0.0 0.0 0.0 0.0 0.0 0.0 0
1317065178395358085 0 1317065178395358085 imu_link 0 1 49.001408329164 8.45921065326 120.85260772705 0.0 0.0 0.0 0.0 0.0 0.0 0.0 0.0 0.0 0
1317065178505386114 0 1317065178505386114 imu_link 0 1 49.001411319428 8.4591959364545 120.84632110596 0.0 0.0 0.0 0.0 0.0 0.0 0.0 0.0 0.0 0
1317065178605428934 0 1317065178605428934 imu_link 0 1 49.001414074769 8.4591824084535 120.84572601318 0.0 0.0 0.0 0.0 0.0 0.0 0.0 0.0 0.0 0
1317065178705447912 0 1317065178705447912 imu_link 0 1 49.001416850879 8.4591687592772 120.84104156494 0.0 0.0 0.0 0.0 0.0 0.0 0.0 0.0 0.0 0
1317065178815407037 0 1317065178815407037 imu_link 0 1 49.001419951013 8.4591536499162 120.82931518555 0.0 0.0 0.0 0.0 0.0 0.0 0.0 0.0 0.0 0
1317065178915416002 0 1317065178915416002 imu_link 0 1 49.001422815368 8.4591398099906 120.81840515137 0.0 0.0 0.0 0.0 0.0 0.0 0.0 0.0 0.0 0
1317065179015460014 0 1317065179015460014 imu_link 0 1 49.001425712893 8.4591258445896 120.81410980225 0.0 0.0 0.0 0.0 0.0 0.0 0.0 0.0 0.0 0
1317065179125377893 0 1317065179125377893 imu_link 0 1 49.001428942808 8.4591103369724 120.81412506104 0.0 0.0 0.0 0.0 0.0 0.0 0.0 0.0 0.0 0
1317065179225553035 0 1317065179225553035 imu_link 0 1 49.001431903761 8.4590961041047 120.81048583984 0.0 0.0 0.0 0.0 0.0 0.0 0.0 0.0 0.0 0
1317065179325390100 0 1317065179325390100 imu_link 0 1 49.001434904079 8.4590817471355 120.79816436768 0.0 0.0 0.0 0.0 0.0 0.0 0.0 0.0 0.0 0
1317065179435628890 0 1317065179435628890 imu_link 0 1 49.001438254806 8.4590658600782 120.78707122803 0.0 0.0 0.0 0.0 0.0 0.0 0.0 0.0 0.0 0
1317065179535402059 0 1317065179535402059 imu_link 0 1 49.00144133409 8.459051291812 120.77593994141 0.0 0.0 0.0 0.0 0.0 0.0 0.0 0.0 0.0 0
1317065179645637035 0 1317065179645637035 imu_link 0 1 49.0014447082 8.4590351776455 120.75823974609 0.0 0.0 0.0 0.0 0.0 0.0 0.0 0.0 0.0 0
1317065179745479106 0 1317065179745479106 imu_link 0 1 49.001447745115 8.4590203957905 120.74069976807 0.0 0.0 0.0 0.0 0.0 0.0 0.0 0.0 0.0 0
1317065179845468997 0 1317065179845468997 imu_link 0 1 49.001450726011 8.4590055332138 120.72804260254 0.0 0.0 0.0 0.0 0.0 0.0 0.0 0.0 0.0 0
1317065179955452919 0 1317065179955452919 imu_link 0 1 49.001453995956 8.4589891333877 120.71556854248 0.0 0.0 0.0 0.0 0.0 0.0 0.0 0.0 0.0 0
1317065180055443048 0 1317065180055443048 imu_link 0 1 49.001456966611 8.4589741942162 120.70069885254 0.0 0.0 0.0 0.0 0.0 0.0 0.0 0.0 0.0 0
1317065180155632019 0 1317065180155632019 imu_link 0 1 49.00145997237 8.4589591944047 120.7006149292 0.0 0.0 0.0 0.0 0.0 0.0 0.0 0.0 0.0 0
1317065180255579948 0 1317065180255579948 imu_link 0 1 49.001463045184 8.4589441437836 120.70468139648 0.0 0.0 0.0 0.0 0.0 0.0 0.0 0.0 0.0 0
1317065180365478038 0 1317065180365478038 imu_link 0 1 49.001466471485 8.4589275675917 120.6985168457 0.0 0.0 0.0 0.0 0.0 0.0 0.0 0.0 0.0 0
1317065180465603113 0 1317065180465603113 imu_link 0 1 49.00146954616 8.4589124370824 120.68363189697 0.0 0.0 0.0 0.0 0.0 0.0 0.0 0.0 0.0 0
1317065180565469980 0 1317065180565469980 imu_link 0 1 49.001472622945 8.4588972302492 120.6697845459 0.0 0.0 0.0 0.0 0.0 0.0 0.0 0.0 0.0 0
1317065180675642967 0 1317065180675642967 imu_link 0 1 49.001475927367 8.4588803890193 120.65648651123 0.0 0.0 0.0 0.0 0.0 0.0 0.0 0.0 0.0 0
1317065180775458097 0 1317065180775458097 imu_link 0 1 49.00147885272 8.4588649799533 120.64656066895 0.0 0.0 0.0 0.0 0.0 0.0 0.0 0.0 0.0 0
1317065180885498046 0 1317065180885498046 imu_link 0 1 49.001482075037 8.4588479948498 120.62463378906 0.0 0.0 0.0 0.0 0.0 0.0 0.0 0.0 0.0 0
1317065180985481977 0 1317065180985481977 imu_link 0 1 49.001485030158 8.4588324687265 120.61056518555 0.0 0.0 0.0 0.0 0.0 0.0 0.0 0.0 0.0 0
1317065181085469007 0 1317065181085469007 imu_link 0 1 49.001488015734 8.4588169333856 120.60161590576 0.0 0.0 0.0 0.0 0.0 0.0 0.0 0.0 0.0 0
1317065181195590972 0 1317065181195590972 imu_link 0 1 49.001491355098 8.4587997563865 120.59212493896 0.0 0.0 0.0 0.0 0.0 0.0 0.0 0.0 0.0 0
1317065181295511007 0 1317065181295511007 imu_link 0 1 49.001494405033 8.4587840726386 120.57926940918 0.0 0.0 0.0 0.0 0.0 0.0 0.0 0.0 0.0 0
1317065181395488977 0 1317065181395488977 imu_link 0 1 49.001497444107 8.4587682952771 120.56861877441 0.0 0.0 0.0 0.0 0.0 0.0 0.0 0.0 0.0 0
1317065181505522966 0 1317065181505522966 imu_link 0 1 49.001500841913 8.458750901051 120.55899810791 0.0 0.0 0.0 0.0 0.0 0.0 0.0 0.0 0.0 0
1317065181605560064 0 1317065181605560064 imu_link 0 1 49.001503900954 8.4587349904038 120.553855896 0.0 0.0 0.0 0.0 0.0 0.0 0.0 0.0 0.0 0
1317065181705605983 0 1317065181705605983 imu_link 0 1 49.001506929779 8.4587189790827 120.54536437988 0.0 0.0 0.0 0.0 0.0 0.0 0.0 0.0 0.0 0
1317065181815551042 0 1317065181815551042 imu_link 0 1 49.00151021424 8.4587012292725 120.53866577148 0.0 0.0 0.0 0.0 0.0 0.0 0.0 0.0 0.0 0
1317065181915538072 0 1317065181915538072 imu_link 0 1 49.001513176526 8.4586849781263 120.52816772461 0.0 0.0 0.0 0.0 0.0 0.0 0.0 0.0 0.0 0
1317065182015515089 0 1317065182015515089 imu_link 0 1 49.001516093761 8.458668621331 120.51259613037 0.0 0.0 0.0 0.0 0.0 0.0 0.0 0.0 0.0 0
1317065182125495910 0 1317065182125495910 imu_link 0 1 49.001519252569 8.4586505008525 120.48799133301 0.0 0.0 0.0 0.0 0.0 0.0 0.0 0.0 0.0 0
1317065182225761890 0 1317065182225761890 imu_link 0 1 49.001522120012 8.4586339359688 120.46328735352 0.0 0.0 0.0 0.0 0.0 0.0 0.0 0.0 0.0 0
1317065182325584888 0 1317065182325584888 imu_link 0 1 49.001524986039 8.4586172760592 120.44367980957 0.0 0.0 0.0 0.0 0.0 0.0 0.0 0.0 0.0 0
1317065182435612916 0 1317065182435612916 imu_link 0 1 49.001528163962 8.4585988059692 120.43014526367 0.0 0.0 0.0 0.0 0.0 0.0 0.0 0.0 0.0 0
1317065182535628080 0 1317065182535628080 imu_link 0 1 49.001531041975 8.4585818972317 120.42306518555 0.0 0.0 0.0 0.0 0.0 0.0 0.0 0.0 0.0 0
1317065182635631084 0 1317065182635631084 imu_link 0 1 49.001533968868 8.4585648884464 120.41363525391 0.0 0.0 0.0 0.0 0.0 0.0 0.0 0.0 0.0 0
1317065182745644092 0 1317065182745644092 imu_link 0 1 49.001537196769 8.4585460533722 120.40487670898 0.0 0.0 0.0 0.0 0.0 0.0 0.0 0.0 0.0 0
1317065182845578908 0 1317065182845578908 imu_link 0 1 49.001540133709 8.4585288120758 120.39629364014 0.0 0.0 0.0 0.0 0.0 0.0 0.0 0.0 0.0 0
1317065182955571889 0 1317065182955571889 imu_link 0 1 49.001543352048 8.4585097086273 120.38843536377 0.0 0.0 0.0 0.0 0.0 0.0 0.0 0.0 0.0 0
1317065183055576086 0 1317065183055576086 imu_link 0 1 49.001546326693 8.4584922336093 120.38074493408 0.0 0.0 0.0 0.0 0.0 0.0 0.0 0.0 0.0 0
1317065183155653953 0 1317065183155653953 imu_link 0 1 49.001549325232 8.4584746554599 120.37245178223 0.0 0.0 0.0 0.0 0.0 0.0 0.0 0.0 0.0 0
1317065183265610933 0 1317065183265610933 imu_link 0 1 49.001552638346 8.4584552329394 120.36142730713 0.0 0.0 0.0 0.0 0.0 0.0 0.0 0.0 0.0 0
1317065183365554094 0 1317065183365554094 imu_link 0 1 49.001555652731 8.458437539745 120.34571075439 0.0 0.0 0.0 0.0 0.0 0.0 0.0 0.0 0.0 0
1317065183465600013 0 1317065183465600013 imu_link 0 1 49.00155868889 8.4584197941755 120.32849884033 0.0 0.0 0.0 0.0 0.0 0.0 0.0 0.0 0.0 0
1317065183575598001 0 1317065183575598001 imu_link 0 1 49.001562032188 8.4584002004676 120.31366729736 0.0 0.0 0.0 0.0 0.0 0.0 0.0 0.0 0.0 0
1317065183675649881 0 1317065183675649881 imu_link 0 1 49.001565073652 8.4583823566287 120.29934692383 0.0 0.0 0.0 0.0 0.0 0.0 0.0 0.0 0.0 0
1317065183775621891 0 1317065183775621891 imu_link 0 1 49.00156811373 8.4583644815324 120.28425598145 0.0 0.0 0.0 0.0 0.0 0.0 0.0 0.0 0.0 0
1317065183875613927 0 1317065183875613927 imu_link 0 1 49.001571166223 8.4583465573494 120.27246856689 0.0 0.0 0.0 0.0 0.0 0.0 0.0 0.0 0.0 0
1317065183985634088 0 1317065183985634088 imu_link 0 1 49.001574550264 8.4583267949819 120.26014709473 0.0 0.0 0.0 0.0 0.0 0.0 0.0 0.0 0.0 0
1317065184085638046 0 1317065184085638046 imu_link 0 1 49.00157764882 8.4583087742265 120.24468231201 0.0 0.0 0.0 0.0 0.0 0.0 0.0 0.0 0.0 0
1317065184195748090 0 1317065184195748090 imu_link 0 1 49.001581082908 8.4582889088703 120.2283706665 0.0 0.0 0.0 0.0 0.0 0.0 0.0 0.0 0.0 0
1317065184295631885 0 1317065184295631885 imu_link 0 1 49.001584187615 8.4582708040681 120.21057891846 0.0 0.0 0.0 0.0 0.0 0.0 0.0 0.0 0.0 0
1317065184395620107 0 1317065184395620107 imu_link 0 1 49.001587296522 8.4582526590057 120.19088745117 0.0 0.0 0.0 0.0 0.0 0.0 0.0 0.0 0.0 0
1317065184505613088 0 1317065184505613088 imu_link 0 1 49.001590740911 8.4582326157523 120.18031311035 0.0 0.0 0.0 0.0 0.0 0.0 0.0 0.0 0.0 0
1317065184605642080 0 1317065184605642080 imu_link 0 1 49.001593881459 8.4582143249306 120.17771148682 0.0 0.0 0.0 0.0 0.0 0.0 0.0 0.0 0.0 0
1317065184705641984 0 1317065184705641984 imu_link 0 1 49.001597029027 8.4581959802746 120.17154693604 0.0 0.0 0.0 0.0 0.0 0.0 0.0 0.0 0.0 0
1317065184815609931 0 1317065184815609931 imu_link 0 1 49.001600479112 8.4581757641982 120.15716552734 0.0 0.0 0.0 0.0 0.0 0.0 0.0 0.0 0.0 0
1317065184915673971 0 1317065184915673971 imu_link 0 1 49.00160361186 8.4581572864615 120.14818572998 0.0 0.0 0.0 0.0 0.0 0.0 0.0 0.0 0.0 0
1317065185015645980 0 1317065185015645980 imu_link 0 1 49.001606745713 8.4581387386277 120.1469039917 0.0 0.0 0.0 0.0 0.0 0.0 0.0 0.0 0.0 0
1317065185125643968 0 1317065185125643968 imu_link 0 1 49.001610182169 8.4581182859847 120.1450958252 0.0 0.0 0.0 0.0 0.0 0.0 0.0 0.0 0.0 0
1317065185225824117 0 1317065185225824117 imu_link 0 1 49.001613324325 8.4580996338492 120.14430236816 0.0 0.0 0.0 0.0 0.0 0.0 0.0 0.0 0.0 0
1317065185325644016 0 1317065185325644016 imu_link 0 1 49.001616460845 8.4580808881362 120.1463470459 0.0 0.0 0.0 0.0 0.0 0.0 0.0 0.0 0.0 0
1317065185435631990 0 1317065185435631990 imu_link 0 1 49.001619911389 8.4580601764138 120.15068054199 0.0 0.0 0.0 0.0 0.0 0.0 0.0 0.0 0.0 0
1317065185535715103 0 1317065185535715103 imu_link 0 1 49.001623036099 8.4580412932357 120.14758300781 0.0 0.0 0.0 0.0 0.0 0.0 0.0 0.0 0.0 0
1317065185635902881 0 1317065185635902881 imu_link 0 1 49.001626181819 8.4580223707059 120.13819122314 0.0 0.0 0.0 0.0 0.0 0.0 0.0 0.0 0.0 0
1317065185745659112 0 1317065185745659112 imu_link 0 1 49.00162964466 8.458001505371 120.12933349609 0.0 0.0 0.0 0.0 0.0 0.0 0.0 0.0 0.0 0
1317065185845659017 0 1317065185845659017 imu_link 0 1 49.00163280733 8.4579824561529 120.12843322754 0.0 0.0 0.0 0.0 0.0 0.0 0.0 0.0 0.0 0
1317065185945641994 0 1317065185945641994 imu_link 0 1 49.001635972705 8.457963343987 120.13128662109 0.0 0.0 0.0 0.0 0.0 0.0 0.0 0.0 0.0 0
1317065186055644035 0 1317065186055644035 imu_link 0 1 49.001639448102 8.4579422694627 120.12970733643 0.0 0.0 0.0 0.0 0.0 0.0 0.0 0.0 0.0 0
1317065186155826091 0 1317065186155826091 imu_link 0 1 49.001642626538 8.4579230953052 120.12412261963 0.0 0.0 0.0 0.0 0.0 0.0 0.0 0.0 0.0 0
1317065186255702018 0 1317065186255702018 imu_link 0 1 49.001645795679 8.4579038787274 120.11929321289 0.0 0.0 0.0 0.0 0.0 0.0 0.0 0.0 0.0 0
1317065186365699052 0 1317065186365699052 imu_link 0 1 49.001649278941 8.4578826881399 120.11743164062 0.0 0.0 0.0 0.0 0.0 0.0 0.0 0.0 0.0 0
1317065186465666055 0 1317065186465666055 imu_link 0 1 49.001652440884 8.4578633788049 120.11779022217 0.0 0.0 0.0 0.0 0.0 0.0 0.0 0.0 0.0 0
1317065186565664052 0 1317065186565664052 imu_link 0 1 49.001655608213 8.4578440521097 120.11512756348 0.0 0.0 0.0 0.0 0.0 0.0 0.0 0.0 0.0 0
1317065186675776958 0 1317065186675776958 imu_link 0 1 49.001659084016 8.457822766705 120.10711669922 0.0 0.0 0.0 0.0 0.0 0.0 0.0 0.0 0.0 0
1317065186775732040 0 1317065186775732040 imu_link 0 1 49.001662217136 8.4578033449452 120.10500335693 0.0 0.0 0.0 0.0 0.0 0.0 0.0 0.0 0.0 0
1317065186880729913 0 1317065186880729913 imu_link 0 1 49.0016655237215 8.4577829099695 120.101119995115 0.0 0.0 0.0 0.0 0.0 0.0 0.0 0.0 0.0 0
1317065186985727071 0 1317065186985727071 imu_link 0 1 49.001668830307 8.4577624749938 120.0972366333 0.0 0.0 0.0 0.0 0.0 0.0 0.0 0.0 0.0 0
1317065187085742950 0 1317065187085742950 imu_link 0 1 49.001671983053 8.4577429511447 120.09410858154 0.0 0.0 0.0 0.0 0.0 0.0 0.0 0.0 0.0 0
1317065187185822010 0 1317065187185822010 imu_link 0 1 49.001675132771 8.4577233759699 120.09448242188 0.0 0.0 0.0 0.0 0.0 0.0 0.0 0.0 0.0 0
1317065187295774936 0 1317065187295774936 imu_link 0 1 49.00167862456 8.4577018140996 120.09036254883 0.0 0.0 0.0 0.0 0.0 0.0 0.0 0.0 0.0 0
1317065187395742893 0 1317065187395742893 imu_link 0 1 49.001681786203 8.457682164665 120.08076477051 0.0 0.0 0.0 0.0 0.0 0.0 0.0 0.0 0.0 0
1317065187495778083 0 1317065187495778083 imu_link 0 1 49.001684971599 8.4576624909157 120.07460021973 0.0 0.0 0.0 0.0 0.0 0.0 0.0 0.0 0.0 0
1317065187605792999 0 1317065187605792999 imu_link 0 1 49.001688471623 8.4576407954878 120.07071685791 0.0 0.0 0.0 0.0 0.0 0.0 0.0 0.0 0.0 0
1317065187705837965 0 1317065187705837965 imu_link 0 1 49.001691685223 8.4576210397226 120.0729598999 0.0 0.0 0.0 0.0 0.0 0.0 0.0 0.0 0.0 0
1317065187805808067 0 1317065187805808067 imu_link 0 1 49.001694925607 8.4576012534956 120.07527923584 0.0 0.0 0.0 0.0 0.0 0.0 0.0 0.0 0.0 0
1317065187915777921 0 1317065187915777921 imu_link 0 1 49.001698491302 8.4575794491841 120.07250213623 0.0 0.0 0.0 0.0 0.0 0.0 0.0 0.0 0.0 0
1317065188015748977 0 1317065188015748977 imu_link 0 1 49.001701752027 8.4575596198911 120.07037353516 0.0 0.0 0.0 0.0 0.0 0.0 0.0 0.0 0.0 0
1317065188115798950 0 1317065188115798950 imu_link 0 1 49.001705024367 8.4575397713928 120.064453125 0.0 0.0 0.0 0.0 0.0 0.0 0.0 0.0 0.0 0
1317065188225898981 0 1317065188225898981 imu_link 0 1 49.001708631666 8.4575179062481 120.05993652344 0.0 0.0 0.0 0.0 0.0 0.0 0.0 0.0 0.0 0
1317065188325828075 0 1317065188325828075 imu_link 0 1 49.001711913473 8.4574979910052 120.05605316162 0.0 0.0 0.0 0.0 0.0 0.0 0.0 0.0 0.0 0
1317065188425846099 0 1317065188425846099 imu_link 0 1 49.001715221474 8.4574780921633 120.05072021484 0.0 0.0 0.0 0.0 0.0 0.0 0.0 0.0 0.0 0
1317065188535842895 0 1317065188535842895 imu_link 0 1 49.001718880242 8.4574562157838 120.04518890381 0.0 0.0 0.0 0.0 0.0 0.0 0.0 0.0 0.0 0
1317065188635968923 0 1317065188635968923 imu_link 0 1 49.001722222364 8.457436333672 120.04091644287 0.0 0.0 0.0 0.0 0.0 0.0 0.0 0.0 0.0 0
1317065188735922098 0 1317065188735922098 imu_link 0 1 49.001725559709 8.457416460853 120.03520965576 0.0 0.0 0.0 0.0 0.0 0.0 0.0 0.0 0.0 0
1317065188845843076 0 1317065188845843076 imu_link 0 1 49.001729220993 8.4573946220225 120.02679443359 0.0 0.0 0.0 0.0 0.0 0.0 0.0 0.0 0.0 0
1317065188945880889 0 1317065188945880889 imu_link 0 1 49.001732548274 8.4573747776915 120.01902770996 0.0 0.0 0.0 0.0 0.0 0.0 0.0 0.0 0.0 0
1317065189045877933 0 1317065189045877933 imu_link 0 1 49.001735872155 8.4573549497452 120.01109313965 0.0 0.0 0.0 0.0 0.0 0.0 0.0 0.0 0.0 0
1317065189155975103 0 1317065189155975103 imu_link 0 1 49.001739539635 8.4573331909225 120.00176239014 0.0 0.0 0.0 0.0 0.0 0.0 0.0 0.0 0.0 0
1317065189255903005 0 1317065189255903005 imu_link 0 1 49.001742870344 8.4573134299975 119.99100494385 0.0 0.0 0.0 0.0 0.0 0.0 0.0 0.0 0.0 0
1317065189355811119 0 1317065189355811119 imu_link 0 1 49.001746190825 8.4572937030191 119.98610687256 0.0 0.0 0.0 0.0 0.0 0.0 0.0 0.0 0.0 0
1317065189465765953 0 1317065189465765953 imu_link 0 1 49.001749846449 8.4572720083273 119.98291015625 0.0 0.0 0.0 0.0 0.0 0.0 0.0 0.0 0.0 0
1317065189565835952 0 1317065189565835952 imu_link 0 1 49.001753190303 8.4572522686511 119.98511505127 0.0 0.0 0.0 0.0 0.0 0.0 0.0 0.0 0.0 0
1317065189665939092 0 1317065189665939092 imu_link 0 1 49.001756563641 8.4572325615504 119.97548675537 0.0 0.0 0.0 0.0 0.0 0.0 0.0 0.0 0.0 0
1317065189775824069 0 1317065189775824069 imu_link 0 1 49.001760275795 8.4572108950755 119.95671844482 0.0 0.0 0.0 0.0 0.0 0.0 0.0 0.0 0.0 0
1317065189875814914 0 1317065189875814914 imu_link 0 1 49.001763632283 8.4571912056802 119.93688201904 0.0 0.0 0.0 0.0 0.0 0.0 0.0 0.0 0.0 0
1317065189975804090 0 1317065189975804090 imu_link 0 1 49.001766949283 8.4571714918362 119.92178344727 0.0 0.0 0.0 0.0 0.0 0.0 0.0 0.0 0.0 0
1317065190075866937 0 1317065190075866937 imu_link 0 1 49.001770252823 8.4571517492359 119.92102813721 0.0 0.0 0.0 0.0 0.0 0.0 0.0 0.0 0.0 0
1317065190186065912 0 1317065190186065912 imu_link 0 1 49.001772665552 8.4571286505258 120.09023284912 0.0 0.0 0.0 0.0 0.0 0.0 0.0 0.0 0.0 0
1317065190285819053 0 1317065190285819053 imu_link 0 1 49.001774949768 8.4571077559241 120.22542572021 0.0 0.0 0.0 0.0 0.0 0.0 0.0 0.0 0.0 0
1317065190385862112 0 1317065190385862112 imu_link 0 1 49.001777413607 8.4570870464914 120.34049224854 0.0 0.0 0.0 0.0 0.0 0.0 0.0 0.0 0.0 0
1317065190495893001 0 1317065190495893001 imu_link 0 1 49.001780120246 8.4570642585282 120.47205352783 0.0 0.0 0.0 0.0 0.0 0.0 0.0 0.0 0.0 0
1317065190595877885 0 1317065190595877885 imu_link 0 1 49.001782862403 8.4570438619309 120.55429077148 0.0 0.0 0.0 0.0 0.0 0.0 0.0 0.0 0.0 0
1317065190696001052 0 1317065190696001052 imu_link 0 1 49.001785528087 8.457023386973 120.64414215088 0.0 0.0 0.0 0.0 0.0 0.0 0.0 0.0 0.0 0
1317065190805886983 0 1317065190805886983 imu_link 0 1 49.00178878597 8.4570012436255 120.6948928833 0.0 0.0 0.0 0.0 0.0 0.0 0.0 0.0 0.0 0
1317065190905894994 0 1317065190905894994 imu_link 0 1 49.001791646852 8.4569810234745 120.752784729 0.0 0.0 0.0 0.0 0.0 0.0 0.0 0.0 0.0 0
1317065191015935897 0 1317065191015935897 imu_link 0 1 49.001794998462 8.4569590156013 120.7893371582 0.0 0.0 0.0 0.0 0.0 0.0 0.0 0.0 0.0 0
1317065191115916013 0 1317065191115916013 imu_link 0 1 49.001797981816 8.4569388915377 120.83877563477 0.0 0.0 0.0 0.0 0.0 0.0 0.0 0.0 0.0 0
1317065191216104030 0 1317065191216104030 imu_link 0 1 49.001801093925 8.4569188750906 120.87213897705 0.0 0.0 0.0 0.0 0.0 0.0 0.0 0.0 0.0 0
1317065191315943956 0 1317065191315943956 imu_link 0 1 49.001804241814 8.4568988786727 120.89499664307 0.0 0.0 0.0 0.0 0.0 0.0 0.0 0.0 0.0 0
1317065191425887107 0 1317065191425887107 imu_link 0 1 49.001807698504 8.4568768446689 120.91659545898 0.0 0.0 0.0 0.0 0.0 0.0 0.0 0.0 0.0 0
1317065191525948047 0 1317065191525948047 imu_link 0 1 49.001810889767 8.4568568501831 120.92755126953 0.0 0.0 0.0 0.0 0.0 0.0 0.0 0.0 0.0 0
1317065191625900983 0 1317065191625900983 imu_link 0 1 49.001814069858 8.4568368049975 120.94007110596 0.0 0.0 0.0 0.0 0.0 0.0 0.0 0.0 0.0 0
1317065191736118078 0 1317065191736118078 imu_link 0 1 49.001817662505 8.4568148061306 120.94283294678 0.0 0.0 0.0 0.0 0.0 0.0 0.0 0.0 0.0 0
1317065191835953950 0 1317065191835953950 imu_link 0 1 49.001820935881 8.4567947317863 120.95178985596 0.0 0.0 0.0 0.0 0.0 0.0 0.0 0.0 0.0 0
1317065191935982942 0 1317065191935982942 imu_link 0 1 49.001824268702 8.4567746548939 120.95914459229 0.0 0.0 0.0 0.0 0.0 0.0 0.0 0.0 0.0 0
1317065192045980930 0 1317065192045980930 imu_link 0 1 49.001827950204 8.456752508992 120.96769714355 0.0 0.0 0.0 0.0 0.0 0.0 0.0 0.0 0.0 0
1317065192146090030 0 1317065192146090030 imu_link 0 1 49.001831328082 8.4567323431367 120.96792602539 0.0 0.0 0.0 0.0 0.0 0.0 0.0 0.0 0.0 0
1317065192246025085 0 1317065192246025085 imu_link 0 1 49.001834696751 8.4567121379978 120.96370697021 0.0 0.0 0.0 0.0 0.0 0.0 0.0 0.0 0.0 0
1317065192355968952 0 1317065192355968952 imu_link 0 1 49.001838397079 8.4566898373165 120.96109008789 0.0 0.0 0.0 0.0 0.0 0.0 0.0 0.0 0.0 0
1317065192455991983 0 1317065192455991983 imu_link 0 1 49.001841771998 8.4566695088442 120.96224212646 0.0 0.0 0.0 0.0 0.0 0.0 0.0 0.0 0.0 0
1317065192565984010 0 1317065192565984010 imu_link 0 1 49.001845520155 8.456647080321 120.96535491943 0.0 0.0 0.0 0.0 0.0 0.0 0.0 0.0 0.0 0
1317065192666166067 0 1317065192666166067 imu_link 0 1 49.001848966205 8.4566266633905 120.96340942383 0.0 0.0 0.0 0.0 0.0 0.0 0.0 0.0 0.0 0
1317065192766030073 0 1317065192766030073 imu_link 0 1 49.00185239745 8.4566061696204 120.96078491211 0.0 0.0 0.0 0.0 0.0 0.0 0.0 0.0 0.0 0
1317065192866002082 0 1317065192866002082 imu_link 0 1 49.001855855067 8.4565856317997 120.95765686035 0.0 0.0 0.0 0.0 0.0 0.0 0.0 0.0 0.0 0
1317065192975977897 0 1317065192975977897 imu_link 0 1 49.001859662999 8.4565629698561 120.95420837402 0.0 0.0 0.0 0.0 0.0 0.0 0.0 0.0 0.0 0
1317065193075995922 0 1317065193075995922 imu_link 0 1 49.001863141329 8.4565423327009 120.94995880127 0.0 0.0 0.0 0.0 0.0 0.0 0.0 0.0 0.0 0
1317065193176240921 0 1317065193176240921 imu_link 0 1 49.001866646488 8.4565216368612 120.95043945312 0.0 0.0 0.0 0.0 0.0 0.0 0.0 0.0 0.0 0
1317065193286022901 0 1317065193286022901 imu_link 0 1 49.001870522536 8.4564987712498 120.95253753662 0.0 0.0 0.0 0.0 0.0 0.0 0.0 0.0 0.0 0
1317065193386040925 0 1317065193386040925 imu_link 0 1 49.001874089233 8.456477949603 120.94887542725 0.0 0.0 0.0 0.0 0.0 0.0 0.0 0.0 0.0 0
1317065193486047983 0 1317065193486047983 imu_link 0 1 49.00187766611 8.4564570776087 120.9386138916 0.0 0.0 0.0 0.0 0.0 0.0 0.0 0.0 0.0 0
1317065193596012115 0 1317065193596012115 imu_link 0 1 49.001881633329 8.4564340677835 120.9282989502 0.0 0.0 0.0 0.0 0.0 0.0 0.0 0.0 0.0 0
1317065193696059942 0 1317065193696059942 imu_link 0 1 49.001885251223 8.4564130902816 120.922996521 0.0 0.0 0.0 0.0 0.0 0.0 0.0 0.0 0.0 0
1317065193796044111 0 1317065193796044111 imu_link 0 1 49.001888901991 8.4563920594143 120.91992950439 0.0 0.0 0.0 0.0 0.0 0.0 0.0 0.0 0.0 0
1317065193906018972 0 1317065193906018972 imu_link 0 1 49.001892947427 8.4563688818851 120.91749572754 0.0 0.0 0.0 0.0 0.0 0.0 0.0 0.0 0.0 0
1317065194006059885 0 1317065194006059885 imu_link 0 1 49.001896643868 8.456347763552 120.91694641113 0.0 0.0 0.0 0.0 0.0 0.0 0.0 0.0 0.0 0
1317065194106031894 0 1317065194106031894 imu_link 0 1 49.001900342563 8.4563265974589 120.91729736328 0.0 0.0 0.0 0.0 0.0 0.0 0.0 0.0 0.0 0
1317065194216316938 0 1317065194216316938 imu_link 0 1 49.001904425472 8.456303266248 120.9155960083 0.0 0.0 0.0 0.0 0.0 0.0 0.0 0.0 0.0 0
1317065194316035985 0 1317065194316035985 imu_link 0 1 49.001908153835 8.4562820341368 120.91305541992 0.0 0.0 0.0 0.0 0.0 0.0 0.0 0.0 0.0 0
1317065194426063060 0 1317065194426063060 imu_link 0 1 49.001912284804 8.4562586552004 120.90738677979 0.0 0.0 0.0 0.0 0.0 0.0 0.0 0.0 0.0 0
1317065194526009082 0 1317065194526009082 imu_link 0 1 49.0019160487 8.456237365393 120.90473937988 0.0 0.0 0.0 0.0 0.0 0.0 0.0 0.0 0.0 0
1317065194626044034 0 1317065194626044034 imu_link 0 1 49.001919836035 8.4562160702565 120.90214538574 0.0 0.0 0.0 0.0 0.0 0.0 0.0 0.0 0.0 0
1317065194736115932 0 1317065194736115932 imu_link 0 1 49.001924045424 8.4561926503953 120.89715576172 0.0 0.0 0.0 0.0 0.0 0.0 0.0 0.0 0.0 0
1317065194836193084 0 1317065194836193084 imu_link 0 1 49.001927908074 8.4561713748073 120.89061737061 0.0 0.0 0.0 0.0 0.0 0.0 0.0 0.0 0.0 0
1317065194936126947 0 1317065194936126947 imu_link 0 1 49.001931815266 8.4561501132382 120.88568115234 0.0 0.0 0.0 0.0 0.0 0.0 0.0 0.0 0.0 0
1317065195046128034 0 1317065195046128034 imu_link 0 1 49.001936158791 8.456126718245 120.88379669189 0.0 0.0 0.0 0.0 0.0 0.0 0.0 0.0 0.0 0
1317065195146203041 0 1317065195146203041 imu_link 0 1 49.001940165489 8.4561054450055 120.88594055176 0.0 0.0 0.0 0.0 0.0 0.0 0.0 0.0 0.0 0
1317065195246120929 0 1317065195246120929 imu_link 0 1 49.001944209842 8.456084177805 120.88456726074 0.0 0.0 0.0 0.0 0.0 0.0 0.0 0.0 0.0 0
1317065195356081962 0 1317065195356081962 imu_link 0 1 49.001948705753 8.4560608033861 120.87964630127 0.0 0.0 0.0 0.0 0.0 0.0 0.0 0.0 0.0 0
1317065195456098079 0 1317065195456098079 imu_link 0 1 49.001952827915 8.4560395700501 120.87728881836 0.0 0.0 0.0 0.0 0.0 0.0 0.0 0.0 0.0 0
1317065195556078910 0 1317065195556078910 imu_link 0 1 49.001956989618 8.4560183478996 120.87845611572 0.0 0.0 0.0 0.0 0.0 0.0 0.0 0.0 0.0 0
1317065195666273117 0 1317065195666273117 imu_link 0 1 49.001961633709 8.4559950121487 120.88399505615 0.0 0.0 0.0 0.0 0.0 0.0 0.0 0.0 0.0 0
1317065195766105890 0 1317065195766105890 imu_link 0 1 49.001965904614 8.4559738255888 120.88775634766 0.0 0.0 0.0 0.0 0.0 0.0 0.0 0.0 0.0 0
1317065195866111993 0 1317065195866111993 imu_link 0 1 49.001970217625 8.4559526680506 120.88623046875 0.0 0.0 0.0 0.0 0.0 0.0 0.0 0.0 0.0 0
1317065195976085901 0 1317065195976085901 imu_link 0 1 49.001974994971 8.4559293925021 120.887550354 0.0 0.0 0.0 0.0 0.0 0.0 0.0 0.0 0.0 0
1317065196076111078 0 1317065196076111078 imu_link 0 1 49.001979343165 8.4559082258151 120.89009094238 0.0 0.0 0.0 0.0 0.0 0.0 0.0 0.0 0.0 0
1317065196176285028 0 1317065196176285028 imu_link 0 1 49.001983726005 8.4558870625381 120.89223480225 0.0 0.0 0.0 0.0 0.0 0.0 0.0 0.0 0.0 0
1317065196286133050 0 1317065196286133050 imu_link 0 1 49.00198857467 8.4558637920321 120.89151000977 0.0 0.0 0.0 0.0 0.0 0.0 0.0 0.0 0.0 0
1317065196386188030 0 1317065196386188030 imu_link 0 1 49.001993006816 8.4558426464539 120.89087677002 0.0 0.0 0.0 0.0 0.0 0.0 0.0 0.0 0.0 0
1317065196486180067 0 1317065196486180067 imu_link 0 1 49.001997466713 8.4558214931262 120.89301300049 0.0 0.0 0.0 0.0 0.0 0.0 0.0 0.0 0.0 0
1317065196596148014 0 1317065196596148014 imu_link 0 1 49.002002407187 8.455798244352 120.89218902588 0.0 0.0 0.0 0.0 0.0 0.0 0.0 0.0 0.0 0
1317065196696289062 0 1317065196696289062 imu_link 0 1 49.002006889349 8.4557771079947 120.88943481445 0.0 0.0 0.0 0.0 0.0 0.0 0.0 0.0 0.0 0
1317065196806174039 0 1317065196806174039 imu_link 0 1 49.002011800154 8.4557538187457 120.88847351074 0.0 0.0 0.0 0.0 0.0 0.0 0.0 0.0 0.0 0
1317065196906137943 0 1317065196906137943 imu_link 0 1 49.002016247983 8.4557326348696 120.88802337646 0.0 0.0 0.0 0.0 0.0 0.0 0.0 0.0 0.0 0
1317065197006192922 0 1317065197006192922 imu_link 0 1 49.00202069079 8.4557114471483 120.88628387451 0.0 0.0 0.0 0.0 0.0 0.0 0.0 0.0 0.0 0
1317065197106190919 0 1317065197106190919 imu_link 0 1 49.00202512348 8.4556902460283 120.88771820068 0.0 0.0 0.0 0.0 0.0 0.0 0.0 0.0 0.0 0
1317065197216377973 0 1317065197216377973 imu_link 0 1 49.002029996089 8.455666892663 120.89713287354 0.0 0.0 0.0 0.0 0.0 0.0 0.0 0.0 0.0 0
1317065197316222906 0 1317065197316222906 imu_link 0 1 49.002034429731 8.4556456469884 120.90644836426 0.0 0.0 0.0 0.0 0.0 0.0 0.0 0.0 0.0 0
1317065197416150093 0 1317065197416150093 imu_link 0 1 49.002038830455 8.4556243970569 120.90929412842 0.0 0.0 0.0 0.0 0.0 0.0 0.0 0.0 0.0 0
1317065197526199102 0 1317065197526199102 imu_link 0 1 49.002043620767 8.4556009742233 120.91313171387 0.0 0.0 0.0 0.0 0.0 0.0 0.0 0.0 0.0 0
1317065197626199007 0 1317065197626199007 imu_link 0 1 49.002047943504 8.4555796471089 120.91797637939 0.0 0.0 0.0 0.0 0.0 0.0 0.0 0.0 0.0 0
1317065197726236104 0 1317065197726236104 imu_link 0 1 49.002052234193 8.4555583159487 120.91799926758 0.0 0.0 0.0 0.0 0.0 0.0 0.0 0.0 0.0 0
1317065197836199045 0 1317065197836199045 imu_link 0 1 49.002056934083 8.4555348454668 120.91898345947 0.0 0.0 0.0 0.0 0.0 0.0 0.0 0.0 0.0 0
1317065197936299085 0 1317065197936299085 imu_link 0 1 49.002061169503 8.4555134822844 120.92352294922 0.0 0.0 0.0 0.0 0.0 0.0 0.0 0.0 0.0 0
1317065198036242008 0 1317065198036242008 imu_link 0 1 49.002065377304 8.4554920886163 120.93273925781 0.0 0.0 0.0 0.0 0.0 0.0 0.0 0.0 0.0 0
1317065198146318912 0 1317065198146318912 imu_link 0 1 49.002069955826 8.4554685304478 120.94063568115 0.0 0.0 0.0 0.0 0.0 0.0 0.0 0.0 0.0 0
1317065198246290922 0 1317065198246290922 imu_link 0 1 49.002074058194 8.4554471062952 120.94176483154 0.0 0.0 0.0 0.0 0.0 0.0 0.0 0.0 0.0 0
1317065198346219062 0 1317065198346219062 imu_link 0 1 49.002078104615 8.4554256811322 120.9398651123 0.0 0.0 0.0 0.0 0.0 0.0 0.0 0.0 0.0 0
1317065198456223964 0 1317065198456223964 imu_link 0 1 49.002082501239 8.4554020912055 120.94096374512 0.0 0.0 0.0 0.0 0.0 0.0 0.0 0.0 0.0 0
1317065198556221961 0 1317065198556221961 imu_link 0 1 49.002086472344 8.4553806509531 120.94574737549 0.0 0.0 0.0 0.0 0.0 0.0 0.0 0.0 0.0 0
1317065198656374931 0 1317065198656374931 imu_link 0 1 49.00209043012 8.4553592272445 120.95276641846 0.0 0.0 0.0 0.0 0.0 0.0 0.0 0.0 0.0 0
1317065198766275882 0 1317065198766275882 imu_link 0 1 49.002094756834 8.4553356757117 120.9610824585 0.0 0.0 0.0 0.0 0.0 0.0 0.0 0.0 0.0 0
1317065198866233110 0 1317065198866233110 imu_link 0 1 49.002098663661 8.4553142663082 120.97057342529 0.0 0.0 0.0 0.0 0.0 0.0 0.0 0.0 0.0 0
1317065198966299057 0 1317065198966299057 imu_link 0 1 49.002102529486 8.455292861467 120.97859191895 0.0 0.0 0.0 0.0 0.0 0.0 0.0 0.0 0.0 0
1317065199076245069 0 1317065199076245069 imu_link 0 1 49.002106736946 8.4552693302678 120.98293304443 0.0 0.0 0.0 0.0 0.0 0.0 0.0 0.0 0.0 0
1317065199176542997 0 1317065199176542997 imu_link 0 1 49.002110519508 8.4552479659778 120.98633575439 0.0 0.0 0.0 0.0 0.0 0.0 0.0 0.0 0.0 0
1317065199276242017 0 1317065199276242017 imu_link 0 1 49.002114263942 8.4552266238826 120.98942565918 0.0 0.0 0.0 0.0 0.0 0.0 0.0 0.0 0.0 0
1317065199386271953 0 1317065199386271953 imu_link 0 1 49.002118358303 8.4552031607317 120.99749755859 0.0 0.0 0.0 0.0 0.0 0.0 0.0 0.0 0.0 0
1317065199486320018 0 1317065199486320018 imu_link 0 1 49.002122060828 8.4551818438857 121.00747680664 0.0 0.0 0.0 0.0 0.0 0.0 0.0 0.0 0.0 0
1317065199586297988 0 1317065199586297988 imu_link 0 1 49.002125752845 8.4551605351454 121.01547241211 0.0 0.0 0.0 0.0 0.0 0.0 0.0 0.0 0.0 0
1317065199696407079 0 1317065199696407079 imu_link 0 1 49.00212979869 8.455137107877 121.02365875244 0.0 0.0 0.0 0.0 0.0 0.0 0.0 0.0 0.0 0
1317065199796286106 0 1317065199796286106 imu_link 0 1 49.002133480329 8.4551158280132 121.03028869629 0.0 0.0 0.0 0.0 0.0 0.0 0.0 0.0 0.0 0
1317065199896312952 0 1317065199896312952 imu_link 0 1 49.002137159243 8.455094554522 121.03656768799 0.0 0.0 0.0 0.0 0.0 0.0 0.0 0.0 0.0 0
1317065200006293058 0 1317065200006293058 imu_link 0 1 49.002141222192 8.4550711764535 121.04428100586 0.0 0.0 0.0 0.0 0.0 0.0 0.0 0.0 0.0 0
1317065200106316089 0 1317065200106316089 imu_link 0 1 49.002144916489 8.4550499353278 121.05247497559 0.0 0.0 0.0 0.0 0.0 0.0 0.0 0.0 0.0 0
1317065200206442117 0 1317065200206442117 imu_link 0 1 49.002148607748 8.4550286971324 121.06060791016 0.0 0.0 0.0 0.0 0.0 0.0 0.0 0.0 0.0 0
1317065200316283941 0 1317065200316283941 imu_link 0 1 49.002152673286 8.4550053480548 121.06959533691 0.0 0.0 0.0 0.0 0.0 0.0 0.0 0.0 0.0 0
1317065200416286945 0 1317065200416286945 imu_link 0 1 49.002156354951 8.4549841213184 121.07543182373 0.0 0.0 0.0 0.0 0.0 0.0 0.0 0.0 0.0 0
1317065200516338109 0 1317065200516338109 imu_link 0 1 49.00216004251 8.4549629062145 121.08164215088 0.0 0.0 0.0 0.0 0.0 0.0 0.0 0.0 0.0 0
1317065200626316070 0 1317065200626316070 imu_link 0 1 49.002164088479 8.4549395650333 121.08561706543 0.0 0.0 0.0 0.0 0.0 0.0 0.0 0.0 0.0 0
1317065200726361989 0 1317065200726361989 imu_link 0 1 49.002167748697 8.4549183421446 121.08646392822 0.0 0.0 0.0 0.0 0.0 0.0 0.0 0.0 0.0 0
1317065200826345920 0 1317065200826345920 imu_link 0 1 49.002171396279 8.4548971244841 121.08520507812 0.0 0.0 0.0 0.0 0.0 0.0 0.0 0.0 0.0 0
1317065200936391115 0 1317065200936391115 imu_link 0 1 49.002175392371 8.4548737853996 121.08316040039 0.0 0.0 0.0 0.0 0.0 0.0 0.0 0.0 0.0 0
1317065201036381006 0 1317065201036381006 imu_link 0 1 49.002179021303 8.4548525766609 121.08296966553 0.0 0.0 0.0 0.0 0.0 0.0 0.0 0.0 0.0 0
1317065201136425018 0 1317065201136425018 imu_link 0 1 49.002182645063 8.4548313694541 121.08406066895 0.0 0.0 0.0 0.0 0.0 0.0 0.0 0.0 0.0 0
1317065201246413946 0 1317065201246413946 imu_link 0 1 49.002186630826 8.4548080426253 121.08799743652 0.0 0.0 0.0 0.0 0.0 0.0 0.0 0.0 0.0 0
1317065201346353054 0 1317065201346353054 imu_link 0 1 49.002190231982 8.4547868149119 121.09048461914 0.0 0.0 0.0 0.0 0.0 0.0 0.0 0.0 0.0 0
1317065201446350097 0 1317065201446350097 imu_link 0 1 49.002193816791 8.4547656069342 121.08612823486 0.0 0.0 0.0 0.0 0.0 0.0 0.0 0.0 0.0 0
1317065201556382894 0 1317065201556382894 imu_link 0 1 49.002197757261 8.4547422883652 121.08148193359 0.0 0.0 0.0 0.0 0.0 0.0 0.0 0.0 0.0 0
1317065201656502008 0 1317065201656502008 imu_link 0 1 49.002201335008 8.4547210931947 121.08120727539 0.0 0.0 0.0 0.0 0.0 0.0 0.0 0.0 0.0 0
1317065201756398916 0 1317065201756398916 imu_link 0 1 49.002204888202 8.4546999106521 121.08047485352 0.0 0.0 0.0 0.0 0.0 0.0 0.0 0.0 0.0 0
1317065201866370916 0 1317065201866370916 imu_link 0 1 49.002208745183 8.45467660817 121.08192443848 0.0 0.0 0.0 0.0 0.0 0.0 0.0 0.0 0.0 0
1317065201966379880 0 1317065201966379880 imu_link 0 1 49.002212218466 8.4546554268367 121.08839416504 0.0 0.0 0.0 0.0 0.0 0.0 0.0 0.0 0.0 0
1317065202066351890 0 1317065202066351890 imu_link 0 1 49.00221568087 8.4546342475921 121.09652709961 0.0 0.0 0.0 0.0 0.0 0.0 0.0 0.0 0.0 0
1317065202176557064 0 1317065202176557064 imu_link 0 1 49.002219493678 8.4546109789424 121.10536193848 0.0 0.0 0.0 0.0 0.0 0.0 0.0 0.0 0.0 0
1317065202276384115 0 1317065202276384115 imu_link 0 1 49.002222957258 8.4545898440425 121.11236572266 0.0 0.0 0.0 0.0 0.0 0.0 0.0 0.0 0.0 0
1317065202376398086 0 1317065202376398086 imu_link 0 1 49.002226417838 8.4545687264531 121.11824798584 0.0 0.0 0.0 0.0 0.0 0.0 0.0 0.0 0.0 0
1317065202486422061 0 1317065202486422061 imu_link 0 1 49.002230203842 8.4545455089914 121.12530517578 0.0 0.0 0.0 0.0 0.0 0.0 0.0 0.0 0.0 0
1317065202586410999 0 1317065202586410999 imu_link 0 1 49.002233642868 8.4545244173716 121.13209533691 0.0 0.0 0.0 0.0 0.0 0.0 0.0 0.0 0.0 0
1317065202686523914 0 1317065202686523914 imu_link 0 1 49.002237087637 8.4545033326065 121.13871002197 0.0 0.0 0.0 0.0 0.0 0.0 0.0 0.0 0.0 0
1317065202796428918 0 1317065202796428918 imu_link 0 1 49.002240883292 8.4544801757639 121.14479064941 0.0 0.0 0.0 0.0 0.0 0.0 0.0 0.0 0.0 0
1317065202896446943 0 1317065202896446943 imu_link 0 1 49.002244339362 8.4544591669775 121.14902496338 0.0 0.0 0.0 0.0 0.0 0.0 0.0 0.0 0.0 0
1317065202996381998 0 1317065202996381998 imu_link 0 1 49.002247795256 8.4544381879635 121.15482330322 0.0 0.0 0.0 0.0 0.0 0.0 0.0 0.0 0.0 0
1317065203106416940 0 1317065203106416940 imu_link 0 1 49.002251600825 8.4544151398169 121.16335296631 0.0 0.0 0.0 0.0 0.0 0.0 0.0 0.0 0.0 0
1317065203206670045 0 1317065203206670045 imu_link 0 1 49.002255060936 8.4543942129397 121.17078399658 0.0 0.0 0.0 0.0 0.0 0.0 0.0 0.0 0.0 0
1317065203306452989 0 1317065203306452989 imu_link 0 1 49.002258512331 8.4543733128132 121.17594909668 0.0 0.0 0.0 0.0 0.0 0.0 0.0 0.0 0.0 0
1317065203416404008 0 1317065203416404008 imu_link 0 1 49.002262306329 8.4543503533941 121.17837524414 0.0 0.0 0.0 0.0 0.0 0.0 0.0 0.0 0.0 0
1317065203516427040 0 1317065203516427040 imu_link 0 1 49.002265761067 8.4543294970048 121.18114471436 0.0 0.0 0.0 0.0 0.0 0.0 0.0 0.0 0.0 0
1317065203616379976 0 1317065203616379976 imu_link 0 1 49.002269217045 8.4543086336553 121.18628692627 0.0 0.0 0.0 0.0 0.0 0.0 0.0 0.0 0.0 0
1317065203726423978 0 1317065203726423978 imu_link 0 1 49.002273023002 8.4542856673486 121.19384765625 0.0 0.0 0.0 0.0 0.0 0.0 0.0 0.0 0.0 0
1317065203826456069 0 1317065203826456069 imu_link 0 1 49.002276485485 8.4542647844707 121.20162200928 0.0 0.0 0.0 0.0 0.0 0.0 0.0 0.0 0.0 0
1317065203926481962 0 1317065203926481962 imu_link 0 1 49.002279945358 8.4542438849799 121.20848083496 0.0 0.0 0.0 0.0 0.0 0.0 0.0 0.0 0.0 0
1317065204036469936 0 1317065204036469936 imu_link 0 1 49.002283749907 8.4542208857452 121.21612548828 0.0 0.0 0.0 0.0 0.0 0.0 0.0 0.0 0.0 0
1317065204136504888 0 1317065204136504888 imu_link 0 1 49.002287213439 8.4541999570877 121.22496032715 0.0 0.0 0.0 0.0 0.0 0.0 0.0 0.0 0.0 0
1317065204236589908 0 1317065204236589908 imu_link 0 1 49.002290679785 8.454179010919 121.2345123291 0.0 0.0 0.0 0.0 0.0 0.0 0.0 0.0 0.0 0
1317065204346466064 0 1317065204346466064 imu_link 0 1 49.002294507864 8.454155942733 121.24467468262 0.0 0.0 0.0 0.0 0.0 0.0 0.0 0.0 0.0 0
1317065204446470022 0 1317065204446470022 imu_link 0 1 49.002297976026 8.4541349304006 121.25291442871 0.0 0.0 0.0 0.0 0.0 0.0 0.0 0.0 0.0 0
1317065204546488046 0 1317065204546488046 imu_link 0 1 49.002301440321 8.454113895621 121.25730895996 0.0 0.0 0.0 0.0 0.0 0.0 0.0 0.0 0.0 0
1317065204656754970 0 1317065204656754970 imu_link 0 1 49.002305258861 8.4540907261438 121.2592086792 0.0 0.0 0.0 0.0 0.0 0.0 0.0 0.0 0.0 0
1317065204756561040 0 1317065204756561040 imu_link 0 1 49.002308739288 8.4540696287909 121.26164245605 0.0 0.0 0.0 0.0 0.0 0.0 0.0 0.0 0.0 0
1317065204856512069 0 1317065204856512069 imu_link 0 1 49.002312226939 8.4540485097126 121.2607421875 0.0 0.0 0.0 0.0 0.0 0.0 0.0 0.0 0.0 0
1317065204966512918 0 1317065204966512918 imu_link 0 1 49.002316058562 8.4540252418321 121.26079559326 0.0 0.0 0.0 0.0 0.0 0.0 0.0 0.0 0.0 0
1317065205066499948 0 1317065205066499948 imu_link 0 1 49.002319549974 8.4540040499549 121.26758575439 0.0 0.0 0.0 0.0 0.0 0.0 0.0 0.0 0.0 0
1317065205166614055 0 1317065205166614055 imu_link 0 1 49.002323054066 8.4539828217833 121.2784576416 0.0 0.0 0.0 0.0 0.0 0.0 0.0 0.0 0.0 0
1317065205276511907 0 1317065205276511907 imu_link 0 1 49.002326936238 8.4539594461808 121.29004669189 0.0 0.0 0.0 0.0 0.0 0.0 0.0 0.0 0.0 0
1317065205376527070 0 1317065205376527070 imu_link 0 1 49.002330473037 8.4539381548022 121.30031585693 0.0 0.0 0.0 0.0 0.0 0.0 0.0 0.0 0.0 0
1317065205476511001 0 1317065205476511001 imu_link 0 1 49.002334013766 8.4539168274896 121.30815124512 0.0 0.0 0.0 0.0 0.0 0.0 0.0 0.0 0.0 0
1317065205586535930 0 1317065205586535930 imu_link 0 1 49.002337904153 8.4538933362615 121.3159942627 0.0 0.0 0.0 0.0 0.0 0.0 0.0 0.0 0.0 0
1317065205686674118 0 1317065205686674118 imu_link 0 1 49.002341452108 8.4538719582698 121.32239532471 0.0 0.0 0.0 0.0 0.0 0.0 0.0 0.0 0.0 0
1317065205786495923 0 1317065205786495923 imu_link 0 1 49.002345022553 8.4538505444124 121.33476257324 0.0 0.0 0.0 0.0 0.0 0.0 0.0 0.0 0.0 0
