%time field.header.seq field.header.stamp field.header.frame_id field.status.status field.status.service field.latitude field.longitude field.altitude field.position_covariance0 field.position_covariance1 field.position_covariance2 field.position_covariance3 field.position_covariance4 field.position_covariance5 field.position_covariance6 field.position_covariance7 field.position_covariance8 field.position_covariance_type
1317398079239670991 0 1317398079239670991 imu_link 0 1 49.04951961077 8.3965961639946 113.02558135986 0.0 0.0 0.0 0.0 0.0 0.0 0.0 0.0 0.0 0
1317398079339673995 0 1317398079339673995 imu_link 0 1 49.049524420479 8.3965949501025 113.01815795898 0.0 0.0 0.0 0.0 0.0 0.0 0.0 0.0 0.0 0
1317398079449843883 0 1317398079449843883 imu_link 0 1 49.049529684159 8.3965935399152 113.01261138916 0.0 0.0 0.0 0.0 0.0 0.0 0.0 0.0 0.0 0
1317398079549899101 0 1317398079549899101 imu_link 0 1 49.049534450773 8.3965921942334 113.01355743408 0.0 0.0 0.0 0.0 0.0 0.0 0.0 0.0 0.0 0
1317398079649661064 0 1317398079649661064 imu_link 0 1 49.049539210424 8.3965908557562 113.01331329346 0.0 0.0 0.0 0.0 0.0 0.0 0.0 0.0 0.0 0
1317398079759722948 0 1317398079759722948 imu_link 0 1 49.049544493062 8.3965893861654 113.00975799561 0.0 0.0 0.0 0.0 0.0 0.0 0.0 0.0 0.0 0
1317398079859652042 0 1317398079859652042 imu_link 0 1 49.049549356313 8.3965879935924 113.00860595703 0.0 0.0 0.0 0.0 0.0 0.0 0.0 0.0 0.0 0
1317398079969841003 0 1317398079969841003 imu_link 0 1 49.049554755692 8.3965864206196 113.01189422607 0.0 0.0 0.0 0.0 0.0 0.0 0.0 0.0 0.0 0
1317398080069680929 0 1317398080069680929 imu_link 0 1 49.049559712683 8.3965849427658 113.01918029785 0.0 0.0 0.0 0.0 0.0 0.0 0.0 0.0 0.0 0
1317398080179646015 0 1317398080179646015 imu_link 0 1 49.049565254856 8.3965833029298 113.021484375 0.0 0.0 0.0 0.0 0.0 0.0 0.0 0.0 0.0 0
1317398080279638051 0 1317398080279638051 imu_link 0 1 49.049570358918 8.396581756371 113.02161407471 0.0 0.0 0.0 0.0 0.0 0.0 0.0 0.0 0.0 0
1317398080379646062 0 1317398080379646062 imu_link 0 1 49.049575558768 8.3965801885916 113.01820373535 0.0 0.0 0.0 0.0 0.0 0.0 0.0 0.0 0.0 0
1317398080489717960 0 1317398080489717960 imu_link 0 1 49.049581388213 8.3965784212118 113.0177154541 0.0 0.0 0.0 0.0 0.0 0.0 0.0 0.0 0.0 0
1317398080589646100 0 1317398080589646100 imu_link 0 1 49.049586820051 8.3965767614092 113.02291107178 0.0 0.0 0.0 0.0 0.0 0.0 0.0 0.0 0.0 0
1317398080699630022 0 1317398080699630022 imu_link 0 1 49.049592931502 8.3965748885629 113.0336227417 0.0 0.0 0.0 0.0 0.0 0.0 0.0 0.0 0.0 0
1317398080799640893 0 1317398080799640893 imu_link 0 1 49.049598605353 8.3965731547764 113.04122924805 0.0 0.0 0.0 0.0 0.0 0.0 0.0 0.0 0.0 0
1317398080899650096 0 1317398080899650096 imu_link 0 1 49.049604373685 8.3965713720132 113.04014587402 0.0 0.0 0.0 0.0 0.0 0.0 0.0 0.0 0.0 0
1317398081009690999 0 1317398081009690999 imu_link 0 1 49.04961084828 8.3965693299337 113.02085113525 0.0 0.0 0.0 0.0 0.0 0.0 0.0 0.0 0.0 0
1317398081109601974 0 1317398081109601974 imu_link 0 1 49.04961687965 8.3965674650775 112.99834442139 0.0 0.0 0.0 0.0 0.0 0.0 0.0 0.0 0.0 0
1317398081219624996 0 1317398081219624996 imu_link 0 1 49.049623706991 8.3965654253933 112.98361206055 0.0 0.0 0.0 0.0 0.0 0.0 0.0 0.0 0.0 0
1317398081319645881 0 1317398081319645881 imu_link 0 1 49.049630082572 8.3965635872371 112.97860717773 0.0 0.0 0.0 0.0 0.0 0.0 0.0 0.0 0.0 0
1317398081429598093 0 1317398081429598093 imu_link 0 1 49.049637260618 8.3965614927409 112.96891784668 0.0 0.0 0.0 0.0 0.0 0.0 0.0 0.0 0.0 0
1317398081529654026 0 1317398081529654026 imu_link 0 1 49.049643917243 8.3965595142021 112.95394134521 0.0 0.0 0.0 0.0 0.0 0.0 0.0 0.0 0.0 0
1317398081629601955 0 1317398081629601955 imu_link 0 1 49.049650709436 8.3965575159517 112.93176269531 0.0 0.0 0.0 0.0 0.0 0.0 0.0 0.0 0.0 0
1317398081739624023 0 1317398081739624023 imu_link 0 1 49.049658365518 8.3965552158442 112.90313720703 0.0 0.0 0.0 0.0 0.0 0.0 0.0 0.0 0.0 0
1317398081839612960 0 1317398081839612960 imu_link 0 1 49.049665432026 8.3965531805666 112.87598419189 0.0 0.0 0.0 0.0 0.0 0.0 0.0 0.0 0.0 0
1317398081949678897 0 1317398081949678897 imu_link 0 1 49.049673364787 8.396550931806 112.8507232666 0.0 0.0 0.0 0.0 0.0 0.0 0.0 0.0 0.0 0
1317398082049709081 0 1317398082049709081 imu_link 0 1 49.049680696406 8.3965489283468 112.83283233643 0.0 0.0 0.0 0.0 0.0 0.0 0.0 0.0 0.0 0
1317398082159647941 0 1317398082159647941 imu_link 0 1 49.049688953223 8.3965465515211 112.81271362305 0.0 0.0 0.0 0.0 0.0 0.0 0.0 0.0 0.0 0
1317398082259574890 0 1317398082259574890 imu_link 0 1 49.049696588633 8.396544391677 112.80421447754 0.0 0.0 0.0 0.0 0.0 0.0 0.0 0.0 0.0 0
1317398082359594106 0 1317398082359594106 imu_link 0 1 49.049704386388 8.3965421694499 112.80187225342 0.0 0.0 0.0 0.0 0.0 0.0 0.0 0.0 0.0 0
1317398082469732046 0 1317398082469732046 imu_link 0 1 49.049713117493 8.3965396923665 112.7998046875 0.0 0.0 0.0 0.0 0.0 0.0 0.0 0.0 0.0 0
1317398082569617033 0 1317398082569617033 imu_link 0 1 49.049721188712 8.3965373524123 112.79652404785 0.0 0.0 0.0 0.0 0.0 0.0 0.0 0.0 0.0 0
1317398082679593086 0 1317398082679593086 imu_link 0 1 49.04973025484 8.3965348109686 112.79377746582 0.0 0.0 0.0 0.0 0.0 0.0 0.0 0.0 0.0 0
1317398082779612064 0 1317398082779612064 imu_link 0 1 49.049738530318 8.3965324124335 112.79405975342 0.0 0.0 0.0 0.0 0.0 0.0 0.0 0.0 0.0 0
1317398082889604091 0 1317398082889604091 imu_link 0 1 49.049747684771 8.3965297481846 112.79467773438 0.0 0.0 0.0 0.0 0.0 0.0 0.0 0.0 0.0 0
1317398082989825963 0 1317398082989825963 imu_link 0 1 49.049756076159 8.3965272979038 112.79563140869 0.0 0.0 0.0 0.0 0.0 0.0 0.0 0.0 0.0 0
1317398083089576959 0 1317398083089576959 imu_link 0 1 49.049764521439 8.3965248220025 112.79872894287 0.0 0.0 0.0 0.0 0.0 0.0 0.0 0.0 0.0 0
1317398083199584007 0 1317398083199584007 imu_link 0 1 49.049773890872 8.3965220698081 112.80200958252 0.0 0.0 0.0 0.0 0.0 0.0 0.0 0.0 0.0 0
1317398083299561023 0 1317398083299561023 imu_link 0 1 49.049782475882 8.3965195390822 112.80415344238 0.0 0.0 0.0 0.0 0.0 0.0 0.0 0.0 0.0 0
1317398083409584999 0 1317398083409584999 imu_link 0 1 49.049791992292 8.3965167342833 112.80419158936 0.0 0.0 0.0 0.0 0.0 0.0 0.0 0.0 0.0 0
1317398083509615898 0 1317398083509615898 imu_link 0 1 49.049800706284 8.3965141502904 112.80200958252 0.0 0.0 0.0 0.0 0.0 0.0 0.0 0.0 0.0 0
1317398083609576940 0 1317398083609576940 imu_link 0 1 49.049809471468 8.396511544875 112.80376434326 0.0 0.0 0.0 0.0 0.0 0.0 0.0 0.0 0.0 0
1317398083719604015 0 1317398083719604015 imu_link 0 1 49.049819203091 8.3965086672099 112.80674743652 0.0 0.0 0.0 0.0 0.0 0.0 0.0 0.0 0.0 0
1317398083819546937 0 1317398083819546937 imu_link 0 1 49.049828112616 8.396506016915 112.80872344971 0.0 0.0 0.0 0.0 0.0 0.0 0.0 0.0 0.0 0
1317398083929575920 0 1317398083929575920 imu_link 0 1 49.04983799012 8.3965030671569 112.80741882324 0.0 0.0 0.0 0.0 0.0 0.0 0.0 0.0 0.0 0
1317398084029737949 0 1317398084029737949 imu_link 0 1 49.049846994301 8.3965003413191 112.8044128418 0.0 0.0 0.0 0.0 0.0 0.0 0.0 0.0 0.0 0
1317398084139569997 0 1317398084139569997 imu_link 0 1 49.049856983543 8.396497434212 112.79109954834 0.0 0.0 0.0 0.0 0.0 0.0 0.0 0.0 0.0 0
1317398084239552021 0 1317398084239552021 imu_link 0 1 49.049866097133 8.3964948701955 112.77684783936 0.0 0.0 0.0 0.0 0.0 0.0 0.0 0.0 0.0 0
1317398084339576005 0 1317398084339576005 imu_link 0 1 49.049875216545 8.3964921798664 112.77152252197 0.0 0.0 0.0 0.0 0.0 0.0 0.0 0.0 0.0 0
1317398084449598073 0 1317398084449598073 imu_link 0 1 49.049885227107 8.3964891800053 112.77043914795 0.0 0.0 0.0 0.0 0.0 0.0 0.0 0.0 0.0 0
1317398084549599885 0 1317398084549599885 imu_link 0 1 49.04989432039 8.3964864174944 112.76934814453 0.0 0.0 0.0 0.0 0.0 0.0 0.0 0.0 0.0 0
1317398084659543037 0 1317398084659543037 imu_link 0 1 49.049904298677 8.396483369596 112.76623535156 0.0 0.0 0.0 0.0 0.0 0.0 0.0 0.0 0.0 0
1317398084759555101 0 1317398084759555101 imu_link 0 1 49.049913328013 8.3964805359366 112.75188446045 0.0 0.0 0.0 0.0 0.0 0.0 0.0 0.0 0.0 0
1317398084869721889 0 1317398084869721889 imu_link 0 1 49.04992323439 8.396477372486 112.73204040527 0.0 0.0 0.0 0.0 0.0 0.0 0.0 0.0 0.0 0
1317398084969672918 0 1317398084969672918 imu_link 0 1 49.04993229001 8.3964745095718 112.72331237793 0.0 0.0 0.0 0.0 0.0 0.0 0.0 0.0 0.0 0
1317398085069590091 0 1317398085069590091 imu_link 0 1 49.049941374789 8.3964716625742 112.71809387207 0.0 0.0 0.0 0.0 0.0 0.0 0.0 0.0 0.0 0
1317398085179549932 0 1317398085179549932 imu_link 0 1 49.049951369494 8.3964685327268 112.70911407471 0.0 0.0 0.0 0.0 0.0 0.0 0.0 0.0 0.0 0
1317398085279772996 0 1317398085279772996 imu_link 0 1 49.049960473381 8.3964657209197 112.6983795166 0.0 0.0 0.0 0.0 0.0 0.0 0.0 0.0 0.0 0
1317398085389530897 0 1317398085389530897 imu_link 0 1 49.049970471695 8.3964626093759 112.68555450439 0.0 0.0 0.0 0.0 0.0 0.0 0.0 0.0 0.0 0
1317398085489763975 0 1317398085489763975 imu_link 0 1 49.049979562228 8.3964597788559 112.66842651367 0.0 0.0 0.0 0.0 0.0 0.0 0.0 0.0 0.0 0
1317398085589530944 0 1317398085589530944 imu_link 0 1 49.049988618131 8.3964569409133 112.64977264404 0.0 0.0 0.0 0.0 0.0 0.0 0.0 0.0 0.0 0
1317398085699522018 0 1317398085699522018 imu_link 0 1 49.049998607088 8.3964538136596 112.63675689697 0.0 0.0 0.0 0.0 0.0 0.0 0.0 0.0 0.0 0
1317398085799509048 0 1317398085799509048 imu_link 0 1 49.050007629442 8.3964509106762 112.62615203857 0.0 0.0 0.0 0.0 0.0 0.0 0.0 0.0 0.0 0
1317398085909544944 0 1317398085909544944 imu_link 0 1 49.050017603487 8.3964477737069 112.62021636963 0.0 0.0 0.0 0.0 0.0 0.0 0.0 0.0 0.0 0
1317398086009665012 0 1317398086009665012 imu_link 0 1 49.05002665002 8.3964448807831 112.61986541748 0.0 0.0 0.0 0.0 0.0 0.0 0.0 0.0 0.0 0
1317398086119570016 0 1317398086119570016 imu_link 0 1 49.050036694614 8.39644174389 112.61790466309 0.0 0.0 0.0 0.0 0.0 0.0 0.0 0.0 0.0 0
1317398086219512939 0 1317398086219512939 imu_link 0 1 49.050045825864 8.39643885836 112.61040496826 0.0 0.0 0.0 0.0 0.0 0.0 0.0 0.0 0.0 0
1317398086319509029 0 1317398086319509029 imu_link 0 1 49.050054975679 8.3964360164233 112.59710693359 0.0 0.0 0.0 0.0 0.0 0.0 0.0 0.0 0.0 0
1317398086429521083 0 1317398086429521083 imu_link 0 1 49.050065026779 8.3964329382258 112.57202911377 0.0 0.0 0.0 0.0 0.0 0.0 0.0 0.0 0.0 0
1317398086529572010 0 1317398086529572010 imu_link 0 1 49.050074173295 8.3964301746033 112.55060577393 0.0 0.0 0.0 0.0 0.0 0.0 0.0 0.0 0.0 0
1317398086639507055 0 1317398086639507055 imu_link 0 1 49.05008423403 8.3964270985375 112.53137207031 0.0 0.0 0.0 0.0 0.0 0.0 0.0 0.0 0.0 0
1317398086739523887 0 1317398086739523887 imu_link 0 1 49.050093405812 8.3964242974578 112.51463317871 0.0 0.0 0.0 0.0 0.0 0.0 0.0 0.0 0.0 0
1317398086839589118 0 1317398086839589118 imu_link 0 1 49.050102595751 8.3964214935464 112.50208282471 0.0 0.0 0.0 0.0 0.0 0.0 0.0 0.0 0.0 0
1317398086949579000 0 1317398086949579000 imu_link 0 1 49.05011272056 8.3964183583321 112.49713897705 0.0 0.0 0.0 0.0 0.0 0.0 0.0 0.0 0.0 0
1317398087049614906 0 1317398087049614906 imu_link 0 1 49.050121921055 8.39641554505 112.49130249023 0.0 0.0 0.0 0.0 0.0 0.0 0.0 0.0 0.0 0
1317398087159513950 0 1317398087159513950 imu_link 0 1 49.050132014921 8.3964125042132 112.47758483887 0.0 0.0 0.0 0.0 0.0 0.0 0.0 0.0 0.0 0
1317398087259489059 0 1317398087259489059 imu_link 0 1 49.05014120749 8.3964097481739 112.46852874756 0.0 0.0 0.0 0.0 0.0 0.0 0.0 0.0 0.0 0
1317398087369647026 0 1317398087369647026 imu_link 0 1 49.050151306049 8.3964067217795 112.45774841309 0.0 0.0 0.0 0.0 0.0 0.0 0.0 0.0 0.0 0
1317398087469645023 0 1317398087469645023 imu_link 0 1 49.050160468424 8.3964039467295 112.4529876709 0.0 0.0 0.0 0.0 0.0 0.0 0.0 0.0 0.0 0
1317398087569519996 0 1317398087569519996 imu_link 0 1 49.050169578634 8.3964011422943 112.45141601562 0.0 0.0 0.0 0.0 0.0 0.0 0.0 0.0 0.0 0
1317398087679558992 0 1317398087679558992 imu_link 0 1 49.050179585416 8.3963980717359 112.4440612793 0.0 0.0 0.0 0.0 0.0 0.0 0.0 0.0 0.0 0
1317398087779481887 0 1317398087779481887 imu_link 0 1 49.050188630545 8.396395251791 112.43383789062 0.0 0.0 0.0 0.0 0.0 0.0 0.0 0.0 0.0 0
1317398087889482975 0 1317398087889482975 imu_link 0 1 49.050198582833 8.3963921435858 112.42629241943 0.0 0.0 0.0 0.0 0.0 0.0 0.0 0.0 0.0 0
1317398087989665985 0 1317398087989665985 imu_link 0 1 49.050207587004 8.3963892637349 112.42795562744 0.0 0.0 0.0 0.0 0.0 0.0 0.0 0.0 0.0 0
1317398088089498043 0 1317398088089498043 imu_link 0 1 49.050216596062 8.3963863965193 112.43084716797 0.0 0.0 0.0 0.0 0.0 0.0 0.0 0.0 0.0 0
1317398088199479103 0 1317398088199479103 imu_link 0 1 49.050226470805 8.3963832416047 112.43202209473 0.0 0.0 0.0 0.0 0.0 0.0 0.0 0.0 0.0 0
1317398088299508094 0 1317398088299508094 imu_link 0 1 49.050235432035 8.3963803970231 112.42334747314 0.0 0.0 0.0 0.0 0.0 0.0 0.0 0.0 0.0 0
1317398088409467935 0 1317398088409467935 imu_link 0 1 49.050245233179 8.3963772817545 112.4077835083 0.0 0.0 0.0 0.0 0.0 0.0 0.0 0.0 0.0 0
1317398088509558916 0 1317398088509558916 imu_link 0 1 49.050254097413 8.3963744724319 112.39733886719 0.0 0.0 0.0 0.0 0.0 0.0 0.0 0.0 0.0 0
1317398088619462966 0 1317398088619462966 imu_link 0 1 49.050263738702 8.3963714110325 112.38410186768 0.0 0.0 0.0 0.0 0.0 0.0 0.0 0.0 0.0 0
1317398088719444036 0 1317398088719444036 imu_link 0 1 49.050272397501 8.3963686739606 112.3737487793 0.0 0.0 0.0 0.0 0.0 0.0 0.0 0.0 0.0 0
1317398088819473028 0 1317398088819473028 imu_link 0 1 49.0502809368 8.3963659552826 112.36347198486 0.0 0.0 0.0 0.0 0.0 0.0 0.0 0.0 0.0 0
1317398088929492950 0 1317398088929492950 imu_link 0 1 49.050290148764 8.3963629863005 112.35510253906 0.0 0.0 0.0 0.0 0.0 0.0 0.0 0.0 0.0 0
1317398089029623031 0 1317398089029623031 imu_link 0 1 49.050298362115 8.3963603309629 112.34767913818 0.0 0.0 0.0 0.0 0.0 0.0 0.0 0.0 0.0 0
1317398089139467000 0 1317398089139467000 imu_link 0 1 49.050307183849 8.3963574283976 112.34194946289 0.0 0.0 0.0 0.0 0.0 0.0 0.0 0.0 0.0 0
1317398089239500045 0 1317398089239500045 imu_link 0 1 49.050315027165 8.3963548583421 112.33641815186 0.0 0.0 0.0 0.0 0.0 0.0 0.0 0.0 0.0 0
1317398089339464902 0 1317398089339464902 imu_link 0 1 49.050322667541 8.3963522956251 112.33130645752 0.0 0.0 0.0 0.0 0.0 0.0 0.0 0.0 0.0 0
1317398089449558973 0 1317398089449558973 imu_link 0 1 49.05033087168 8.396349528438 112.32661437988 0.0 0.0 0.0 0.0 0.0 0.0 0.0 0.0 0.0 0
1317398089549647092 0 1317398089549647092 imu_link 0 1 49.050338117679 8.3963469895707 112.33184051514 0.0 0.0 0.0 0.0 0.0 0.0 0.0 0.0 0.0 0
1317398089659482955 0 1317398089659482955 imu_link 0 1 49.050345849786 8.396344260613 112.33118438721 0.0 0.0 0.0 0.0 0.0 0.0 0.0 0.0 0.0 0
1317398089759433984 0 1317398089759433984 imu_link 0 1 49.050352666033 8.3963417748835 112.33148956299 0.0 0.0 0.0 0.0 0.0 0.0 0.0 0.0 0.0 0
1317398089869589090 0 1317398089869589090 imu_link 0 1 49.050359913547 8.3963391148791 112.32707214355 0.0 0.0 0.0 0.0 0.0 0.0 0.0 0.0 0.0 0
1317398089969526052 0 1317398089969526052 imu_link 0 1 49.050366262139 8.3963367007456 112.32734680176 0.0 0.0 0.0 0.0 0.0 0.0 0.0 0.0 0.0 0
1317398090069453954 0 1317398090069453954 imu_link 0 1 49.05037236027 8.396334363624 112.32778167725 0.0 0.0 0.0 0.0 0.0 0.0 0.0 0.0 0.0 0
1317398090179425954 0 1317398090179425954 imu_link 0 1 49.050378793238 8.3963318761477 112.32640838623 0.0 0.0 0.0 0.0 0.0 0.0 0.0 0.0 0.0 0
1317398090279436111 0 1317398090279436111 imu_link 0 1 49.050384384042 8.3963296944509 112.32237243652 0.0 0.0 0.0 0.0 0.0 0.0 0.0 0.0 0.0 0
1317398090389451026 0 1317398090389451026 imu_link 0 1 49.050390251139 8.396327401567 112.32428741455 0.0 0.0 0.0 0.0 0.0 0.0 0.0 0.0 0.0 0
1317398090489729881 0 1317398090489729881 imu_link 0 1 49.050395337665 8.3963254023309 112.33013916016 0.0 0.0 0.0 0.0 0.0 0.0 0.0 0.0 0.0 0
1317398090589430093 0 1317398090589430093 imu_link 0 1 49.050400208645 8.3963234565602 112.33780670166 0.0 0.0 0.0 0.0 0.0 0.0 0.0 0.0 0.0 0
1317398090699426889 0 1317398090699426889 imu_link 0 1 49.050405371388 8.3963213840364 112.34987640381 0.0 0.0 0.0 0.0 0.0 0.0 0.0 0.0 0.0 0
1317398090799473047 0 1317398090799473047 imu_link 0 1 49.050409885783 8.3963196068965 112.35877990723 0.0 0.0 0.0 0.0 0.0 0.0 0.0 0.0 0.0 0
1317398090909435033 0 1317398090909435033 imu_link 0 1 49.050414649023 8.3963178067619 112.3659286499 0.0 0.0 0.0 0.0 0.0 0.0 0.0 0.0 0.0 0
1317398091009524106 0 1317398091009524106 imu_link 0 1 49.050418807756 8.3963162981719 112.37061309814 0.0 0.0 0.0 0.0 0.0 0.0 0.0 0.0 0.0 0
1317398091119411945 0 1317398091119411945 imu_link 0 1 49.050423203006 8.3963147396235 112.3811416626 0.0 0.0 0.0 0.0 0.0 0.0 0.0 0.0 0.0 0
1317398091219418048 0 1317398091219418048 imu_link 0 1 49.050427019655 8.3963134570896 112.38805389404 0.0 0.0 0.0 0.0 0.0 0.0 0.0 0.0 0.0 0
1317398091329417943 0 1317398091329417943 imu_link 0 1 49.050431078052 8.3963122002401 112.39762115479 0.0 0.0 0.0 0.0 0.0 0.0 0.0 0.0 0.0 0
1317398091429425001 0 1317398091429425001 imu_link 0 1 49.050434695304 8.3963111748758 112.40018463135 0.0 0.0 0.0 0.0 0.0 0.0 0.0 0.0 0.0 0
1317398091529438972 0 1317398091529438972 imu_link 0 1 49.050438268308 8.3963102543059 112.40509033203 0.0 0.0 0.0 0.0 0.0 0.0 0.0 0.0 0.0 0
1317398091639468908 0 1317398091639468908 imu_link 0 1 49.050442146635 8.3963094137648 112.40468597412 0.0 0.0 0.0 0.0 0.0 0.0 0.0 0.0 0.0 0
1317398091739422082 0 1317398091739422082 imu_link 0 1 49.05044563879 8.3963087931561 112.41181182861 0.0 0.0 0.0 0.0 0.0 0.0 0.0 0.0 0.0 0
1317398091849543094 0 1317398091849543094 imu_link 0 1 49.050449406149 8.3963082925308 112.41468048096 0.0 0.0 0.0 0.0 0.0 0.0 0.0 0.0 0.0 0
1317398091949455976 0 1317398091949455976 imu_link 0 1 49.050452800743 8.3963080035294 112.42023468018 0.0 0.0 0.0 0.0 0.0 0.0 0.0 0.0 0.0 0
1317398092059441089 0 1317398092059441089 imu_link 0 1 49.05045648558 8.3963078783904 112.4261932373 0.0 0.0 0.0 0.0 0.0 0.0 0.0 0.0 0.0 0
1317398092159377098 0 1317398092159377098 imu_link 0 1 49.05045981233 8.396307948443 112.43518829346 0.0 0.0 0.0 0.0 0.0 0.0 0.0 0.0 0.0 0
1317398092269391059 0 1317398092269391059 imu_link 0 1 49.050463412601 8.3963082472691 112.43952178955 0.0 0.0 0.0 0.0 0.0 0.0 0.0 0.0 0.0 0
1317398092369493961 0 1317398092369493961 imu_link 0 1 49.050466645466 8.3963086801877 112.44504547119 0.0 0.0 0.0 0.0 0.0 0.0 0.0 0.0 0.0 0
1317398092469645977 0 1317398092469645977 imu_link 0 1 49.050469834472 8.3963092813136 112.4462890625 0.0 0.0 0.0 0.0 0.0 0.0 0.0 0.0 0.0 0
1317398092579394102 0 1317398092579394102 imu_link 0 1 49.050473288406 8.3963101965398 112.44915008545 0.0 0.0 0.0 0.0 0.0 0.0 0.0 0.0 0.0 0
1317398092679374933 0 1317398092679374933 imu_link 0 1 49.050476367405 8.3963112912613 112.44998168945 0.0 0.0 0.0 0.0 0.0 0.0 0.0 0.0 0.0 0
1317398092789361000 0 1317398092789361000 imu_link 0 1 49.050479681289 8.3963127177012 112.4501953125 0.0 0.0 0.0 0.0 0.0 0.0 0.0 0.0 0.0 0
1317398092889386892 0 1317398092889386892 imu_link 0 1 49.05048262377 8.3963142373135 112.44919586182 0.0 0.0 0.0 0.0 0.0 0.0 0.0 0.0 0.0 0
1317398092999448060 0 1317398092999448060 imu_link 0 1 49.050485809415 8.3963161298972 112.44640350342 0.0 0.0 0.0 0.0 0.0 0.0 0.0 0.0 0.0 0
1317398093099374055 0 1317398093099374055 imu_link 0 1 49.050488678472 8.3963180465381 112.440574646 0.0 0.0 0.0 0.0 0.0 0.0 0.0 0.0 0.0 0
1317398093209357976 0 1317398093209357976 imu_link 0 1 49.050491814973 8.3963204154432 112.4288482666 0.0 0.0 0.0 0.0 0.0 0.0 0.0 0.0 0.0 0
1317398093309374094 0 1317398093309374094 imu_link 0 1 49.050494610835 8.3963228094265 112.41887664795 0.0 0.0 0.0 0.0 0.0 0.0 0.0 0.0 0.0 0
1317398093409389019 0 1317398093409389019 imu_link 0 1 49.050497317182 8.396325447524 112.41655731201 0.0 0.0 0.0 0.0 0.0 0.0 0.0 0.0 0.0 0
1317398093519603013 0 1317398093519603013 imu_link 0 1 49.050500179854 8.3963286953264 112.41724395752 0.0 0.0 0.0 0.0 0.0 0.0 0.0 0.0 0.0 0
1317398093619369983 0 1317398093619369983 imu_link 0 1 49.050502716805 8.3963318889595 112.41584777832 0.0 0.0 0.0 0.0 0.0 0.0 0.0 0.0 0.0 0
1317398093729367017 0 1317398093729367017 imu_link 0 1 49.050505406298 8.396335683534 112.41367340088 0.0 0.0 0.0 0.0 0.0 0.0 0.0 0.0 0.0 0
1317398093829355955 0 1317398093829355955 imu_link 0 1 49.0505077288 8.3963393843546 112.41463470459 0.0 0.0 0.0 0.0 0.0 0.0 0.0 0.0 0.0 0
1317398093939351081 0 1317398093939351081 imu_link 0 1 49.050510159259 8.3963437316495 112.41783905029 0.0 0.0 0.0 0.0 0.0 0.0 0.0 0.0 0.0 0
1317398094039438009 0 1317398094039438009 imu_link 0 1 49.050512275241 8.3963478980521 112.41847229004 0.0 0.0 0.0 0.0 0.0 0.0 0.0 0.0 0.0 0
1317398094139372110 0 1317398094139372110 imu_link 0 1 49.050514272775 8.3963522938889 112.41278076172 0.0 0.0 0.0 0.0 0.0 0.0 0.0 0.0 0.0 0
1317398094249499082 0 1317398094249499082 imu_link 0 1 49.05051632948 8.3963573930649 112.39937591553 0.0 0.0 0.0 0.0 0.0 0.0 0.0 0.0 0.0 0
1317398094349488973 0 1317398094349488973 imu_link 0 1 49.050518067077 8.3963622981935 112.39375305176 0.0 0.0 0.0 0.0 0.0 0.0 0.0 0.0 0.0 0
1317398094459561109 0 1317398094459561109 imu_link 0 1 49.050519798245 8.3963679907962 112.39371490479 0.0 0.0 0.0 0.0 0.0 0.0 0.0 0.0 0.0 0
1317398094559371948 0 1317398094559371948 imu_link 0 1 49.050521220017 8.396373431563 112.39368438721 0.0 0.0 0.0 0.0 0.0 0.0 0.0 0.0 0.0 0
1317398094669327974 0 1317398094669327974 imu_link 0 1 49.050522708211 8.3963796587966 112.39070892334 0.0 0.0 0.0 0.0 0.0 0.0 0.0 0.0 0.0 0
1317398094769328117 0 1317398094769328117 imu_link 0 1 49.050524031634 8.3963855579941 112.39571380615 0.0 0.0 0.0 0.0 0.0 0.0 0.0 0.0 0.0 0
1317398094869486093 0 1317398094869486093 imu_link 0 1 49.050525312104 8.3963917165125 112.39959716797 0.0 0.0 0.0 0.0 0.0 0.0 0.0 0.0 0.0 0
1317398094979481935 0 1317398094979481935 imu_link 0 1 49.050526633574 8.3963987760904 112.40369415283 0.0 0.0 0.0 0.0 0.0 0.0 0.0 0.0 0.0 0
1317398095079386949 0 1317398095079386949 imu_link 0 1 49.050527722241 8.3964054888945 112.41014099121 0.0 0.0 0.0 0.0 0.0 0.0 0.0 0.0 0.0 0
1317398095179339885 0 1317398095179339885 imu_link 0 1 49.050528689322 8.3964124661923 112.41377258301 0.0 0.0 0.0 0.0 0.0 0.0 0.0 0.0 0.0 0
1317398095289328098 0 1317398095289328098 imu_link 0 1 49.050529671665 8.3964204636343 112.41253662109 0.0 0.0 0.0 0.0 0.0 0.0 0.0 0.0 0.0 0
1317398095389322996 0 1317398095389322996 imu_link 0 1 49.050530589279 8.3964279952545 112.39837646484 0.0 0.0 0.0 0.0 0.0 0.0 0.0 0.0 0.0 0
1317398095499511957 0 1317398095499511957 imu_link 0 1 49.050531585688 8.3964365967292 112.38375854492 0.0 0.0 0.0 0.0 0.0 0.0 0.0 0.0 0.0 0
1317398095599435091 0 1317398095599435091 imu_link 0 1 49.050532408838 8.3964446882787 112.3794708252 0.0 0.0 0.0 0.0 0.0 0.0 0.0 0.0 0.0 0
1317398095699315071 0 1317398095699315071 imu_link 0 1 49.050533167109 8.3964530631136 112.38409423828 0.0 0.0 0.0 0.0 0.0 0.0 0.0 0.0 0.0 0
1317398095809330940 0 1317398095809330940 imu_link 0 1 49.050534048573 8.3964625033036 112.38433074951 0.0 0.0 0.0 0.0 0.0 0.0 0.0 0.0 0.0 0
1317398095909323930 0 1317398095909323930 imu_link 0 1 49.050534904761 8.3964713174065 112.38248443604 0.0 0.0 0.0 0.0 0.0 0.0 0.0 0.0 0.0 0
1317398096019680976 0 1317398096019680976 imu_link 0 1 49.050535918208 8.3964812440096 112.37958526611 0.0 0.0 0.0 0.0 0.0 0.0 0.0 0.0 0.0 0
1317398096119311094 0 1317398096119311094 imu_link 0 1 49.050536823353 8.3964904838337 112.3716506958 0.0 0.0 0.0 0.0 0.0 0.0 0.0 0.0 0.0 0
1317398096219324111 0 1317398096219324111 imu_link 0 1 49.050537746091 8.3964999187433 112.36672973633 0.0 0.0 0.0 0.0 0.0 0.0 0.0 0.0 0.0 0
1317398096329293966 0 1317398096329293966 imu_link 0 1 49.050538786544 8.3965105096274 112.36618804932 0.0 0.0 0.0 0.0 0.0 0.0 0.0 0.0 0.0 0
1317398096429306030 0 1317398096429306030 imu_link 0 1 49.050539807646 8.396520325952 112.37026977539 0.0 0.0 0.0 0.0 0.0 0.0 0.0 0.0 0.0 0
1317398096539365053 0 1317398096539365053 imu_link 0 1 49.050540934165 8.3965312903682 112.37623596191 0.0 0.0 0.0 0.0 0.0 0.0 0.0 0.0 0.0 0
1317398096639317035 0 1317398096639317035 imu_link 0 1 49.050541960826 8.3965413820973 112.38275146484 0.0 0.0 0.0 0.0 0.0 0.0 0.0 0.0 0.0 0
1317398096739305973 0 1317398096739305973 imu_link 0 1 49.050542984508 8.3965515370308 112.38763427734 0.0 0.0 0.0 0.0 0.0 0.0 0.0 0.0 0.0 0
1317398096849419116 0 1317398096849419116 imu_link 0 1 49.050544093649 8.3965628169114 112.38893127441 0.0 0.0 0.0 0.0 0.0 0.0 0.0 0.0 0.0 0
1317398096949486970 0 1317398096949486970 imu_link 0 1 49.050545088326 8.3965732025808 112.3893661499 0.0 0.0 0.0 0.0 0.0 0.0 0.0 0.0 0.0 0
1317398097059369087 0 1317398097059369087 imu_link 0 1 49.05054617584 8.3965847509361 112.38961791992 0.0 0.0 0.0 0.0 0.0 0.0 0.0 0.0 0.0 0
1317398097159342050 0 1317398097159342050 imu_link 0 1 49.050547208903 8.3965953584635 112.39136505127 0.0 0.0 0.0 0.0 0.0 0.0 0.0 0.0 0.0 0
1317398097259280920 0 1317398097259280920 imu_link 0 1 49.050548258268 8.3966060491845 112.38349151611 0.0 0.0 0.0 0.0 0.0 0.0 0.0 0.0 0.0 0
1317398097369410991 0 1317398097369410991 imu_link 0 1 49.050549420927 8.3966178963431 112.37648010254 0.0 0.0 0.0 0.0 0.0 0.0 0.0 0.0 0.0 0
1317398097469369888 0 1317398097469369888 imu_link 0 1 49.050550495773 8.3966287282577 112.37669372559 0.0 0.0 0.0 0.0 0.0 0.0 0.0 0.0 0.0 0
1317398097579299926 0 1317398097579299926 imu_link 0 1 49.050551724334 8.3966407080039 112.38296508789 0.0 0.0 0.0 0.0 0.0 0.0 0.0 0.0 0.0 0
1317398097679285049 0 1317398097679285049 imu_link 0 1 49.050552869891 8.3966516129625 112.39365386963 0.0 0.0 0.0 0.0 0.0 0.0 0.0 0.0 0.0 0
1317398097789282083 0 1317398097789282083 imu_link 0 1 49.050554060746 8.3966636299817 112.4035949707 0.0 0.0 0.0 0.0 0.0 0.0 0.0 0.0 0.0 0
1317398097889281988 0 1317398097889281988 imu_link 0 1 49.050555179083 8.3966745747255 112.40797424316 0.0 0.0 0.0 0.0 0.0 0.0 0.0 0.0 0.0 0
1317398097989392042 0 1317398097989392042 imu_link 0 1 49.050556286458 8.3966854837049 112.4100112915 0.0 0.0 0.0 0.0 0.0 0.0 0.0 0.0 0.0 0
1317398098099277973 0 1317398098099277973 imu_link 0 1 49.050557451997 8.3966974161241 112.40976715088 0.0 0.0 0.0 0.0 0.0 0.0 0.0 0.0 0.0 0
1317398098199254989 0 1317398098199254989 imu_link 0 1 49.050558462379 8.3967082230605 112.39967346191 0.0 0.0 0.0 0.0 0.0 0.0 0.0 0.0 0.0 0
1317398098309254884 0 1317398098309254884 imu_link 0 1 49.050559593593 8.3967200785333 112.39842987061 0.0 0.0 0.0 0.0 0.0 0.0 0.0 0.0 0.0 0
1317398098409276962 0 1317398098409276962 imu_link 0 1 49.050560621111 8.3967308594947 112.41499328613 0.0 0.0 0.0 0.0 0.0 0.0 0.0 0.0 0.0 0
1317398098509313106 0 1317398098509313106 imu_link 0 1 49.050561643838 8.3967416108937 112.43504333496 0.0 0.0 0.0 0.0 0.0 0.0 0.0 0.0 0.0 0
1317398098619259119 0 1317398098619259119 imu_link 0 1 49.05056275887 8.3967533346588 112.44532775879 0.0 0.0 0.0 0.0 0.0 0.0 0.0 0.0 0.0 0
1317398098719317913 0 1317398098719317913 imu_link 0 1 49.050563793692 8.3967639390611 112.44825744629 0.0 0.0 0.0 0.0 0.0 0.0 0.0 0.0 0.0 0
1317398098829262018 0 1317398098829262018 imu_link 0 1 49.050564942348 8.3967755461664 112.45004272461 0.0 0.0 0.0 0.0 0.0 0.0 0.0 0.0 0.0 0
1317398098929244041 0 1317398098929244041 imu_link 0 1 49.050565974955 8.3967860651215 112.4514465332 0.0 0.0 0.0 0.0 0.0 0.0 0.0 0.0 0.0 0
1317398099039243936 0 1317398099039243936 imu_link 0 1 49.050567084965 8.3967975798914 112.45664978027 0.0 0.0 0.0 0.0 0.0 0.0 0.0 0.0 0.0 0
1317398099139250993 0 1317398099139250993 imu_link 0 1 49.050568098209 8.3968080049702 112.4616394043 0.0 0.0 0.0 0.0 0.0 0.0 0.0 0.0 0.0 0
1317398099239223003 0 1317398099239223003 imu_link 0 1 49.050569110321 8.3968183802312 112.46474456787 0.0 0.0 0.0 0.0 0.0 0.0 0.0 0.0 0.0 0
1317398099349289894 0 1317398099349289894 imu_link 0 1 49.05057021302 8.396829761372 112.46685028076 0.0 0.0 0.0 0.0 0.0 0.0 0.0 0.0 0.0 0
1317398099449373960 0 1317398099449373960 imu_link 0 1 49.050571195636 8.3968400586157 112.47565460205 0.0 0.0 0.0 0.0 0.0 0.0 0.0 0.0 0.0 0
1317398099559281110 0 1317398099559281110 imu_link 0 1 49.050572224774 8.3968512719006 112.48241424561 0.0 0.0 0.0 0.0 0.0 0.0 0.0 0.0 0.0 0
1317398099659173965 0 1317398099659173965 imu_link 0 1 49.050573139106 8.3968614275274 112.48677062988 0.0 0.0 0.0 0.0 0.0 0.0 0.0 0.0 0.0 0
1317398099769251108 0 1317398099769251108 imu_link 0 1 49.050574095014 8.3968725470841 112.49053955078 0.0 0.0 0.0 0.0 0.0 0.0 0.0 0.0 0.0 0
1317398099869374036 0 1317398099869374036 imu_link 0 1 49.050574950316 8.3968826157274 112.49784851074 0.0 0.0 0.0 0.0 0.0 0.0 0.0 0.0 0.0 0
1317398099969331979 0 1317398099969331979 imu_link 0 1 49.050575788982 8.3968926258458 112.50621795654 0.0 0.0 0.0 0.0 0.0 0.0 0.0 0.0 0.0 0
1317398100079255104 0 1317398100079255104 imu_link 0 1 49.050576727548 8.3969035758699 112.51415252686 0.0 0.0 0.0 0.0 0.0 0.0 0.0 0.0 0.0 0
1317398100179215908 0 1317398100179215908 imu_link 0 1 49.050577577766 8.3969133611689 112.51992797852 0.0 0.0 0.0 0.0 0.0 0.0 0.0 0.0 0.0 0
1317398100289216995 0 1317398100289216995 imu_link 0 1 49.050578479201 8.3969238803073 112.52227020264 0.0 0.0 0.0 0.0 0.0 0.0 0.0 0.0 0.0 0
1317398100389209985 0 1317398100389209985 imu_link 0 1 49.050579281686 8.3969332074045 112.52577972412 0.0 0.0 0.0 0.0 0.0 0.0 0.0 0.0 0.0 0
1317398100499327898 0 1317398100499327898 imu_link 0 1 49.050580146256 8.3969433611969 112.52777862549 0.0 0.0 0.0 0.0 0.0 0.0 0.0 0.0 0.0 0
1317398100599149942 0 1317398100599149942 imu_link 0 1 49.050580913007 8.3969525239912 112.52979278564 0.0 0.0 0.0 0.0 0.0 0.0 0.0 0.0 0.0 0
1317398100699223995 0 1317398100699223995 imu_link 0 1 49.05058168936 8.3969616446154 112.53207397461 0.0 0.0 0.0 0.0 0.0 0.0 0.0 0.0 0.0 0
1317398100809225082 0 1317398100809225082 imu_link 0 1 49.050582533734 8.3969716396968 112.53764343262 0.0 0.0 0.0 0.0 0.0 0.0 0.0 0.0 0.0 0
1317398100909200906 0 1317398100909200906 imu_link 0 1 49.050583274968 8.3969806912677 112.54279327393 0.0 0.0 0.0 0.0 0.0 0.0 0.0 0.0 0.0 0
1317398101019558906 0 1317398101019558906 imu_link 0 1 49.050584097402 8.3969906174486 112.54753112793 0.0 0.0 0.0 0.0 0.0 0.0 0.0 0.0 0.0 0
1317398101119256019 0 1317398101119256019 imu_link 0 1 49.050584861789 8.3969995449223 112.54836273193 0.0 0.0 0.0 0.0 0.0 0.0 0.0 0.0 0.0 0
1317398101229166030 0 1317398101229166030 imu_link 0 1 49.050585697981 8.3970093142704 112.55221557617 0.0 0.0 0.0 0.0 0.0 0.0 0.0 0.0 0.0 0
1317398101329197883 0 1317398101329197883 imu_link 0 1 49.050586415273 8.3970181502684 112.55596923828 0.0 0.0 0.0 0.0 0.0 0.0 0.0 0.0 0.0 0
1317398101429162025 0 1317398101429162025 imu_link 0 1 49.050587123167 8.3970269437428 112.55773162842 0.0 0.0 0.0 0.0 0.0 0.0 0.0 0.0 0.0 0
1317398101539228916 0 1317398101539228916 imu_link 0 1 49.050587934745 8.3970365602408 112.56079864502 0.0 0.0 0.0 0.0 0.0 0.0 0.0 0.0 0.0 0
1317398101639157056 0 1317398101639157056 imu_link 0 1 49.050588671072 8.3970452721581 112.56420898438 0.0 0.0 0.0 0.0 0.0 0.0 0.0 0.0 0.0 0
1317398101749133110 0 1317398101749133110 imu_link 0 1 49.050589378766 8.3970548269507 112.56296539307 0.0 0.0 0.0 0.0 0.0 0.0 0.0 0.0 0.0 0
1317398101849288940 0 1317398101849288940 imu_link 0 1 49.050589965547 8.3970635633513 112.56159973145 0.0 0.0 0.0 0.0 0.0 0.0 0.0 0.0 0.0 0
1317398101959369897 0 1317398101959369897 imu_link 0 1 49.050590622534 8.3970732392119 112.56296539307 0.0 0.0 0.0 0.0 0.0 0.0 0.0 0.0 0.0 0
1317398102059179067 0 1317398102059179067 imu_link 0 1 49.050591201094 8.3970821085371 112.56701660156 0.0 0.0 0.0 0.0 0.0 0.0 0.0 0.0 0.0 0
1317398102159178972 0 1317398102159178972 imu_link 0 1 49.050591708288 8.3970910237544 112.57564544678 0.0 0.0 0.0 0.0 0.0 0.0 0.0 0.0 0.0 0
1317398102269167900 0 1317398102269167900 imu_link 0 1 49.050592215273 8.3971008913609 112.58198547363 0.0 0.0 0.0 0.0 0.0 0.0 0.0 0.0 0.0 0
1317398102369322061 0 1317398102369322061 imu_link 0 1 49.05059268102 8.39710995581 112.58511352539 0.0 0.0 0.0 0.0 0.0 0.0 0.0 0.0 0.0 0
1317398102479320049 0 1317398102479320049 imu_link 0 1 49.050593166078 8.3971200828412 112.59155273438 0.0 0.0 0.0 0.0 0.0 0.0 0.0 0.0 0.0 0
1317398102579169034 0 1317398102579169034 imu_link 0 1 49.050593582464 8.3971294000844 112.59867858887 0.0 0.0 0.0 0.0 0.0 0.0 0.0 0.0 0.0 0
1317398102689168930 0 1317398102689168930 imu_link 0 1 49.050594086885 8.3971398677445 112.60385894775 0.0 0.0 0.0 0.0 0.0 0.0 0.0 0.0 0.0 0
1317398102789171934 0 1317398102789171934 imu_link 0 1 49.050594544454 8.3971494480942 112.60106658936 0.0 0.0 0.0 0.0 0.0 0.0 0.0 0.0 0.0 0
1317398102889163970 0 1317398102889163970 imu_link 0 1 49.050594963991 8.397159099655 112.5958480835 0.0 0.0 0.0 0.0 0.0 0.0 0.0 0.0 0.0 0
1317398102999439954 0 1317398102999439954 imu_link 0 1 49.050595390123 8.3971698242081 112.59352874756 0.0 0.0 0.0 0.0 0.0 0.0 0.0 0.0 0.0 0
1317398103099160909 0 1317398103099160909 imu_link 0 1 49.050595759812 8.3971796269763 112.59396362305 0.0 0.0 0.0 0.0 0.0 0.0 0.0 0.0 0.0 0
1317398103209153890 0 1317398103209153890 imu_link 0 1 49.05059620782 8.3971904713084 112.59439086914 0.0 0.0 0.0 0.0 0.0 0.0 0.0 0.0 0.0 0
1317398103309153079 0 1317398103309153079 imu_link 0 1 49.050596644518 8.3972003377463 112.60003662109 0.0 0.0 0.0 0.0 0.0 0.0 0.0 0.0 0.0 0
1317398103409131050 0 1317398103409131050 imu_link 0 1 49.05059706669 8.3972102113979 112.60968780518 0.0 0.0 0.0 0.0 0.0 0.0 0.0 0.0 0.0 0
1317398103519362926 0 1317398103519362926 imu_link 0 1 49.050597593157 8.3972210318811 112.68074035645 0.0 0.0 0.0 0.0 0.0 0.0 0.0 0.0 0.0 0
1317398103619149923 0 1317398103619149923 imu_link 0 1 49.050598168093 8.3972308552651 112.79052734375 0.0 0.0 0.0 0.0 0.0 0.0 0.0 0.0 0.0 0
1317398103729150056 0 1317398103729150056 imu_link 0 1 49.050598735089 8.3972416157171 112.85753631592 0.0 0.0 0.0 0.0 0.0 0.0 0.0 0.0 0.0 0
1317398103829152107 0 1317398103829152107 imu_link 0 1 49.050599252476 8.3972514022137 112.93209075928 0.0 0.0 0.0 0.0 0.0 0.0 0.0 0.0 0.0 0
1317398103939141035 0 1317398103939141035 imu_link 0 1 49.050599733425 8.3972621575021 112.98156738281 0.0 0.0 0.0 0.0 0.0 0.0 0.0 0.0 0.0 0
1317398104039166927 0 1317398104039166927 imu_link 0 1 49.050600153902 8.397272027024 113.03666687012 0.0 0.0 0.0 0.0 0.0 0.0 0.0 0.0 0.0 0
1317398104139143943 0 1317398104139143943 imu_link 0 1 49.050600566723 8.3972819359328 113.07186126709 0.0 0.0 0.0 0.0 0.0 0.0 0.0 0.0 0.0 0
1317398104249313116 0 1317398104249313116 imu_link 0 1 49.05060103111 8.397292895469 113.1092300415 0.0 0.0 0.0 0.0 0.0 0.0 0.0 0.0 0.0 0
1317398104349144935 0 1317398104349144935 imu_link 0 1 49.05060141769 8.3973028920604 113.13444519043 0.0 0.0 0.0 0.0 0.0 0.0 0.0 0.0 0.0 0
1317398104459327936 0 1317398104459327936 imu_link 0 1 49.050601861878 8.397313965273 113.16404724121 0.0 0.0 0.0 0.0 0.0 0.0 0.0 0.0 0.0 0
1317398104559192895 0 1317398104559192895 imu_link 0 1 49.050602261153 8.3973240676119 113.1820526123 0.0 0.0 0.0 0.0 0.0 0.0 0.0 0.0 0.0 0
1317398104669109106 0 1317398104669109106 imu_link 0 1 49.050602687839 8.3973352644175 113.20649719238 0.0 0.0 0.0 0.0 0.0 0.0 0.0 0.0 0.0 0
1317398104769134044 0 1317398104769134044 imu_link 0 1 49.050603045065 8.3973455187264 113.22411346436 0.0 0.0 0.0 0.0 0.0 0.0 0.0 0.0 0.0 0
1317398104869278907 0 1317398104869278907 imu_link 0 1 49.050603420519 8.3973558464157 113.23821258545 0.0 0.0 0.0 0.0 0.0 0.0 0.0 0.0 0.0 0
1317398104979387044 0 1317398104979387044 imu_link 0 1 49.050603803682 8.3973672864982 113.25453948975 0.0 0.0 0.0 0.0 0.0 0.0 0.0 0.0 0.0 0
1317398105079202890 0 1317398105079202890 imu_link 0 1 49.05060412427 8.3973777390724 113.26188659668 0.0 0.0 0.0 0.0 0.0 0.0 0.0 0.0 0.0 0
1317398105189122915 0 1317398105189122915 imu_link 0 1 49.050604498427 8.3973893316435 113.26356506348 0.0 0.0 0.0 0.0 0.0 0.0 0.0 0.0 0.0 0
1317398105289130926 0 1317398105289130926 imu_link 0 1 49.050604803557 8.397399939823 113.26462554932 0.0 0.0 0.0 0.0 0.0 0.0 0.0 0.0 0.0 0
1317398105399110078 0 1317398105399110078 imu_link 0 1 49.050605100331 8.3974116851788 113.26918029785 0.0 0.0 0.0 0.0 0.0 0.0 0.0 0.0 0.0 0
1317398105499269008 0 1317398105499269008 imu_link 0 1 49.050605379767 8.3974224462879 113.27177429199 0.0 0.0 0.0 0.0 0.0 0.0 0.0 0.0 0.0 0
1317398105599109888 0 1317398105599109888 imu_link 0 1 49.050605656185 8.3974332810131 113.27973937988 0.0 0.0 0.0 0.0 0.0 0.0 0.0 0.0 0.0 0
1317398105709105968 0 1317398105709105968 imu_link 0 1 49.050605933205 8.3974452960579 113.29306793213 0.0 0.0 0.0 0.0 0.0 0.0 0.0 0.0 0.0 0
1317398105809119939 0 1317398105809119939 imu_link 0 1 49.050606224278 8.3974562905456 113.30534362793 0.0 0.0 0.0 0.0 0.0 0.0 0.0 0.0 0.0 0
1317398105919178009 0 1317398105919178009 imu_link 0 1 49.050606564024 8.3974684430778 113.31211090088 0.0 0.0 0.0 0.0 0.0 0.0 0.0 0.0 0.0 0
1317398106019401073 0 1317398106019401073 imu_link 0 1 49.050606867004 8.3974795519869 113.31980895996 0.0 0.0 0.0 0.0 0.0 0.0 0.0 0.0 0.0 0
1317398106129113912 0 1317398106129113912 imu_link 0 1 49.050607192143 8.3974918386043 113.32769012451 0.0 0.0 0.0 0.0 0.0 0.0 0.0 0.0 0.0 0
1317398106229084968 0 1317398106229084968 imu_link 0 1 49.050607503624 8.397503054944 113.33380126953 0.0 0.0 0.0 0.0 0.0 0.0 0.0 0.0 0.0 0
1317398106329097032 0 1317398106329097032 imu_link 0 1 49.050607838696 8.3975142882526 113.34042358398 0.0 0.0 0.0 0.0 0.0 0.0 0.0 0.0 0.0 0
1317398106439047098 0 1317398106439047098 imu_link 0 1 49.050608212834 8.3975266567591 113.34680938721 0.0 0.0 0.0 0.0 0.0 0.0 0.0 0.0 0.0 0
1317398106539124965 0 1317398106539124965 imu_link 0 1 49.050608556349 8.3975379308766 113.34622192383 0.0 0.0 0.0 0.0 0.0 0.0 0.0 0.0 0.0 0
1317398106649281024 0 1317398106649281024 imu_link 0 1 49.050608994011 8.3975503716182 113.34878540039 0.0 0.0 0.0 0.0 0.0 0.0 0.0 0.0 0.0 0
1317398106749234914 0 1317398106749234914 imu_link 0 1 49.05060939535 8.3975617310621 113.36284637451 0.0 0.0 0.0 0.0 0.0 0.0 0.0 0.0 0.0 0
1317398106859083890 0 1317398106859083890 imu_link 0 1 49.050609839896 8.3975742671374 113.37965393066 0.0 0.0 0.0 0.0 0.0 0.0 0.0 0.0 0.0 0
1317398106959142923 0 1317398106959142923 imu_link 0 1 49.050610242342 8.3975856733033 113.39017486572 0.0 0.0 0.0 0.0 0.0 0.0 0.0 0.0 0.0 0
1317398107059170007 0 1317398107059170007 imu_link 0 1 49.050610647654 8.3975970710045 113.3980255127 0.0 0.0 0.0 0.0 0.0 0.0 0.0 0.0 0.0 0
1317398107169044971 0 1317398107169044971 imu_link 0 1 49.050611102331 8.3976096164515 113.40711212158 0.0 0.0 0.0 0.0 0.0 0.0 0.0 0.0 0.0 0
1317398107269088029 0 1317398107269088029 imu_link 0 1 49.05061150957 8.3976210162592 113.4161529541 0.0 0.0 0.0 0.0 0.0 0.0 0.0 0.0 0.0 0
1317398107379023075 0 1317398107379023075 imu_link 0 1 49.05061193694 8.3976335354092 113.42669677734 0.0 0.0 0.0 0.0 0.0 0.0 0.0 0.0 0.0 0
1317398107479310989 0 1317398107479310989 imu_link 0 1 49.050612344853 8.3976448743955 113.43243408203 0.0 0.0 0.0 0.0 0.0 0.0 0.0 0.0 0.0 0
1317398107589067935 0 1317398107589067935 imu_link 0 1 49.050612782913 8.3976573088808 113.43796539307 0.0 0.0 0.0 0.0 0.0 0.0 0.0 0.0 0.0 0
1317398107689070940 0 1317398107689070940 imu_link 0 1 49.050613200287 8.39766858537 113.44236755371 0.0 0.0 0.0 0.0 0.0 0.0 0.0 0.0 0.0 0
1317398107789052963 0 1317398107789052963 imu_link 0 1 49.050613639442 8.397679825688 113.4535446167 0.0 0.0 0.0 0.0 0.0 0.0 0.0 0.0 0.0 0
1317398107899063110 0 1317398107899063110 imu_link 0 1 49.050614140388 8.3976921403538 113.46675872803 0.0 0.0 0.0 0.0 0.0 0.0 0.0 0.0 0.0 0
1317398107999245882 0 1317398107999245882 imu_link 0 1 49.050614593796 8.3977032607369 113.47380828857 0.0 0.0 0.0 0.0 0.0 0.0 0.0 0.0 0.0 0
1317398108109056949 0 1317398108109056949 imu_link 0 1 49.050615088124 8.397715425576 113.47454833984 0.0 0.0 0.0 0.0 0.0 0.0 0.0 0.0 0.0 0
1317398108209053039 0 1317398108209053039 imu_link 0 1 49.050615509889 8.3977264290361 113.47831726074 0.0 0.0 0.0 0.0 0.0 0.0 0.0 0.0 0.0 0
1317398108309101104 0 1317398108309101104 imu_link 0 1 49.050615916526 8.3977373888876 113.48960876465 0.0 0.0 0.0 0.0 0.0 0.0 0.0 0.0 0.0 0
1317398108419037103 0 1317398108419037103 imu_link 0 1 49.050616340975 8.3977493804633 113.50640106201 0.0 0.0 0.0 0.0 0.0 0.0 0.0 0.0 0.0 0
1317398108519258975 0 1317398108519258975 imu_link 0 1 49.05061672507 8.3977602170827 113.51950836182 0.0 0.0 0.0 0.0 0.0 0.0 0.0 0.0 0.0 0
1317398108629050016 0 1317398108629050016 imu_link 0 1 49.050617131775 8.397772058357 113.53184509277 0.0 0.0 0.0 0.0 0.0 0.0 0.0 0.0 0.0 0
1317398108729065895 0 1317398108729065895 imu_link 0 1 49.050617504899 8.3977827608607 113.54441833496 0.0 0.0 0.0 0.0 0.0 0.0 0.0 0.0 0.0 0
1317398108838996887 0 1317398108838996887 imu_link 0 1 49.050617923004 8.3977944659629 113.55860900879 0.0 0.0 0.0 0.0 0.0 0.0 0.0 0.0 0.0 0
1317398108939059019 0 1317398108939059019 imu_link 0 1 49.050618300758 8.3978050381211 113.57466125488 0.0 0.0 0.0 0.0 0.0 0.0 0.0 0.0 0.0 0
1317398109039114952 0 1317398109039114952 imu_link 0 1 49.050618658281 8.3978155353444 113.59050750732 0.0 0.0 0.0 0.0 0.0 0.0 0.0 0.0 0.0 0
1317398109149022102 0 1317398109149022102 imu_link 0 1 49.050619027163 8.3978269980978 113.60263061523 0.0 0.0 0.0 0.0 0.0 0.0 0.0 0.0 0.0 0
1317398109249120950 0 1317398109249120950 imu_link 0 1 49.050619349105 8.3978373703216 113.61479187012 0.0 0.0 0.0 0.0 0.0 0.0 0.0 0.0 0.0 0
1317398109359025955 0 1317398109359025955 imu_link 0 1 49.050619675904 8.3978487221708 113.63222503662 0.0 0.0 0.0 0.0 0.0 0.0 0.0 0.0 0.0 0
1317398109459209918 0 1317398109459209918 imu_link 0 1 49.050619945893 8.3978589943416 113.65000152588 0.0 0.0 0.0 0.0 0.0 0.0 0.0 0.0 0.0 0
1317398109569066047 0 1317398109569066047 imu_link 0 1 49.050620215688 8.3978702493952 113.66520690918 0.0 0.0 0.0 0.0 0.0 0.0 0.0 0.0 0.0 0
1317398109669011116 0 1317398109669011116 imu_link 0 1 49.050620467579 8.3978804282237 113.67818450928 0.0 0.0 0.0 0.0 0.0 0.0 0.0 0.0 0.0 0
1317398109769007921 0 1317398109769007921 imu_link 0 1 49.050620700487 8.3978905601493 113.69240570068 0.0 0.0 0.0 0.0 0.0 0.0 0.0 0.0 0.0 0
1317398109879070997 0 1317398109879070997 imu_link 0 1 49.050620892214 8.3979017062679 113.70930480957 0.0 0.0 0.0 0.0 0.0 0.0 0.0 0.0 0.0 0
1317398109979218006 0 1317398109979218006 imu_link 0 1 49.050621029897 8.3979118276219 113.72952270508 0.0 0.0 0.0 0.0 0.0 0.0 0.0 0.0 0.0 0
1317398110089014053 0 1317398110089014053 imu_link 0 1 49.050621220534 8.3979229440158 113.76420593262 0.0 0.0 0.0 0.0 0.0 0.0 0.0 0.0 0.0 0
1317398110188988924 0 1317398110188988924 imu_link 0 1 49.050621356493 8.397932991323 113.78998565674 0.0 0.0 0.0 0.0 0.0 0.0 0.0 0.0 0.0 0
1317398110299017906 0 1317398110299017906 imu_link 0 1 49.050621447448 8.3979440051945 113.80718231201 0.0 0.0 0.0 0.0 0.0 0.0 0.0 0.0 0.0 0
1317398110398986101 0 1317398110398986101 imu_link 0 1 49.050621568437 8.397953969956 113.81900024414 0.0 0.0 0.0 0.0 0.0 0.0 0.0 0.0 0.0 0
1317398110499128103 0 1317398110499128103 imu_link 0 1 49.050621693223 8.3979639021978 113.83620452881 0.0 0.0 0.0 0.0 0.0 0.0 0.0 0.0 0.0 0
1317398110608995914 0 1317398110608995914 imu_link 0 1 49.050621774322 8.3979747690467 113.85858154297 0.0 0.0 0.0 0.0 0.0 0.0 0.0 0.0 0.0 0
1317398110709005117 0 1317398110709005117 imu_link 0 1 49.050621843512 8.3979846167511 113.87705993652 0.0 0.0 0.0 0.0 0.0 0.0 0.0 0.0 0.0 0
1317398110818979978 0 1317398110818979978 imu_link 0 1 49.050621946757 8.3979954187584 113.89762115479 0.0 0.0 0.0 0.0 0.0 0.0 0.0 0.0 0.0 0
1317398110918993949 0 1317398110918993949 imu_link 0 1 49.050621975028 8.3980052014035 113.92712402344 0.0 0.0 0.0 0.0 0.0 0.0 0.0 0.0 0.0 0
1317398111029184103 0 1317398111029184103 imu_link 0 1 49.050621957746 8.3980159507431 113.96299743652 0.0 0.0 0.0 0.0 0.0 0.0 0.0 0.0 0.0 0
1317398111128999948 0 1317398111128999948 imu_link 0 1 49.050621920125 8.3980256847158 113.99198150635 0.0 0.0 0.0 0.0 0.0 0.0 0.0 0.0 0.0 0
1317398111228981971 0 1317398111228981971 imu_link 0 1 49.050621870983 8.3980353787515 114.01882171631 0.0 0.0 0.0 0.0 0.0 0.0 0.0 0.0 0.0 0
1317398111339011907 0 1317398111339011907 imu_link 0 1 49.050621779661 8.3980459975547 114.04508209229 0.0 0.0 0.0 0.0 0.0 0.0 0.0 0.0 0.0 0
1317398111439091920 0 1317398111439091920 imu_link 0 1 49.050621644052 8.3980556253295 114.06894683838 0.0 0.0 0.0 0.0 0.0 0.0 0.0 0.0 0.0 0
1317398111549127101 0 1317398111549127101 imu_link 0 1 49.05062139719 8.3980661845438 114.09473419189 0.0 0.0 0.0 0.0 0.0 0.0 0.0 0.0 0.0 0
1317398111649096965 0 1317398111649096965 imu_link 0 1 49.050621106267 8.3980757616804 114.11879730225 0.0 0.0 0.0 0.0 0.0 0.0 0.0 0.0 0.0 0
1317398111758955001 0 1317398111758955001 imu_link 0 1 49.050620676409 8.398086260216 114.14653015137 0.0 0.0 0.0 0.0 0.0 0.0 0.0 0.0 0.0 0
1317398111859013080 0 1317398111859013080 imu_link 0 1 49.050620210403 8.3980957830392 114.17240142822 0.0 0.0 0.0 0.0 0.0 0.0 0.0 0.0 0.0 0
1317398111959144115 0 1317398111959144115 imu_link 0 1 49.050619671543 8.3981052751738 114.19747161865 0.0 0.0 0.0 0.0 0.0 0.0 0.0 0.0 0.0 0
1317398112069015026 0 1317398112069015026 imu_link 0 1 49.050618981857 8.3981156732303 114.22727203369 0.0 0.0 0.0 0.0 0.0 0.0 0.0 0.0 0.0 0
1317398112168961048 0 1317398112168961048 imu_link 0 1 49.050618280999 8.3981250844105 114.25308227539 0.0 0.0 0.0 0.0 0.0 0.0 0.0 0.0 0.0 0
1317398112279045104 0 1317398112279045104 imu_link 0 1 49.050617503087 8.3981353844277 114.27977752686 0.0 0.0 0.0 0.0 0.0 0.0 0.0 0.0 0.0 0
1317398112378962039 0 1317398112378962039 imu_link 0 1 49.050616745583 8.3981447182995 114.30345916748 0.0 0.0 0.0 0.0 0.0 0.0 0.0 0.0 0.0 0
1317398112489134073 0 1317398112489134073 imu_link 0 1 49.050615830712 8.3981549140705 114.33310699463 0.0 0.0 0.0 0.0 0.0 0.0 0.0 0.0 0.0 0
1317398112588917016 0 1317398112588917016 imu_link 0 1 49.050614969188 8.3981641137915 114.35956573486 0.0 0.0 0.0 0.0 0.0 0.0 0.0 0.0 0.0 0
1317398112688978910 0 1317398112688978910 imu_link 0 1 49.050614159964 8.3981732795267 114.38382720947 0.0 0.0 0.0 0.0 0.0 0.0 0.0 0.0 0.0 0
1317398112798954010 0 1317398112798954010 imu_link 0 1 49.050613260893 8.3981832605154 114.39863586426 0.0 0.0 0.0 0.0 0.0 0.0 0.0 0.0 0.0 0
1317398112898983955 0 1317398112898983955 imu_link 0 1 49.050612468885 8.398192287227 114.4109954834 0.0 0.0 0.0 0.0 0.0 0.0 0.0 0.0 0.0 0
1317398113009196043 0 1317398113009196043 imu_link 0 1 49.050611590255 8.3982021675005 114.43165588379 0.0 0.0 0.0 0.0 0.0 0.0 0.0 0.0 0.0 0
1317398113108952999 0 1317398113108952999 imu_link 0 1 49.050610787467 8.3982110841038 114.4515838623 0.0 0.0 0.0 0.0 0.0 0.0 0.0 0.0 0.0 0
1317398113218939065 0 1317398113218939065 imu_link 0 1 49.050609913447 8.3982208104952 114.4829864502 0.0 0.0 0.0 0.0 0.0 0.0 0.0 0.0 0.0 0
1317398113318962097 0 1317398113318962097 imu_link 0 1 49.050609176089 8.3982295776762 114.50421142578 0.0 0.0 0.0 0.0 0.0 0.0 0.0 0.0 0.0 0
1317398113418941020 0 1317398113418941020 imu_link 0 1 49.050608443632 8.3982382691808 114.51880645752 0.0 0.0 0.0 0.0 0.0 0.0 0.0 0.0 0.0 0
1317398113529006004 0 1317398113529006004 imu_link 0 1 49.050607628393 8.3982477556476 114.53935241699 0.0 0.0 0.0 0.0 0.0 0.0 0.0 0.0 0.0 0
1317398113628945112 0 1317398113628945112 imu_link 0 1 49.050606924315 8.3982563131935 114.5608215332 0.0 0.0 0.0 0.0 0.0 0.0 0.0 0.0 0.0 0
1317398113738946914 0 1317398113738946914 imu_link 0 1 49.050606175722 8.3982656559082 114.58759307861 0.0 0.0 0.0 0.0 0.0 0.0 0.0 0.0 0.0 0
1317398113839015960 0 1317398113839015960 imu_link 0 1 49.050605541255 8.3982740821232 114.610206604 0.0 0.0 0.0 0.0 0.0 0.0 0.0 0.0 0.0 0
1317398113938957929 0 1317398113938957929 imu_link 0 1 49.050604943974 8.3982824426356 114.63126373291 0.0 0.0 0.0 0.0 0.0 0.0 0.0 0.0 0.0 0
1317398114049021005 0 1317398114049021005 imu_link 0 1 49.050604320451 8.3982915791867 114.65096282959 0.0 0.0 0.0 0.0 0.0 0.0 0.0 0.0 0.0 0
1317398114148957967 0 1317398114148957967 imu_link 0 1 49.05060374882 8.3982998408702 114.66926574707 0.0 0.0 0.0 0.0 0.0 0.0 0.0 0.0 0.0 0
1317398114258953094 0 1317398114258953094 imu_link 0 1 49.050603152658 8.3983088425834 114.68692779541 0.0 0.0 0.0 0.0 0.0 0.0 0.0 0.0 0.0 0
1317398114358923912 0 1317398114358923912 imu_link 0 1 49.050602661875 8.3983169488041 114.70666503906 0.0 0.0 0.0 0.0 0.0 0.0 0.0 0.0 0.0 0
1317398114459085941 0 1317398114459085941 imu_link 0 1 49.050602219897 8.3983249798926 114.72155761719 0.0 0.0 0.0 0.0 0.0 0.0 0.0 0.0 0.0 0
1317398114568952083 0 1317398114568952083 imu_link 0 1 49.050601760164 8.3983337142895 114.73600006104 0.0 0.0 0.0 0.0 0.0 0.0 0.0 0.0 0.0 0
1317398114668926954 0 1317398114668926954 imu_link 0 1 49.050601348786 8.3983415932432 114.74706268311 0.0 0.0 0.0 0.0 0.0 0.0 0.0 0.0 0.0 0
1317398114778913974 0 1317398114778913974 imu_link 0 1 49.050600962762 8.3983501984706 114.76246643066 0.0 0.0 0.0 0.0 0.0 0.0 0.0 0.0 0.0 0
1317398114878925085 0 1317398114878925085 imu_link 0 1 49.050600669062 8.3983579615943 114.77956390381 0.0 0.0 0.0 0.0 0.0 0.0 0.0 0.0 0.0 0
1317398114989095926 0 1317398114989095926 imu_link 0 1 49.05060034206 8.3983664397825 114.80026245117 0.0 0.0 0.0 0.0 0.0 0.0 0.0 0.0 0.0 0
1317398115088913917 0 1317398115088913917 imu_link 0 1 49.05060008848 8.3983740848531 114.81705474854 0.0 0.0 0.0 0.0 0.0 0.0 0.0 0.0 0.0 0
1317398115188954114 0 1317398115188954114 imu_link 0 1 49.050599909476 8.398381681802 114.83367919922 0.0 0.0 0.0 0.0 0.0 0.0 0.0 0.0 0.0 0
1317398115298909902 0 1317398115298909902 imu_link 0 1 49.050599802267 8.3983899872877 114.85081481934 0.0 0.0 0.0 0.0 0.0 0.0 0.0 0.0 0.0 0
1317398115398967027 0 1317398115398967027 imu_link 0 1 49.050599774329 8.3983975027351 114.86505126953 0.0 0.0 0.0 0.0 0.0 0.0 0.0 0.0 0.0 0
1317398115508955955 0 1317398115508955955 imu_link 0 1 49.050599795449 8.3984057095389 114.87995910645 0.0 0.0 0.0 0.0 0.0 0.0 0.0 0.0 0.0 0
1317398115608917951 0 1317398115608917951 imu_link 0 1 49.050599948924 8.3984131184963 114.89250946045 0.0 0.0 0.0 0.0 0.0 0.0 0.0 0.0 0.0 0
1317398115708894014 0 1317398115708894014 imu_link 0 1 49.050600223624 8.398420464445 114.90581512451 0.0 0.0 0.0 0.0 0.0 0.0 0.0 0.0 0.0 0
1317398115818923950 0 1317398115818923950 imu_link 0 1 49.050600660465 8.3984285025374 114.91882324219 0.0 0.0 0.0 0.0 0.0 0.0 0.0 0.0 0.0 0
1317398115918890953 0 1317398115918890953 imu_link 0 1 49.050601146365 8.3984357682385 114.92932128906 0.0 0.0 0.0 0.0 0.0 0.0 0.0 0.0 0.0 0
1317398116029107093 0 1317398116029107093 imu_link 0 1 49.050601816932 8.3984437293025 114.9421081543 0.0 0.0 0.0 0.0 0.0 0.0 0.0 0.0 0.0 0
1317398116128880023 0 1317398116128880023 imu_link 0 1 49.050602525642 8.3984509333472 114.95506286621 0.0 0.0 0.0 0.0 0.0 0.0 0.0 0.0 0.0 0
1317398116238957881 0 1317398116238957881 imu_link 0 1 49.050603398677 8.3984588375178 114.96947479248 0.0 0.0 0.0 0.0 0.0 0.0 0.0 0.0 0.0 0
1317398116338898897 0 1317398116338898897 imu_link 0 1 49.050604209953 8.3984660043927 114.98133087158 0.0 0.0 0.0 0.0 0.0 0.0 0.0 0.0 0.0 0
1317398116438916921 0 1317398116438916921 imu_link 0 1 49.050604972883 8.3984731619755 114.99143218994 0.0 0.0 0.0 0.0 0.0 0.0 0.0 0.0 0.0 0
1317398116549053907 0 1317398116549053907 imu_link 0 1 49.050605745367 8.3984810240959 114.99909210205 0.0 0.0 0.0 0.0 0.0 0.0 0.0 0.0 0.0 0
1317398116648926973 0 1317398116648926973 imu_link 0 1 49.050606337706 8.3984881245963 115.00778961182 0.0 0.0 0.0 0.0 0.0 0.0 0.0 0.0 0.0 0
1317398116758816957 0 1317398116758816957 imu_link 0 1 49.050606930069 8.398495895543 115.0154876709 0.0 0.0 0.0 0.0 0.0 0.0 0.0 0.0 0.0 0
1317398116858896970 0 1317398116858896970 imu_link 0 1 49.050607426833 8.3985029126952 115.0193939209 0.0 0.0 0.0 0.0 0.0 0.0 0.0 0.0 0.0 0
1317398116969033956 0 1317398116969033956 imu_link 0 1 49.050607930384 8.3985105950737 115.02249908447 0.0 0.0 0.0 0.0 0.0 0.0 0.0 0.0 0.0 0
1317398117068907976 0 1317398117068907976 imu_link 0 1 49.050608283577 8.3985175268255 115.02749633789 0.0 0.0 0.0 0.0 0.0 0.0 0.0 0.0 0.0 0
1317398117178860902 0 1317398117178860902 imu_link 0 1 49.050608549218 8.3985251088895 115.03535461426 0.0 0.0 0.0 0.0 0.0 0.0 0.0 0.0 0.0 0
1317398117278862953 0 1317398117278862953 imu_link 0 1 49.050608708174 8.398531966366 115.0432434082 0.0 0.0 0.0 0.0 0.0 0.0 0.0 0.0 0.0 0
1317398117388855934 0 1317398117388855934 imu_link 0 1 49.050608839071 8.3985394606689 115.04995727539 0.0 0.0 0.0 0.0 0.0 0.0 0.0 0.0 0.0 0
1317398117489075899 0 1317398117489075899 imu_link 0 1 49.050608899699 8.3985462056507 115.05435180664 0.0 0.0 0.0 0.0 0.0 0.0 0.0 0.0 0.0 0
1317398117588876962 0 1317398117588876962 imu_link 0 1 49.050608913785 8.3985528814596 115.06000518799 0.0 0.0 0.0 0.0 0.0 0.0 0.0 0.0 0.0 0
1317398117698880910 0 1317398117698880910 imu_link 0 1 49.050608821438 8.3985601534892 115.06694030762 0.0 0.0 0.0 0.0 0.0 0.0 0.0 0.0 0.0 0
1317398117798906087 0 1317398117798906087 imu_link 0 1 49.0506086794 8.3985667223992 115.07041168213 0.0 0.0 0.0 0.0 0.0 0.0 0.0 0.0 0.0 0
1317398117908869028 0 1317398117908869028 imu_link 0 1 49.050608502686 8.3985738937063 115.07590484619 0.0 0.0 0.0 0.0 0.0 0.0 0.0 0.0 0.0 0
1317398118009074926 0 1317398118009074926 imu_link 0 1 49.050608316136 8.3985803440196 115.08160400391 0.0 0.0 0.0 0.0 0.0 0.0 0.0 0.0 0.0 0
1317398118108831882 0 1317398118108831882 imu_link 0 1 49.050608168639 8.3985867511177 115.0884552002 0.0 0.0 0.0 0.0 0.0 0.0 0.0 0.0 0.0 0
1317398118218900918 0 1317398118218900918 imu_link 0 1 49.050607974541 8.398593793991 115.09699249268 0.0 0.0 0.0 0.0 0.0 0.0 0.0 0.0 0.0 0
1317398118318847894 0 1317398118318847894 imu_link 0 1 49.050607783996 8.3986001320541 115.10969543457 0.0 0.0 0.0 0.0 0.0 0.0 0.0 0.0 0.0 0
1317398118428880929 0 1317398118428880929 imu_link 0 1 49.050607546008 8.3986070738072 115.11747741699 0.0 0.0 0.0 0.0 0.0 0.0 0.0 0.0 0.0 0
1317398118528871059 0 1317398118528871059 imu_link 0 1 49.050607390849 8.3986133454006 115.12515258789 0.0 0.0 0.0 0.0 0.0 0.0 0.0 0.0 0.0 0
1317398118638895988 0 1317398118638895988 imu_link 0 1 49.050607122641 8.3986203190164 115.12457275391 0.0 0.0 0.0 0.0 0.0 0.0 0.0 0.0 0.0 0
1317398118738822937 0 1317398118738822937 imu_link 0 1 49.05060689727 8.3986267509312 115.12200927734 0.0 0.0 0.0 0.0 0.0 0.0 0.0 0.0 0.0 0
1317398118838891029 0 1317398118838891029 imu_link 0 1 49.05060665833 8.3986333106391 115.12197875977 0.0 0.0 0.0 0.0 0.0 0.0 0.0 0.0 0.0 0
1317398118949023008 0 1317398118949023008 imu_link 0 1 49.050606353049 8.3986406477272 115.12451934814 0.0 0.0 0.0 0.0 0.0 0.0 0.0 0.0 0.0 0
1317398119048919916 0 1317398119048919916 imu_link 0 1 49.05060600352 8.3986474113763 115.13037872314 0.0 0.0 0.0 0.0 0.0 0.0 0.0 0.0 0.0 0
1317398119158813953 0 1317398119158813953 imu_link 0 1 49.050605571236 8.3986549702151 115.13610839844 0.0 0.0 0.0 0.0 0.0 0.0 0.0 0.0 0.0 0
1317398119258817911 0 1317398119258817911 imu_link 0 1 49.05060517216 8.3986619803461 115.13734436035 0.0 0.0 0.0 0.0 0.0 0.0 0.0 0.0 0.0 0
1317398119368927955 0 1317398119368927955 imu_link 0 1 49.050604706615 8.3986697984821 115.13763427734 0.0 0.0 0.0 0.0 0.0 0.0 0.0 0.0 0.0 0
1317398119469036102 0 1317398119469036102 imu_link 0 1 49.050604220878 8.398677004757 115.14113616943 0.0 0.0 0.0 0.0 0.0 0.0 0.0 0.0 0.0 0
1317398119568861007 0 1317398119568861007 imu_link 0 1 49.050603693655 8.3986842687012 115.14959716797 0.0 0.0 0.0 0.0 0.0 0.0 0.0 0.0 0.0 0
1317398119678812980 0 1317398119678812980 imu_link 0 1 49.050603088185 8.3986923304752 115.15875244141 0.0 0.0 0.0 0.0 0.0 0.0 0.0 0.0 0.0 0
1317398119778817892 0 1317398119778817892 imu_link 0 1 49.050602540301 8.3986997297262 115.16535949707 0.0 0.0 0.0 0.0 0.0 0.0 0.0 0.0 0.0 0
1317398119888828992 0 1317398119888828992 imu_link 0 1 49.050601923428 8.3987079337403 115.17478942871 0.0 0.0 0.0 0.0 0.0 0.0 0.0 0.0 0.0 0
1317398119988944053 0 1317398119988944053 imu_link 0 1 49.05060130321 8.3987154391465 115.18390655518 0.0 0.0 0.0 0.0 0.0 0.0 0.0 0.0 0.0 0
1317398120098840951 0 1317398120098840951 imu_link 0 1 49.050600553918 8.3987236594624 115.1949005127 0.0 0.0 0.0 0.0 0.0 0.0 0.0 0.0 0.0 0
1317398120198870897 0 1317398120198870897 imu_link 0 1 49.050599864499 8.398731162086 115.20384979248 0.0 0.0 0.0 0.0 0.0 0.0 0.0 0.0 0.0 0
1317398120298783063 0 1317398120298783063 imu_link 0 1 49.050599210431 8.3987386509104 115.20986175537 0.0 0.0 0.0 0.0 0.0 0.0 0.0 0.0 0.0 0
1317398120408823966 0 1317398120408823966 imu_link 0 1 49.050598463823 8.3987468705454 115.21139526367 0.0 0.0 0.0 0.0 0.0 0.0 0.0 0.0 0.0 0
1317398120508840084 0 1317398120508840084 imu_link 0 1 49.050597776296 8.3987542947483 115.21382141113 0.0 0.0 0.0 0.0 0.0 0.0 0.0 0.0 0.0 0
1317398120618829965 0 1317398120618829965 imu_link 0 1 49.050597044234 8.3987624539965 115.22003173828 0.0 0.0 0.0 0.0 0.0 0.0 0.0 0.0 0.0 0
1317398120718780040 0 1317398120718780040 imu_link 0 1 49.050596394339 8.3987698199563 115.22601318359 0.0 0.0 0.0 0.0 0.0 0.0 0.0 0.0 0.0 0
1317398120818806886 0 1317398120818806886 imu_link 0 1 49.050595762758 8.3987771564515 115.23345947266 0.0 0.0 0.0 0.0 0.0 0.0 0.0 0.0 0.0 0
1317398120928786993 0 1317398120928786993 imu_link 0 1 49.050595083261 8.3987851775312 115.24101257324 0.0 0.0 0.0 0.0 0.0 0.0 0.0 0.0 0.0 0
1317398121028953075 0 1317398121028953075 imu_link 0 1 49.05059451152 8.3987923580149 115.24570465088 0.0 0.0 0.0 0.0 0.0 0.0 0.0 0.0 0.0 0
1317398121138824939 0 1317398121138824939 imu_link 0 1 49.050593912686 8.3988001152123 115.25029754639 0.0 0.0 0.0 0.0 0.0 0.0 0.0 0.0 0.0 0
1317398121238832950 0 1317398121238832950 imu_link 0 1 49.050593394803 8.3988070327341 115.25570678711 0.0 0.0 0.0 0.0 0.0 0.0 0.0 0.0 0.0 0
1317398121348943948 0 1317398121348943948 imu_link 0 1 49.050592866122 8.3988144422686 115.26211547852 0.0 0.0 0.0 0.0 0.0 0.0 0.0 0.0 0.0 0
1317398121448985099 0 1317398121448985099 imu_link 0 1 49.050592410958 8.3988210047181 115.26802825928 0.0 0.0 0.0 0.0 0.0 0.0 0.0 0.0 0.0 0
1317398121548960924 0 1317398121548960924 imu_link 0 1 49.050591966222 8.3988273976641 115.27630615234 0.0 0.0 0.0 0.0 0.0 0.0 0.0 0.0 0.0 0
1317398121658735036 0 1317398121658735036 imu_link 0 1 49.050591500391 8.398834174961 115.28787994385 0.0 0.0 0.0 0.0 0.0 0.0 0.0 0.0 0.0 0
1317398121758857965 0 1317398121758857965 imu_link 0 1 49.050591115754 8.3988401147068 115.29747772217 0.0 0.0 0.0 0.0 0.0 0.0 0.0 0.0 0.0 0
1317398121868901014 0 1317398121868901014 imu_link 0 1 49.050590761538 8.3988463863785 115.30377197266 0.0 0.0 0.0 0.0 0.0 0.0 0.0 0.0 0.0 0
1317398121968935966 0 1317398121968935966 imu_link 0 1 49.050590497231 8.3988518884683 115.30710601807 0.0 0.0 0.0 0.0 0.0 0.0 0.0 0.0 0.0 0
1317398122068800926 0 1317398122068800926 imu_link 0 1 49.050590274385 8.3988572597013 115.30811309814 0.0 0.0 0.0 0.0 0.0 0.0 0.0 0.0 0.0 0
1317398122178770065 0 1317398122178770065 imu_link 0 1 49.050590076188 8.3988631051324 115.30683135986 0.0 0.0 0.0 0.0 0.0 0.0 0.0 0.0 0.0 0
1317398122278727054 0 1317398122278727054 imu_link 0 1 49.050589946966 8.3988683427981 115.30448913574 0.0 0.0 0.0 0.0 0.0 0.0 0.0 0.0 0.0 0
1317398122388772964 0 1317398122388772964 imu_link 0 1 49.050589856846 8.3988740366736 115.30242156982 0.0 0.0 0.0 0.0 0.0 0.0 0.0 0.0 0.0 0
1317398122488883018 0 1317398122488883018 imu_link 0 1 49.050589854314 8.3988791507284 115.30439758301 0.0 0.0 0.0 0.0 0.0 0.0 0.0 0.0 0.0 0
1317398122598814964 0 1317398122598814964 imu_link 0 1 49.050589980495 8.3988847024758 115.30812072754 0.0 0.0 0.0 0.0 0.0 0.0 0.0 0.0 0.0 0
1317398122698764085 0 1317398122698764085 imu_link 0 1 49.050590193524 8.3988896709288 115.31070709229 0.0 0.0 0.0 0.0 0.0 0.0 0.0 0.0 0.0 0
1317398122798773050 0 1317398122798773050 imu_link 0 1 49.050590500916 8.398894569702 115.31153869629 0.0 0.0 0.0 0.0 0.0 0.0 0.0 0.0 0.0 0
1317398122908744096 0 1317398122908744096 imu_link 0 1 49.050590942191 8.3988998818099 115.31586456299 0.0 0.0 0.0 0.0 0.0 0.0 0.0 0.0 0.0 0
1317398123008874893 0 1317398123008874893 imu_link 0 1 49.050591438927 8.3989046478647 115.32347869873 0.0 0.0 0.0 0.0 0.0 0.0 0.0 0.0 0.0 0
1317398123108761072 0 1317398123108761072 imu_link 0 1 49.050591995495 8.398909370645 115.33126831055 0.0 0.0 0.0 0.0 0.0 0.0 0.0 0.0 0.0 0
1317398123218775033 0 1317398123218775033 imu_link 0 1 49.050592693688 8.3989144948117 115.3383102417 0.0 0.0 0.0 0.0 0.0 0.0 0.0 0.0 0.0 0
