 %time field.transforms0.header.seq field.transforms0.header.stamp field.transforms0.header.frame_id field.transforms0.child_frame_id field.transforms0.transform.translation.x field.transforms0.transform.translation.y field.transforms0.transform.translation.z field.transforms0.transform.rotation.x field.transforms0.transform.rotation.y field.transforms0.transform.rotation.z field.transforms0.transform.rotation.w
2 1317065162154094256 0 1317065162154764890 world base_link 0.0 0.0 0.0 -0.0148213797636955 0.0160464337491135 0.9876010642923952 0.1554573139944334
12 1317065162244953438 0 1317065162254658937 world base_link 0.0305668949149549 0.0329983248375356 -0.0226669311499989 -0.0148020273899022 0.0160644234719441 0.9876030618647056 0.155444609038466
23 1317065162346533382 0 1317065162354669094 world base_link 0.0493340427055954 0.0533119053579866 -0.0368423461899993 -0.0147790367821887 0.0160964128416489 0.9876057864591749 0.1554261757805831
35 1317065162457835110 0 1317065162464709043 world base_link 0.0703947789734229 0.0758164748549461 -0.0523452758800004 -0.0147566689730314 0.0160778395121065 0.987600905102974 0.1554612364457119
46 1317065162559060588 0 1317065162564723014 world base_link 0.0833644635276869 0.0896296664141118 -0.06201171875 -0.014802606252417 0.0161094527628907 0.9876030582545002 0.1554399167079501
57 1317065162660183875 0 1317065162664904117 world base_link 0.0976840320508927 0.1051126499660313 -0.0731811523500027 -0.0147499382898512 0.0161167534173947 0.9876048658762292 0.1554326814969227
69 1317065162771509275 0 1317065162774734973 world base_link 0.1200877726078033 0.1301686647348106 -0.0895690918000013 -0.0147879934729616 0.0161108528264713 0.987606455962219 0.1554195734519727
80 1317065162872628393 0 1317065162874733924 world base_link 0.1339896593708545 0.1456036674790084 -0.0992660522500017 -0.0147435629872569 0.0161085153641968 0.9876156133086 0.1553658374041092
90 1317065162973735581 0 1317065162974729061 world base_link 0.1500825121765956 0.1638579503633082 -0.1099090576200012 -0.0147663031044264 0.0161316123648746 0.9876211759418684 0.1553259160807968
102 1317065163074656188 0 1317065163084731101 world base_link 0.1601971957134083 0.176383507438004 -0.1167144775400004 -0.0147548647566833 0.0161223980507837 0.9876245644049227 0.1553064133611068
113 1317065163176402217 0 1317065163184813976 world base_link 0.1780823714798316 0.2008576574735343 -0.1282577514700023 -0.0147517276572576 0.0161386901898323 0.9876235311994253 0.1553115894943473
124 1317065163277557550 0 1317065163284739971 world base_link 0.1906508571701124 0.2181006013415753 -0.1367416381799984 -0.0147832568762283 0.0161467817911888 0.9876218555823668 0.1553184056381
136 1317065163388949485 0 1317065163394743919 world base_link 0.2047349907224998 0.2379112425260245 -0.1462097168000014 -0.0147386148422331 0.0161551105641809 0.9876301883537448 0.1552687885170027
147 1317065163490094766 0 1317065163494762897 world base_link 0.2136802042368799 0.2504826630465686 -0.1521987915100027 -0.0147869275898044 0.0161705966961264 0.9876307390776172 0.1552590796183751
159 1317065163601116037 0 1317065163604809999 world base_link 0.2237337249098345 0.2647355631925165 -0.1591644287099995 -0.0147723161190489 0.0161956816807576 0.9876300361349418 0.1552623273542817
170 1317065163702093631 0 1317065163704807043 world base_link 0.2303826115094125 0.276406523771584 -0.164543151860002 -0.0147705427089665 0.016175523346388 0.987631766546652 0.155253590040593
181 1317065163803232190 0 1317065163804791927 world base_link 0.2362657829653471 0.2877591056749224 -0.1703186035200019 -0.0147384143266946 0.016185001233061 0.987629004824324 0.1552732227653427
192 1317065163904293778 0 1317065163904766082 world base_link 0.243337522028014 0.3010758124291897 -0.1768264770499996 -0.0147836550055624 0.0161872252973855 0.9876401005753596 0.1551980960493455
203 1317065164005428262 0 1317065164014786958 world base_link 0.2467023618519306 0.307394643779844 -0.1802978515599989 -0.0147849340000193 0.0161937745351903 0.9876374725540754 0.1552140141865953
214 1317065164106586814 0 1317065164114758014 world base_link 0.2506724400445819 0.3152753943577409 -0.1853179931700026 -0.0147517461583701 0.0161744066931324 0.9876292991910004 0.1552711883541095
226 1317065164218415107 0 1317065164224845886 world base_link 0.2542462707497179 0.3246178850531578 -0.1900711059600013 -0.0147599093973403 0.0161819612665863 0.9876317401025428 0.1552540986453248
237 1317065164319338574 0 1317065164324821949 world base_link 0.2592538970056921 0.3398008644580841 -0.1947784423799987 -0.0147527106778694 0.0161907579665638 0.987628896130172 0.1552719562986854
248 1317065164420598040 0 1317065164424833059 world base_link 0.2619608220411464 0.3500006245449185 -0.1978149414100016 -0.0147777104351484 0.016191704888137 0.9876324298378664 0.1552470015802639
260 1317065164531937519 0 1317065164534794092 world base_link 0.2647080816095695 0.3597288345918059 -0.2013549804700005 -0.0147701778118397 0.016202179964795 0.9876231159533216 0.1553058661044292
271 1317065164633022232 0 1317065164635011911 world base_link 0.2659816198283806 0.3668604046106338 -0.2047424316399997 -0.014804383444971 0.0161877396281762 0.9876234532445702 0.1553019701028121
282 1317065164734186665 0 1317065164734847068 world base_link 0.2674792220350355 0.37687314953655 -0.2083740234400011 -0.0147811340866969 0.0161957659544348 0.9876324522871204 0.155246109225284
293 1317065164835201568 0 1317065164844993114 world base_link 0.2699666472617537 0.3887255587615073 -0.2118606567400007 -0.0147890410472749 0.0161734231854068 0.9876309615849348 0.1552571684856604
304 1317065164936779082 0 1317065164944837093 world base_link 0.2719346813391894 0.3973106257617473 -0.214347839360002 -0.0147890062191409 0.0161948110631337 0.9876338167048312 0.1552367787952571
315 1317065165037935272 0 1317065165044864892 world base_link 0.2745932018151507 0.4079640167765319 -0.2173385620099992 -0.0147994617565534 0.0162018568703381 0.9876439876895664 0.1551703236650645
327 1317065165149372937 0 1317065165155108928 world base_link 0.2767332294024527 0.4168085758574307 -0.2200622558600002 -0.0148091303107567 0.0162141673470067 0.98763754453115 0.1552091204445253
338 1317065165250568994 0 1317065165254817962 world base_link 0.2809017015388235 0.4342616940848529 -0.2241439819400028 -0.0147645796483948 0.0162208316837348 0.9876382996657924 0.1552078633335193
349 1317065165351697409 0 1317065165354795932 world base_link 0.2839535630773753 0.4459644863381982 -0.2275390625 -0.0147814035772692 0.016241301474803 0.9876410506824892 0.1551866142471048
361 1317065165462770756 0 1317065165464827060 world base_link 0.287753619486466 0.4589715008623898 -0.2309417724599995 -0.0147798292683822 0.0162594467385316 0.98764367937393 0.155168133427196
371 1317065165555151926 0 1317065165564841985 world base_link 0.2896340683801099 0.4668134041130543 -0.2334518432599992 -0.0147873633019283 0.0162662011387296 0.9876433503920696 0.1551688016755261
383 1317065165667169170 0 1317065165675028085 world base_link 0.2925020613474771 0.4791414830833673 -0.237594604489999 -0.0147508361071516 0.01625380295138 0.9876496112148664 0.1551337235770513
394 1317065165768405891 0 1317065165774844884 world base_link 0.2955302392365411 0.4930949388071894 -0.2423706054700005 -0.0148078771829432 0.0162891175218686 0.9876518864472096 0.1551100983848643
405 1317065165869475223 0 1317065165874872922 world base_link 0.2984915140550583 0.5061457003466785 -0.2472000122100013 -0.0147429491689239 0.0162822645839296 0.9876505940396012 0.1551252313553299
416 1317065165970626204 0 1317065165974857091 world base_link 0.302752201561816 0.5228298255242407 -0.2535247802699985 -0.0147612331863029 0.0163240265817213 0.9876500429559676 0.1551226121494042
428 1317065166081913995 0 1317065166084853887 world base_link 0.3049803035100922 0.5332828341051936 -0.2582702636699991 -0.0147554006729316 0.0163347545366726 0.9876544308622196 0.1550940977066279
439 1317065166182928735 0 1317065166184905052 world base_link 0.3080253221560269 0.548143545165658 -0.2625350952200023 -0.0147275819211937 0.0163593394050221 0.9876580581251326 0.1550710500560246
451 1317065166294372251 0 1317065166294842958 world base_link 0.3098542846273631 0.5592605792917311 -0.2656936645499996 -0.014753374281372 0.0163680205737824 0.9876611931573304 0.155047713239661
461 1317065166385419551 0 1317065166394805908 world base_link 0.3123747267527506 0.5715661677531898 -0.2687988281300022 -0.0147497000358047 0.0163497022405361 0.9876619133510808 0.1550454078687326
472 1317065166486636998 0 1317065166494882106 world base_link 0.3136943690478802 0.5785208540037274 -0.2699737548799987 -0.0147803254848653 0.0163776478667019 0.9876619645913411 0.1550392154536646
484 1317065166597863370 0 1317065166604878902 world base_link 0.3152487449115142 0.5851710811257362 -0.2707214355500014 -0.0147531385959833 0.0163938385485716 0.9876693055300928 0.154993322026838
495 1317065166698900575 0 1317065166704905033 world base_link 0.3160363764036447 0.5923641016706824 -0.27059173584 -0.0147593269550973 0.0163804702406801 0.9876755040291773 0.1549546424062129
506 1317065166800099093 0 1317065166804852962 world base_link 0.3170097162947058 0.6008704700507224 -0.2704315185600023 -0.0147338635681667 0.0163874804690768 0.987686085955078 0.1548888613134227
518 1317065166911271066 0 1317065166914922952 world base_link 0.3165593531448394 0.6095186625607312 -0.2699432373100023 -0.0147024574607081 0.0163476796555758 0.9876962613283796 0.1548311547216384
529 1317065167012442373 0 1317065167014867067 world base_link 0.3144213267369196 0.6153317671269178 -0.2709045410200019 -0.0145009524317146 0.0162713738431583 0.9877128080313684 0.1547526207294034
540 1317065167113403149 0 1317065167114837884 world base_link 0.3111568740569055 0.6228037513792515 -0.2718353271500007 -0.0143698285117337 0.0162391261734705 0.987725957327946 0.1546842979434487
552 1317065167224488187 0 1317065167225128889 world base_link 0.3070305477594957 0.6348992851562798 -0.2728271484400011 -0.0142684481932835 0.0162483908130454 0.9877246064550336 0.1547013347886527
562 1317065167315514214 0 1317065167324963092 world base_link 0.3014234232250601 0.6450198986567557 -0.2701568603499993 -0.0143523486269833 0.0162679409051788 0.9877333444820086 0.1546357151048258
573 1317065167416562922 0 1317065167424912929 world base_link 0.294597138883546 0.6512385406531394 -0.268058776860002 -0.0144272800477797 0.016291962227378 0.9877346318548006 0.1546179892246247
585 1317065167527731988 0 1317065167534904003 world base_link 0.2875236690742895 0.6579593420028687 -0.2659301757799994 -0.0144401567202431 0.016227827161165 0.9877390433279428 0.154595348523566
596 1317065167628819297 0 1317065167635086059 world base_link 0.2817349331453442 0.6666872343048453 -0.2662658691399997 -0.0144513463110286 0.0162460881242871 0.9877539718061888 0.1544969721112862
608 1317065167739942746 0 1317065167744981050 world base_link 0.2770697674714029 0.6805078880861402 -0.2685394287099996 -0.0144520400808826 0.0162421610452797 0.9877493229301388 0.1545270390356725
619 1317065167840914975 0 1317065167844963073 world base_link 0.2721404368057847 0.6898507103323936 -0.2704315185600023 -0.0144828709222087 0.0162851683784137 0.9877548883497884 0.1544840453957448
630 1317065167942200308 0 1317065167944896936 world base_link 0.2669544339878484 0.6969727128744125 -0.2713394165100027 -0.0144748646696263 0.0162515622395259 0.9877600563028572 0.154455288644148
641 1317065168043229860 0 1317065168044974088 world base_link 0.2629282247507944 0.7044449183158576 -0.2726669311499989 -0.0144875900675893 0.0162478656070016 0.987765558944632 0.154419290116386
653 1317065168154389874 0 1317065168155154943 world base_link 0.2584643962327391 0.7092214152216911 -0.2736511230500014 -0.0144989814358556 0.0162617864361766 0.9877696668578904 0.1543904759843657
663 1317065168245311909 0 1317065168254976987 world base_link 0.2572003520326689 0.7180304629728198 -0.2760391235400021 -0.0145040228042691 0.0162726103632378 0.98776552086401 0.1544153854598385
674 1317065168347059820 0 1317065168354933023 world base_link 0.2556937523186207 0.7244291086681187 -0.2775802612299998 -0.0144799396660319 0.0162538196568248 0.9877695828610984 0.1543936393386824
686 1317065168458176130 0 1317065168464952945 world base_link 0.2552093425765633 0.7313599740155041 -0.2788314819400028 -0.0144797135602647 0.0162435429714295 0.9877663074812134 0.1544156954842254
697 1317065168559272750 0 1317065168564963102 world base_link 0.2555138568859547 0.735114558134228 -0.2798919677699985 -0.0144942543436249 0.0162713980156018 0.9877674761215544 0.1544039225994423
709 1317065168670570032 0 1317065168675160884 world base_link 0.2581467877607792 0.7403619377873838 -0.2821807861299987 -0.0144332957312221 0.0162497532674395 0.9877734935384432 0.1543734140191929
720 1317065168771648125 0 1317065168774935960 world base_link 0.2607246390543878 0.7443890278227627 -0.2845840454099999 -0.0144029543829586 0.0162784753697929 0.9877728930516368 0.1543770640253184
731 1317065168872755254 0 1317065168874941110 world base_link 0.2621387239778414 0.7464666981250048 -0.285934448239999 -0.0143809047946034 0.0162415381127509 0.9877795781107376 0.1543402315807313
743 1317065168984110732 0 1317065168984967947 world base_link 0.2633852480212226 0.74835434416309 -0.2866897582999996 -0.0144864344169259 0.016235737932311 0.9877824000778294 0.1543129097909836
753 1317065169075003118 0 1317065169084964990 world base_link 0.2644363434519619 0.749353991355747 -0.2872695922900021 -0.0144164208535905 0.0162290478910996 0.987786732025474 0.1542924393765133
764 1317065169176703662 0 1317065169185192108 world base_link 0.268028701771982 0.7535819057375193 -0.2911071777400025 -0.0144055868689735 0.0162273268913803 0.9877872459599932 0.1542903420428267
776 1317065169287882189 0 1317065169294966936 world base_link 0.2701960791600868 0.7562889750115573 -0.2943801879900007 -0.0144301948867874 0.0162020309686861 0.9877807739695856 0.1543321296557067
787 1317065169389001465 0 1317065169395010948 world base_link 0.2739758844254538 0.7602690914645791 -0.2988433837900004 -0.0144412369260457 0.0162088524808041 0.9877800828779628 0.1543348037446714
799 1317065169500487516 0 1317065169504977941 world base_link 0.2767361433943733 0.763915138784796 -0.3018569946300005 -0.0143959062168986 0.0162078114603348 0.9877812887971568 0.1543314298323201
810 1317065169601694581 0 1317065169605036973 world base_link 0.2795991777675226 0.7686631381511688 -0.3053588867200005 -0.0144036723935501 0.0162069467526181 0.987781644310382 0.154328520572236
821 1317065169703000546 0 1317065169705064058 world base_link 0.2813428263179958 0.7723970147781074 -0.3096923828099989 -0.0144172763951241 0.0162170478223191 0.9877868682281208 0.1542927492053873
832 1317065169804262466 0 1317065169804991960 world base_link 0.2828393988311291 0.7749607050791383 -0.3141784668000014 -0.0143944356303677 0.0162184755330214 0.987783270996902 0.1543177592272808
843 1317065169905469199 0 1317065169915023088 world base_link 0.2848145751049742 0.7776300394907594 -0.3189468383800005 -0.014403919281244 0.0162434509645158 0.9877851931234464 0.1543019431380517
854 1317065170006969634 0 1317065170015047073 world base_link 0.2859290023334324 0.7794179380871356 -0.3219680786099985 -0.0143995090007827 0.0162428168864538 0.9877801834024575 0.1543344884254217
865 1317065170108031220 0 1317065170115009069 world base_link 0.2878448269329965 0.7834387989714742 -0.3267135620099992 -0.0144050760884073 0.016277111902746 0.9877883164806324 0.1542782915233086
877 1317065170219145101 0 1317065170225054025 world base_link 0.2873063385486603 0.7872520494274795 -0.3322830200200002 -0.0141393867266661 0.0162046745539506 0.9877911134775352 0.1542925869910979
888 1317065170320240367 0 1317065170325088024 world base_link 0.2824652355629951 0.793361600022763 -0.3406906127899987 -0.0138849527309708 0.0161602593521905 0.9877981473619042 0.1542753193926965
899 1317065170421387449 0 1317065170425057888 world base_link 0.2712788914795965 0.7997751580551267 -0.3473434448300025 -0.0137634440186708 0.0161479702589324 0.9877949249431156 0.1543081233178809
911 1317065170532520502 0 1317065170535034894 world base_link 0.2528566144173965 0.8081540684215724 -0.3532791137700002 -0.0138536448494912 0.0161821792909519 0.9878031548082394 0.1542437711827251
922 1317065170633456354 0 1317065170635243892 world base_link 0.2303189875092357 0.819671293720603 -0.3581542968800022 -0.0138643790104797 0.0161904744213136 0.9878071514671496 0.154216338443832
934 1317065170744649784 0 1317065170745098114 world base_link 0.2005781596526503 0.8363472931087017 -0.3671112060600023 -0.0137939805053913 0.0162031799560554 0.9878234122505638 0.1541171284146623
944 1317065170835519020 0 1317065170845036029 world base_link 0.1673522328492254 0.8520599296316504 -0.3727951049799998 -0.0138139225754938 0.0162493971676729 0.987825933793504 0.1540943125483783
955 1317065170936713410 0 1317065170945020914 world base_link 0.1293901040917262 0.8695009131915867 -0.3785934448300025 -0.013832212223041 0.0162977396934654 0.9878250476683872 0.1540932470449285
967 1317065171047929535 0 1317065171055079936 world base_link 0.0817809409927576 0.8908903989940882 -0.3863372802699985 -0.0137831066927796 0.0163296846273151 0.9878240437228654 0.1541007008837868
978 1317065171149268231 0 1317065171155294895 world base_link 0.0311590388882905 0.9112613117322326 -0.3919754028299991 -0.0136821287442404 0.016337804593465 0.9878249755043416 0.154102865852453
990 1317065171260651853 0 1317065171265090942 world base_link -0.0345321969361975 0.9346688026562332 -0.4016647338900014 -0.0134711022112049 0.0162795314772906 0.987845375457426 0.1539968196018079
1001 1317065171361801322 0 1317065171365077972 world base_link -0.1035940933506935 0.9569461727514864 -0.4098815918000014 -0.0131211271131079 0.0160992710184075 0.987857887261346 0.1539657236903964
1012 1317065171462710402 0 1317065171465120077 world base_link -0.1827762089669704 0.9837844157591462 -0.4195632934600013 -0.0127713252577761 0.0159451740524928 0.98786651485669 0.1539558167153577
1023 1317065171563919214 0 1317065171565120935 world base_link -0.2725807363167405 1.0129286432638764 -0.4273376464900025 -0.0127114272116377 0.0159039903222289 0.9878732860090248 0.153921582306723
1034 1317065171665198763 0 1317065171675190925 world base_link -0.3806314937537536 1.0506456973962486 -0.4342422485400021 -0.012896616250002 0.0159610979159795 0.9878898030919374 0.1537942053186328
1046 1317065171776823602 0 1317065171785115003 world base_link -0.4989291854435578 1.0925203119404614 -0.4391098022500017 -0.0129327859936103 0.0160646121477794 0.9878948242752552 0.1537481299175619
1056 1317065171867842178 0 1317065171875097990 world base_link -0.6026566174114123 1.1293926751241088 -0.4432067871100003 -0.0130658865289184 0.0160684737192495 0.9878888123017516 0.1537750997092237
1068 1317065171979042398 0 1317065171985101938 world base_link -0.7375600533559918 1.1781682106666267 -0.4485092163100006 -0.0132032707075136 0.0158558068401014 0.9879083143564124 0.1536601101702887
1079 1317065172080230095 0 1317065172085117101 world base_link -0.8682441002456471 1.2230978761799634 -0.4538650512700002 -0.0131006220766305 0.0158409135316391 0.987929909848345 0.1535315354796189
1090 1317065172181362382 0 1317065172185183048 world base_link -1.0054812325397506 1.2717035417445004 -0.4579315185600023 -0.0130002534167435 0.0159308425716267 0.9879421588828152 0.1534519220082329
1102 1317065172292635470 0 1317065172295124053 world base_link -1.1648013931699095 1.3281493270769715 -0.4620056152400025 -0.0127281770065663 0.0160001179626175 0.9879639124065308 0.1533274193275681
1113 1317065172393777092 0 1317065172395091056 world base_link -1.3189470095094291 1.384243233129382 -0.4645385742200005 -0.0125733363332876 0.015963091627223 0.9879864938759144 0.1531984948944626
1124 1317065172494926889 0 1317065172495142936 world base_link -1.484409277909435 1.4435061844997108 -0.4654693603499993 -0.0125974164907932 0.0158542968408178 0.9880007018938436 0.1531161631791792
1135 1317065172596104219 0 1317065172605186939 world base_link -1.6768189885187894 1.5130118648521602 -0.4572601318400018 -0.0125360596393948 0.0156450037334027 0.9880313018752775 0.1529451783533668
1146 1317065172697336799 0 1317065172705226898 world base_link -1.8673167157685384 1.5710821403190494 -0.4600219726600016 -0.0124662941999159 0.0155830332938285 0.988039742853534 0.1529026720636598
1158 1317065172808515095 0 1317065172815159082 world base_link -2.092662810115144 1.643787926994264 -0.4514770507799994 -0.0122919331371695 0.0158044002627965 0.9880494936180908 0.1528310422431236
1169 1317065172909684512 0 1317065172915143966 world base_link -2.305509614874609 1.714232925325632 -0.4486236572300015 -0.0119228210160764 0.0162420677082658 0.9880741092910224 0.1526551542671633
1181 1317065173020858736 0 1317065173025166988 world base_link -2.5539587802486494 1.7949894508346915 -0.4449539184600013 -0.0118041820674052 0.0159447722343714 0.9880683512601894 0.1527329655381724
1192 1317065173122031874 0 1317065173125196933 world base_link -2.796442001592368 1.8731445539742708 -0.4430847168000014 -0.0118656652405724 0.0154619560535263 0.9881102343356424 0.1525067169162045
1203 1317065173223330900 0 1317065173225176095 world base_link -3.0549682180862874 1.9541925196535883 -0.4432983398500028 -0.0114246128699931 0.0152321516778523 0.9881597903899922 0.152242203190969
1213 1317065173324613802 0 1317065173325215101 world base_link -3.331591544207185 2.0404521310701966 -0.4421005248999989 -0.0107587786360735 0.0157655099526623 0.9881538176088102 0.152275178946954
1225 1317065173425615659 0 1317065173435297012 world base_link -3.652605443727225 2.1428718897514045 -0.4437332153299991 -0.0103836983754404 0.0167992228838109 0.9881465259316536 0.152237998567216
1236 1317065173527159537 0 1317065173535376071 world base_link -3.9653475639643143 2.2415874949656427 -0.4446029663100006 -0.0104136971585803 0.0171190230206774 0.9881684428486068 0.1520579577676431
1248 1317065173638418121 0 1317065173645251989 world base_link -4.331746636074968 2.3554067090153694 -0.4496307373100023 -0.0103690005855062 0.0168609797271491 0.9881896479097992 0.1519520021368773
1259 1317065173739477881 0 1317065173745212078 world base_link -4.691290482180193 2.4586937627755105 -0.4529418945299994 -0.0103747572354072 0.0164062527589141 0.9882091744113668 0.1518743786552621
1270 1317065173840595109 0 1317065173845196962 world base_link -5.06694959406741 2.576184972189367 -0.4595184326200012 -0.0107399788895195 0.0164063069631183 0.9882313091822488 0.1517048631297718
1281 1317065173941662591 0 1317065173945374965 world base_link -5.461279475712217 2.6975946319289505 -0.4689788818400018 -0.0105340073757129 0.0157850766423377 0.9882570581764129 0.1516174561470609
1293 1317065174052921294 0 1317065174055182933 world base_link -5.916234637377784 2.8383610919117928 -0.4752731323300025 -0.0106940184012854 0.0164078165934474 0.9882556614178764 0.1515492302870083
1304 1317065174153905603 0 1317065174155235052 world base_link -6.344307485269383 2.974188196938485 -0.4803390502899987 -0.0109588094308379 0.0173648615900044 0.9882769552182716 0.15128458567323
1316 1317065174265098168 0 1317065174265285968 world base_link -6.836812381399795 3.123720637056977 -0.4874725341800001 -0.0114917303423339 0.0184881129419407 0.9882236715273413 0.1514599116816282
1326 1317065174356142673 0 1317065174365185976 world base_link -7.298557940521277 3.264116744045168 -0.4981613159200009 -0.0116592447843171 0.017910263442444 0.9882243052263904 0.1515123989457621
1337 1317065174457368470 0 1317065174465200901 world base_link -7.774682427290827 3.412444043904543 -0.5106811523500028 -0.0115685567536546 0.0174334089877077 0.9881571904895372 0.1520118798960426
1348 1317065174558588293 0 1317065174565208911 world base_link -8.265645420877263 3.5662428154610097 -0.5282745361299988 -0.0111077396487053 0.0173058985605632 0.9880278027467552 0.1528992642046611
1360 1317065174669905956 0 1317065174675348997 world base_link -8.823976498097181 3.741872805170715 -0.5466384887700002 -0.0108426656199872 0.0174773263930608 0.98793178958762 0.1535179428816255
1371 1317065174770923636 0 1317065174775228023 world base_link -9.34930998517666 3.908413449302316 -0.5611114502000021 -0.0102687067508957 0.0182386238352397 0.9878597157775382 0.1539320895920742
1382 1317065174872146039 0 1317065174875197887 world base_link -9.889896572218277 4.081275266595185 -0.5760345459000007 -0.010095063938006 0.0184999154643892 0.987779313509692 0.1544275578199035
1394 1317065174983449343 0 1317065174985191106 world base_link -10.503279216587543 4.276077060028911 -0.5893173217800012 -0.0101857351871337 0.0182907268849354 0.9877430067387348 0.1546785465002887
1405 1317065175084417525 0 1317065175085241079 world base_link -11.075885219033808 4.4603068442083895 -0.6040115356500024 -0.009998497985588 0.0179473099086 0.9877458955828062 0.1547125394542953
1415 1317065175175572423 0 1317065175185379981 world base_link -11.66756075853482 4.645571129862219 -0.616416931149999 -0.0098456525776351 0.0182221154665908 0.9877092791776304 0.1549238440642635
1427 1317065175287269584 0 1317065175295244932 world base_link -12.333608538494444 4.857612451072782 -0.6322021484400011 -0.0099966527206292 0.0187080539229584 0.9876748211821638 0.1550758629045137
1438 1317065175388453039 0 1317065175395239114 world base_link -12.955483930069022 5.054114461410791 -0.6486892700200002 -0.0102032539709545 0.0194440921602785 0.9876816735966358 0.1549281527993387
1450 1317065175499690379 0 1317065175505239963 world base_link -13.654938985477202 5.277225755155087 -0.6670150756799984 -0.0107371476781354 0.0184026487177556 0.987745156733398 0.1546142345633935
1461 1317065175600762848 0 1317065175605299949 world base_link -14.307342704734763 5.48277639457956 -0.684860229489999 -0.0108389465247006 0.0182491263018443 0.9877975157087544 0.1542904876752524
1472 1317065175701753524 0 1317065175705312967 world base_link -14.974909776938148 5.692917857784778 -0.7011566162099996 -0.0106903567171214 0.0184866144506312 0.9878854763161228 0.1537083180673112
1484 1317065175812964882 0 1317065175815227985 world base_link -15.728141831466928 5.928980214521289 -0.7160491943400018 -0.0102447339512753 0.0194725401308738 0.9879717080711112 0.1530613264615519
1495 1317065175914175850 0 1317065175915273904 world base_link -16.427045902819373 6.147246805019677 -0.7357025146500007 -0.0091036498326475 0.0185788185510636 0.988065050287423 0.1526414342879535
1505 1317065176005252918 0 1317065176015239000 world base_link -17.139271138585173 6.371099311392754 -0.754600524899999 -0.009260430764763 0.0181556323545543 0.9881258606759712 0.1522888731957407
1517 1317065176117207233 0 1317065176125282049 world base_link -17.94183750625234 6.622640912886709 -0.7728424072300015 -0.0092575995839396 0.0178492656442806 0.9881697510868204 0.152040269675224
1528 1317065176218285607 0 1317065176225378990 world base_link -18.687259193859063 6.853832627180964 -0.7859878540100027 -0.009614901499704 0.0182701061015503 0.988177642719814 0.1519167644498152
1539 1317065176319246924 0 1317065176325263023 world base_link -19.445725480327383 7.089991548098624 -0.8009643554700006 -0.0100963022786701 0.0189299029625861 0.9881776760694768 0.15180449259509
1551 1317065176430437536 0 1317065176435549974 world base_link -20.29149266344029 7.35633913660422 -0.8206863403299991 -0.0106399282022294 0.0188043602862777 0.9882126505160788 0.1515550900565912
1562 1317065176531457143 0 1317065176535293102 world base_link -21.072667044238187 7.599263305775821 -0.8392028808600003 -0.0109934916631304 0.0184582064442671 0.9882342390218466 0.1514315904321986
1573 1317065176632490507 0 1317065176635516881 world base_link -21.86281559499912 7.845295644830912 -0.8581619262700002 -0.0112370680660096 0.017905931739229 0.9882626747071784 0.1512943875047697
1585 1317065176743620380 0 1317065176745313882 world base_link -22.74524250754621 8.117541208863258 -0.8790435790999993 -0.0107600842266337 0.0174681546597636 0.988327266904504 0.1509579333897079
1596 1317065176844674381 0 1317065176845309019 world base_link -23.558109727222472 8.371254733763635 -0.8987960815399987 -0.0101879826714982 0.0177135353488868 0.9883851799709664 0.1505894142637167
1607 1317065176945724043 0 1317065176955286979 world base_link -24.46602048247587 8.65378626063466 -0.9200820922900022 -0.0103344168778181 0.0177688057497326 0.9884912967470624 0.1498746997506071
1618 1317065177047258032 0 1317065177055309057 world base_link -25.302913313382305 8.91587227769196 -0.936729431149999 -0.0111407227536077 0.0176649855964915 0.988556984736156 0.1493951823512463
1629 1317065177148479196 0 1317065177155520915 world base_link -26.148931304574944 9.18243246851489 -0.955154418950002 -0.0114229284795824 0.0193546431641365 0.9886009051639464 0.1488729821087934
1640 1317065177249658768 0 1317065177255273103 world base_link -27.00872389774304 9.447402242571115 -0.973220825200002 -0.0114640829808462 0.0190625191476154 0.9887122257973178 0.1481665607486004
1652 1317065177360889692 0 1317065177365295886 world base_link -27.96488598559517 9.742262036539614 -0.9951171875 -0.0120209701740858 0.018365883756099 0.9888148458140776 0.1475242057684536
1663 1317065177462002743 0 1317065177465282917 world base_link -28.843647597008385 10.013259017840028 -1.013580322270002 -0.011325916924708 0.0192304530676571 0.9888782690220042 0.1470431308721086
1675 1317065177573374088 0 1317065177575339078 world base_link -29.817745931097303 10.315409284085035 -1.0380477905300012 -0.0078648618700329 0.0191483137278501 0.9889925705802446 0.1465100043212926
1686 1317065177674355019 0 1317065177675425052 world base_link -30.7167313589016 10.588480290956795 -1.0622253418000014 -0.0028399058305212 0.0193654390182984 0.9890355562907636 0.1463748034981512
1696 1317065177765332028 0 1317065177775346040 world base_link -31.6290824416792 10.863646351732314 -1.0742568969699988 -0.0008990325869532 0.0183251522702539 0.9891448340449897 0.1457939567224551
1708 1317065177877326349 0 1317065177885379076 world base_link -32.64573076018132 11.16970843449235 -1.0722808837900004 -0.0030395610381662 0.0183612152270867 0.9891779441136436 0.1455356372961135
1719 1317065177978508091 0 1317065177985349893 world base_link -33.5785453155404 11.453516272362322 -1.0755767822300015 -0.0045212583059042 0.0182115538274248 0.9892126326732252 0.1452799535043583
1730 1317065178079663101 0 1317065178085369110 world base_link -34.52002225269098 11.739408031105995 -1.0809783935600024 -0.006171328270828 0.0168333933261805 0.9892126585731802 0.1453852389174387
1742 1317065178191022273 0 1317065178195590019 world base_link -35.566727517871186 12.053740221541377 -1.093635559079999 -0.005820687665119 0.015663307566978 0.9891901093144572 0.1456835887312635
1753 1317065178292040357 0 1317065178295381069 world base_link -36.52693604456727 12.340866768732669 -1.1054382324199992 -0.0046197738204381 0.0141532998444348 0.98908835116451 0.1465693534953076
1764 1317065178393091229 0 1317065178395358085 world base_link -37.49619161803275 12.63340658834204 -1.118850708010001 -0.0026444505706411 0.0136339806538294 0.9889797020053824 0.1473983394548783
1775 1317065178504747197 0 1317065178505386114 world base_link -38.57096372591332 12.966282023116946 -1.1251373290999993 -0.0026071277159734 0.014751953892416 0.9887954052639102 0.1485234973679537
1786 1317065178595917624 0 1317065178605428934 world base_link -39.55891713418532 13.273005906492472 -1.1257324218800022 -0.005003292084795 0.015158452589105 0.9886523590976054 0.1493710187223662
1797 1317065178697318849 0 1317065178705447912 world base_link -40.55572000599932 13.582041804678738 -1.1304168701200012 -0.0056515882155323 0.015765895004886 0.9885244163686264 0.1501298582840998
1809 1317065178808712042 0 1317065178815407037 world base_link -41.65916054346599 13.9271479989402 -1.1421432495099992 -0.0041250966140606 0.0161996281206336 0.9884516209319344 0.1506119142156746
1820 1317065178909624770 0 1317065178915416002 world base_link -42.669893885962665 14.246007352601737 -1.1530532836899994 -0.0024220835995936 0.0154205868793832 0.9884266615222276 0.1508942470850237
1831 1317065179010488331 0 1317065179015460014 world base_link -43.68979072920047 14.56855919584632 -1.157348632809999 -0.0030154265685242 0.014577849232379 0.9883985091920362 0.1511515151803913
1843 1317065179121822002 0 1317065179125377893 world base_link -44.822316020028666 14.928112643305212 -1.1573333740199985 -0.0049081943023807 0.0143077114898953 0.9883903168683046 0.1511812837013377
1854 1317065179222967970 0 1317065179225553035 world base_link -45.861746025271714 15.257725321687758 -1.1609725952200023 -0.0057028490633542 0.0148894164400831 0.9883544875300164 0.1513313905636005
1865 1317065179324288925 0 1317065179325390100 world base_link -46.91023919545114 15.591720125172287 -1.1732940673799988 -0.0054054714163479 0.0163784145296262 0.9883305461186946 0.1513448381180726
1876 1317065179435521755 0 1317065179435628890 world base_link -48.07047509483528 15.964722409844398 -1.1843872070299994 -0.0062609003083949 0.0178748716080497 0.988334687005363 0.1511153088020373
1887 1317065179526574155 0 1317065179535402059 world base_link -49.13439933932386 16.307507733348757 -1.195518493649999 -0.0062661271809858 0.0202142122777242 0.9883803070365604 0.1505207292516786
1899 1317065179637768927 0 1317065179645637035 world base_link -50.31122108211275 16.683113055769354 -1.2132186889700023 -0.0050536002547455 0.0187024167957019 0.9885902326592008 0.1493788225328237
1910 1317065179739048003 0 1317065179745479106 world base_link -51.3907437720336 17.021181918215007 -1.230758666989999 -0.0038573698517665 0.0170799983794025 0.988748756737911 0.1485573640127666
1921 1317065179840163868 0 1317065179845468997 world base_link -52.47616158844903 17.353014771360904 -1.2434158325200002 -0.0045918655567433 0.0109769378531412 0.9889841846873112 0.1475422110599241
1933 1317065179951178869 0 1317065179955452919 world base_link -53.67384512582794 17.717024535872042 -1.2558898925800008 -0.0036462761075108 0.0072621426132736 0.9891505141099436 0.1466806953598423
1944 1317065180052450317 0 1317065180055443048 world base_link -54.76485668006353 18.04771740175784 -1.2707595825200002 -0.001476130135003 0.0043280145336168 0.989263010178921 0.1460745906095966
1955 1317065180153620508 0 1317065180155632019 world base_link -55.860296789440326 18.38231806550175 -1.2708435058600005 -0.0034250162371933 0.0032162990186391 0.9894303675856364 0.1449326477497401
1966 1317065180254820118 0 1317065180255579948 world base_link -56.95944753696676 18.72438329970464 -1.2667770385800026 -0.0061854915328203 0.0090007342796564 0.9894999777171178 0.1441198132622561
1977 1317065180355833343 0 1317065180365478038 world base_link -58.17001111409627 19.105798680800945 -1.272941589360002 -0.0065288739111642 0.0147704613187869 0.989585813568256 0.1430353972355622
1988 1317065180457264893 0 1317065180465603113 world base_link -59.27499611768872 19.44807112775743 -1.2878265380900018 -0.0051392083837694 0.0178603130296257 0.9896518647915268 0.1422806531835084
1999 1317065180558486349 0 1317065180565469980 world base_link -60.38555507513229 19.790578480809927 -1.30167388916 -0.0035672684354337 0.0206365437482607 0.9896728667629424 0.141806292001641
2011 1317065180669736258 0 1317065180675642967 world base_link -61.61547444621101 20.15842637699097 -1.3149719238300008 -0.0054195213358127 0.016686597216712 0.9898151726483354 0.1412731759994226
2022 1317065180770900885 0 1317065180775458097 world base_link -62.74080251727719 20.48407638026401 -1.3248977661099983 -0.0064754006373108 0.0117783872808412 0.9898687067972928 0.1413480883602748
2034 1317065180882286175 0 1317065180885498046 world base_link -63.981229014345445 20.842784406617284 -1.3468246460000015 -0.0052849379597361 0.0076576342097116 0.9898790814170526 0.1416080302878476
2045 1317065180983622654 0 1317065180985481977 world base_link -65.11510581022594 21.171748213469986 -1.3608932495099992 -0.0062842778661608 0.0037401385983169 0.9899017839821664 0.1415661586816943
2056 1317065181084655897 0 1317065181085469007 world base_link -66.24965577002149 21.50410229479894 -1.3698425293000014 -0.0080585733250266 0.0019175328440229 0.9899808427059724 0.1409585525568766
2067 1317065181185793391 0 1317065181195590972 world base_link -67.50409645249601 21.875840046908703 -1.3793334961000028 -0.0089298909468703 0.0032144791168297 0.9900406968974648 0.1404611784745771
2078 1317065181287201468 0 1317065181295511007 world base_link -68.64948461367749 22.21535860793665 -1.3921890258800005 -0.0086354725932473 0.0040489247945587 0.990099778069904 0.1400409378968378
2089 1317065181388241387 0 1317065181395488977 world base_link -69.80170940037351 22.553668145556003 -1.4028396606500024 -0.0066351192231924 0.0057941071993106 0.9901691792778732 0.139597277634057
2101 1317065181499413359 0 1317065181505522966 world base_link -71.07201422669459 22.931911731138825 -1.4124603271500007 -0.005554509989186 0.0079085799628704 0.9903983295333096 0.1379048608257905
2112 1317065181600437470 0 1317065181605560064 world base_link -72.23397290252615 23.27244403446093 -1.417602539059999 -0.005350168066 0.0108841328006731 0.9906009101921288 0.1362451763600057
2123 1317065181701359437 0 1317065181705605983 world base_link -73.40328381909057 23.60961271962151 -1.426094055180002 -0.0053135828139323 0.0130750959002536 0.990808669709109 0.134532478361712
2135 1317065181812534621 0 1317065181815551042 world base_link -74.69955704407766 23.975238813553005 -1.4327926635800026 -0.0069179253409319 0.0140129887549887 0.9910520337072168 0.1325580813829143
2146 1317065181913794929 0 1317065181915538072 world base_link -75.88638244988397 24.305000418797132 -1.4432907104500003 -0.0089907739359947 0.0143060554618859 0.9912879467645124 0.1306243061629425
2157 1317065182015035507 0 1317065182015515089 world base_link -77.08092343667522 24.629746965132654 -1.458862304690001 -0.0106015192615451 0.0141705590038817 0.9915122648279472 0.1288030734983433
2168 1317065182116252372 0 1317065182125495910 world base_link -78.40426666324493 24.981385437306017 -1.4834671020499997 -0.0100935249090044 0.0125839345479288 0.9917280792979356 0.1273388474827381
2179 1317065182217414007 0 1317065182225761890 world base_link -79.61400439962745 25.300589178223163 -1.508171081539999 -0.00841086019578 0.0119996035944123 0.9918405129401237 0.1266398982746612
2190 1317065182318590483 0 1317065182325584888 world base_link -80.83068190212362 25.619635310489684 -1.5277786254900008 -0.0068754509546869 0.0110787320233976 0.9919178446064648 0.1262100607011532
2202 1317065182429905400 0 1317065182435612916 world base_link -82.17955734708812 25.973401728086174 -1.5413131713900017 -0.0063066351660685 0.0122321461731677 0.9919718091317526 0.1257081176406609
2213 1317065182531100933 0 1317065182535628080 world base_link -83.41440681542736 26.293782179709524 -1.5483932495099992 -0.0059327743395323 0.0130938067062492 0.9920233195678928 0.1252321358440956
2224 1317065182632171801 0 1317065182635631084 world base_link -84.65656280028634 26.619603970088065 -1.557823181149999 -0.0051777871490701 0.0141465666094954 0.99206685501827 0.1248055301161015
2236 1317065182743606227 0 1317065182745644092 world base_link -86.03209313552361 26.978934003505856 -1.5665817260800026 -0.0050453067044918 0.014376221385463 0.9921118513368068 0.1244264585045617
2246 1317065182844580841 0 1317065182845578908 world base_link -87.2912294663256 27.30587427131832 -1.5751647949199992 -0.0049705850832353 0.0146839840357044 0.9921223211160098 0.1243099909104279
2258 1317065182945575909 0 1317065182955571889 world base_link -88.68635924579576 27.66413990408182 -1.5830230712900004 -0.0049689197448263 0.0148837511668246 0.992138388243511 0.1241579734102542
2269 1317065183047289073 0 1317065183055576086 world base_link -89.96256432542577 27.995277534704652 -1.5907135009800015 -0.0051765221161816 0.0157534202647789 0.9921520518401704 0.1239328019455772
2280 1317065183148500218 0 1317065183155653953 world base_link -91.2463011177024 28.329075063578784 -1.599006652829999 -0.0061010769047123 0.0164151868095515 0.9921666069418392 0.1236880858131799
2292 1317065183259473469 0 1317065183265610933 world base_link -92.6647328081308 28.69789112592116 -1.61003112793 -0.0076415291513791 0.0179399892517944 0.9921477047874616 0.1235422830566356
2303 1317065183360630078 0 1317065183365554094 world base_link -93.95687136636116 29.03345267334953 -1.6257476806700026 -0.007561882116802 0.0189071384750331 0.992125772681239 0.1235790808963722
2314 1317065183461972957 0 1317065183465600013 world base_link -95.25283489201684 29.37143812701106 -1.6429595947300015 -0.0070120435048586 0.0204246314817809 0.9920855309440776 0.1236930271524122
2326 1317065183573350454 0 1317065183575598001 world base_link -96.68376844213344 29.74361434392631 -1.657791137700002 -0.0071882231242745 0.0203402800033354 0.9920595979336284 0.1239046270543157
2337 1317065183674616417 0 1317065183675649881 world base_link -97.98690860741772 30.08219039393589 -1.6721115112299998 -0.0063891727102396 0.0203086106061596 0.99204184049253 0.1240956305416107
2347 1317065183765536325 0 1317065183775621891 world base_link -99.29233150859363 30.420612175483257 -1.6872024536099983 -0.0055141876430103 0.0193151378884601 0.9920413371379426 0.1243000586989012
2358 1317065183867440643 0 1317065183875613927 world base_link -100.60133922414389 30.760416017845277 -1.6989898681700026 -0.0060461196968554 0.0188309496479055 0.9920101581978864 0.1245980971129707
2370 1317065183978567366 0 1317065183985634088 world base_link -102.04459002846852 31.13712784089148 -1.711311340329999 -0.0065977116798171 0.0183532824936341 0.9919817062092576 0.1248676169728134
2381 1317065184079707397 0 1317065184085638046 world base_link -103.3606504513882 31.482059463392943 -1.7267761230500014 -0.0065890601815383 0.018127166764899 0.991976498986866 0.1249424490265895
2393 1317065184191148844 0 1317065184195748090 world base_link -104.81142254720908 31.86434257728979 -1.7430877685600024 -0.0080004646417612 0.0180099725067408 0.9919691565530716 0.1249352868616779
2404 1317065184292252081 0 1317065184295631885 world base_link -106.13362092967144 32.20995897939429 -1.7608795165999993 -0.0068029806922372 0.0174100217873062 0.9919932183054953 0.1249002219012156
2415 1317065184393439432 0 1317065184395620107 world base_link -107.45875952485947 32.5560429408215 -1.7805709838900017 -0.0041394484390736 0.0168248627568191 0.9920256945106736 0.1248391380555396
2427 1317065184504767683 0 1317065184505613088 world base_link -108.92252349911725 32.939472837373614 -1.791145324710001 -0.0030002933644781 0.0161186848132698 0.992087343599662 0.1244744508282063
2437 1317065184595802551 0 1317065184605642080 world base_link -110.25830693368334 33.28907912829891 -1.793746948239999 -0.0042561860047454 0.0161340670377504 0.9921381127205156 0.1240304077590966
2448 1317065184697610837 0 1317065184705641984 world base_link -111.5980219009798 33.63946691295132 -1.7999114990199985 -0.0047475672539394 0.0159491547881963 0.9922008183419404 0.1235338866396408
2460 1317065184808854309 0 1317065184815609931 world base_link -113.0744071836816 34.0235309577547 -1.8142929077200023 -0.0028805857972762 0.0152670044627571 0.992279018479446 0.123048650076569
2471 1317065184910093210 0 1317065184915673971 world base_link -114.4238410689868 34.37226902041584 -1.8232727050800008 -0.0015682941382069 0.0148723279324107 0.9923406208787412 0.1226231889544609
2482 1317065185011203002 0 1317065185015645980 world base_link -115.7783941635862 34.721130116377026 -1.8245544433600005 -0.0019250610090413 0.0152891893169909 0.9923799542232276 0.1222479500279876
2494 1317065185122498243 0 1317065185125643968 world base_link -117.27205596619751 35.10367705812678 -1.8263626098599983 -0.0013350922191351 0.0152481374141026 0.9924467110717736 0.1217178603040113
2505 1317065185223993706 0 1317065185225824117 world base_link -118.63422624091618 35.45346248988062 -1.8271560669000024 -0.0004456693072381 0.0162890862198488 0.9924798286013564 0.1213188232238217
2516 1317065185325149071 0 1317065185325644016 world base_link -120.0032305045752 35.802620543166995 -1.82511138916 -0.0010218333411263 0.0163904319739658 0.9925274942791612 0.1209110528291723
2527 1317065185426230703 0 1317065185435631990 world base_link -121.5158129427582 36.18673583865166 -1.8207778930700016 -0.0034135800124075 0.016852121494351 0.99254581984903 0.1206530106249136
2538 1317065185527634955 0 1317065185535715103 world base_link -122.89485631824935 36.53457924444229 -1.8238754272500015 -0.0044782430164534 0.0173772137131399 0.9925477007507512 0.1205281689790848
2549 1317065185628696903 0 1317065185635902881 world base_link -124.27677355858032 36.88476151507348 -1.8332672119200024 -0.0029508901112588 0.0184178457458464 0.9925468902611712 0.1204273467220468
2561 1317065185739926135 0 1317065185745659112 world base_link -125.80057435715572 37.270245786290616 -1.8421249389700023 -0.0010101212569921 0.01818083238329 0.9925725376761642 0.1202838078878303
2572 1317065185841179190 0 1317065185845659017 world base_link -127.1917436766671 37.62231497978792 -1.84302520752 -0.0012049103167375 0.018761926111244 0.992576021605458 0.1201639698645399
2583 1317065185942113525 0 1317065185945641994 world base_link -128.5875100903213 37.97468531411141 -1.8401718139700023 -0.0029633372274173 0.0193980620456938 0.9925781225956998 0.1200150172509414
2595 1317065186053447014 0 1317065186055644035 world base_link -130.12658804503735 38.36156740318984 -1.8417510986299988 -0.0041080300106903 0.0202554027304416 0.9925788692056204 0.1198333474294655
2606 1317065186154560938 0 1317065186155826091 world base_link -131.52688172121998 38.7153917402029 -1.84733581543 -0.0032334517345242 0.0210987102818294 0.992595774606278 0.1195743176776979
2616 1317065186245627647 0 1317065186255702018 world base_link -132.93027336278465 39.06818137597293 -1.852165222170001 -0.002125592819572 0.0209658431360933 0.9926213941414064 0.1194097281193161
2628 1317065186357672266 0 1317065186365699052 world base_link -134.47782744292635 39.45593907311559 -1.8540267944400028 -0.0023627684533281 0.0208230328798718 0.9926261377727632 0.1193908255991506
2639 1317065186458712494 0 1317065186465666055 world base_link -135.88799316692166 39.80792747531086 -1.85366821289 -0.0031550342564666 0.0199880840524774 0.9926645255243948 0.1191958976650626
2650 1317065186559934538 0 1317065186565664052 world base_link -137.29942671093158 40.1605154722929 -1.856330871579999 -0.00307286752154 0.0192053745526725 0.9927036610252508 0.1190006405888234
2662 1317065186671194937 0 1317065186675776958 world base_link -138.85390531551093 40.54744290653616 -1.86434173584 -0.0028630596861095 0.0185568376213656 0.9927203635322432 0.1189694351299487
2673 1317065186772254803 0 1317065186775732040 world base_link -140.27228145161644 40.896222789771855 -1.8664550781300024 -0.0040709601384025 0.0174770807975233 0.99276940743679 0.1186881737493373
2684 1317065186873303140 0 1317065186880729913 world base_link -141.76465300680138 41.264312932267785 -1.8703384399450016 -0.0035332164017355 0.0166091911658691 0.9928077907266464 0.1185088259293363
2695 1317065186984456282 0 1317065186985727071 world base_link -143.2570245618699 41.63240309571847 -1.874221801760001 -0.0029951627357996 0.015741457353393 0.9928449838540618 0.1183303577126559
2706 1317065187085441180 0 1317065187085742950 world base_link -144.68285630608443 41.98336782446131 -1.877349853520002 -0.0026027607833738 0.015207217775765 0.99285996929819 0.1182837585174818
2717 1317065187176566658 0 1317065187185822010 world base_link -146.11243637930602 42.333995493128896 -1.8769760131799984 -0.0040417087752469 0.0145704018287874 0.992872630392897 0.1182172060125501
2729 1317065187287678689 0 1317065187295774936 world base_link -147.68710533820558 42.72270264849067 -1.88109588623 -0.0043823791778534 0.014625721012153 0.9928559813819994 0.1183380043418138
2740 1317065187388859744 0 1317065187395742893 world base_link -149.12210862373468 43.07465786114335 -1.89069366455 -0.0034926922854709 0.0135445609971929 0.9928542201647652 0.1185109424019904
2751 1317065187489954607 0 1317065187495778083 world base_link -150.55888761836104 43.42925728764385 -1.896858215329999 -0.0025765783089152 0.0136990254136027 0.9928031209691952 0.1189439403280444
2763 1317065187601215058 0 1317065187605792999 world base_link -152.14331032335758 43.818881241604686 -1.9007415771500007 -0.0013536867701342 0.0133862172258949 0.992761526372676 0.1193462545482862
2774 1317065187702103198 0 1317065187705837965 world base_link -153.58607896009926 44.17662039771676 -1.8984985351600017 -0.0022546663110956 0.0138419816032553 0.99270355406314 0.1197621383223053
2785 1317065187803016994 0 1317065187805808067 world base_link -155.03107222996186 44.537341182120144 -1.8961791992200008 -0.0030535915888567 0.0144337799870428 0.9926411847348584 0.1201907647944339
2797 1317065187914406877 0 1317065187915777921 world base_link -156.6234467322938 44.934275733772665 -1.8989562988300008 -0.0033073769279762 0.0154614376115496 0.9925918753806872 0.1204631650467943
2807 1317065188015492857 0 1317065188015748977 world base_link -158.0715851234272 45.29726093541831 -1.901084899899999 -0.003693428001811 0.0156861988515258 0.9925492833757412 0.1207734317865002
2818 1317065188106504737 0 1317065188115798950 world base_link -159.52112608239986 45.661539146211 -1.9070053100600008 -0.0031141793539266 0.0155151533782118 0.9925047649506062 0.1211770335209769
2830 1317065188217657435 0 1317065188225898981 world base_link -161.11794324906077 46.06310515385121 -1.9115219116199995 -0.0035653406431257 0.0148990943737886 0.9924719064788504 0.1215105764251624
2841 1317065188318755964 0 1317065188325828075 world base_link -162.57235858368222 46.42843728652224 -1.915405273440001 -0.0043105152171436 0.0145194192947694 0.9924306452177588 0.1218688654028121
2852 1317065188419608292 0 1317065188425846099 world base_link -164.02557614888065 46.79668537015095 -1.9207382202200023 -0.0040237284940109 0.0148539539788011 0.992385119425936 0.1222086101801877
2864 1317065188530774409 0 1317065188535842895 world base_link -165.62321379582863 47.20398101583123 -1.92626953125 -0.0038274547456359 0.015963410025887 0.9923307763046 0.122515919493042
2875 1317065188631877107 0 1317065188635968923 world base_link -167.07520955754444 47.57602751580998 -1.930541992190001 -0.0045181719332265 0.0166471233608985 0.9923026645432068 0.1226290395731807
2886 1317065188732906435 0 1317065188735922098 world base_link -168.5265266635688 47.94754226040095 -1.9362487793000012 -0.005233836982396 0.0169280781809954 0.992280249770222 0.1227434439613196
2898 1317065188844428845 0 1317065188845843076 world base_link -170.12142209755257 48.355118070263416 -1.9446640014700023 -0.0049499616179097 0.0165432139126946 0.992257751430388 0.1229893275033667
2908 1317065188945550282 0 1317065188945880889 world base_link -171.5706587176537 48.72551253624261 -1.952430725100001 -0.0046019266839064 0.0161304111346542 0.9922294749002882 0.1232854462072517
2919 1317065189036630607 0 1317065189045877933 world base_link -173.01869875879493 49.09552854159847 -1.96036529541 -0.0049996784771612 0.0160117923305059 0.9922058136348612 0.1234757025113557
2931 1317065189147779338 0 1317065189155975103 world base_link -174.60775120242033 49.50379418069497 -1.9696960449199992 -0.0047403650952569 0.0158079124225554 0.9921901365228823 0.1236380678848895
2942 1317065189248821573 0 1317065189255903005 world base_link -176.0508966606576 49.87457033339888 -1.98045349121 -0.003706016626682 0.0154506520486277 0.992187819942851 0.1237371114463544
2953 1317065189350012103 0 1317065189355811119 world base_link -177.49156298988964 50.24420792516321 -1.9853515625 -0.0026842383240481 0.0147907179064606 0.9921798066711824 0.1239082756008097
2965 1317065189461210490 0 1317065189465765953 world base_link -179.0759319375502 50.65115383034572 -1.9885482788100008 -0.0027291895396072 0.014801514576092 0.9921617104060992 0.124050824643588
2976 1317065189562421302 0 1317065189565835952 world base_link -180.51752559049052 51.02339336834848 -1.9863433837900004 -0.0061546354913671 0.0159889976464103 0.9920908308358656 0.1243473191815318
2987 1317065189663591995 0 1317065189665939092 world base_link -181.9567402462708 51.39891510596499 -1.995971679690001 -0.0067029001925121 0.0175013825820351 0.992060993206686 0.1243533614121068
2999 1317065189774736826 0 1317065189775824069 world base_link -183.5390485060634 51.812154044397175 -2.0147399902400025 -0.006692260016641 0.0192772617685183 0.9920287885537922 0.1243482348691499
3009 1317065189865930353 0 1317065189875814914 world base_link -184.9769701322075 52.18580008344725 -2.034576416020002 -0.0044927531278301 0.0183493547526731 0.9920727948235308 0.1242364122168761
3020 1317065189967636082 0 1317065189975804090 world base_link -186.41667725273876 52.55505032232031 -2.0496749877899987 -0.0020011786322659 0.0156478481254635 0.9921150069466468 0.1243340384785241
3031 1317065190068821648 0 1317065190075866937 world base_link -187.85848445363808 52.922802212648094 -2.0504302978499998 -0.0028616662574741 0.0131417894289723 0.9921024396675172 0.1247070705397073
3043 1317065190179996656 0 1317065190186065912 world base_link -189.54538922011847 53.191388541832566 -1.881225585940001 -0.0052138212244029 0.0113797341866958 0.9920856972978056 0.1249371319312503
3054 1317065190281065323 0 1317065190285819053 world base_link -191.0713273807196 53.4456687499769 -1.7460327148500028 -0.0049536930703199 0.0115656345984191 0.9920864074515796 0.1249250061881885
3065 1317065190382069217 0 1317065190385862112 world base_link -192.58374260156413 53.71994470665231 -1.6309661865199985 -0.0047331275325906 0.0129988168918088 0.9920762181014414 0.1248735590135662
3077 1317065190493134792 0 1317065190495893001 world base_link -194.2479534416925 54.02124930964783 -1.4994049072300015 -0.0049904433005378 0.0145026863527109 0.9920767553739348 0.1246935403737691
3088 1317065190594313607 0 1317065190595877885 world base_link -195.7375222123228 54.326507810968906 -1.4171676635800026 -0.0054654109459807 0.0159623272558075 0.992061230311741 0.1246188136042263
3099 1317065190695483244 0 1317065190696001052 world base_link -197.23281367775053 54.6232533142902 -1.32731628418 -0.005607981616413 0.0171902179955646 0.9920579729577632 0.1244749984470313
3110 1317065190796699344 0 1317065190805886983 world base_link -198.84994806698523 54.985922776162624 -1.276565551760001 -0.0045002489238842 0.0179052539603249 0.9920938304027008 0.1241329179433751
3121 1317065190897916155 0 1317065190905894994 world base_link -200.32663091877475 55.304397869855165 -1.2186737060600024 -0.0023287053112188 0.0179410451219233 0.9921674744187692 0.123597729497705
3133 1317065191009148662 0 1317065191015935897 world base_link -201.9338715847116 55.67750112572685 -1.182121276860002 -0.0005409303985011 0.017795483711601 0.9922301305346292 0.1231356821275068
3144 1317065191110175683 0 1317065191115916013 world base_link -203.40353714872617 56.00960991671309 -1.132682800289999 -0.0012142780978321 0.0176372378447943 0.9922652882554404 0.1228700577571902
3155 1317065191211414990 0 1317065191216104030 world base_link -204.865343452082 56.35605181567371 -1.099319458010001 -0.003199634669416 0.0183269019165768 0.9922709128735142 0.1226879067768517
3166 1317065191312615821 0 1317065191315943956 world base_link -206.32568701787383 56.70647679083049 -1.076461791989999 -0.0037210641149866 0.0190729055231023 0.99226105112054 0.1226392448848239
3178 1317065191423864230 0 1317065191425887107 world base_link -207.93483600823677 57.09127770829946 -1.0548629760800026 -0.0040553908527173 0.019498306869396 0.992224783445437 0.1228549915588066
3188 1317065191524892007 0 1317065191525948047 world base_link -209.3950384722557 57.44653115328401 -1.0439071655300012 -0.0044851739060638 0.0187033347531869 0.9921894740820164 0.1232481886479249
3199 1317065191615964615 0 1317065191625900983 world base_link -210.85894355550408 57.8005409440957 -1.0313873290999993 -0.0044516565536569 0.0178549456263434 0.9921494415449548 0.1236966827067042
3211 1317065191727866345 0 1317065191736118078 world base_link -212.4655264889589 58.20047676097602 -1.0286254882799994 -0.0036263828289365 0.0167563412045534 0.9921399738585366 0.1239530017748537
3222 1317065191828994042 0 1317065191835953950 world base_link -213.93156103987712 58.56487114634365 -1.0196685790999993 -0.0026529280932812 0.016261153356049 0.9921378910861426 0.1240602351086134
3233 1317065191930130963 0 1317065191935982942 world base_link -215.39778167905752 58.93588301399723 -1.0123138427699985 -0.0028917839141552 0.0166663367591427 0.9921169727939648 0.1241683659349842
3245 1317065192041205427 0 1317065192045980930 world base_link -217.0151026166277 59.34571031806991 -1.0037612915100027 -0.0042624857196527 0.0167427335807417 0.9921218816071018 0.1240793460819237
3256 1317065192142369293 0 1317065192146090030 world base_link -218.4878202393884 59.7217380120419 -1.003532409670001 -0.0045671733801099 0.0174242447135226 0.9921148863595112 0.1240305965773525
3267 1317065192243322280 0 1317065192246025085 world base_link -219.9634067537263 60.09674058156088 -1.0077514648500028 -0.0036565483470229 0.0160112470742799 0.9921570847184178 0.1239136346991833
3279 1317065192354362754 0 1317065192355968952 world base_link -221.59203127084768 60.508663687855005 -1.010368347170001 -0.002322867916793 0.0154539803650296 0.9921714939660768 0.1239011918289801
3290 1317065192455464441 0 1317065192455991983 world base_link -223.0766248550499 60.884362066630274 -1.0092163086000028 -0.0028982995779505 0.0144977890328028 0.9921756557651836 0.1239712953858464
3301 1317065192556833094 0 1317065192565984010 world base_link -224.71458569914105 61.30160959623754 -1.0061035156300022 -0.0039685068176472 0.014905676134931 0.992169569025475 0.1239419947895061
3312 1317065192657819029 0 1317065192666166067 world base_link -226.2056394086685 61.68522638082504 -1.0080490112299998 -0.0035605056470403 0.0160739908560585 0.9921642286821476 0.123851091804054
3323 1317065192758878717 0 1317065192766030073 world base_link -227.70230473403356 62.06719509093091 -1.0106735229500003 -0.0032893550964752 0.0162840580411141 0.9921496935061964 0.123947550489406
3334 1317065192859834174 0 1317065192866002082 world base_link -229.20218708610628 62.452099576592445 -1.013801574710001 -0.0029900859160533 0.0166825655040055 0.9920937185050664 0.1243495279331984
3346 1317065192970962790 0 1317065192975977897 world base_link -230.8571946824668 62.87600142136216 -1.0172500610400022 -0.0028707526945902 0.0152038622088082 0.9920695367208234 0.1247342601831305
3357 1317065193072129059 0 1317065193075995922 world base_link -232.3643314585788 63.26321174949408 -1.0214996337900004 -0.001674041817158 0.0139057133849087 0.9920393414377108 0.1251470085902359
3368 1317065193173342773 0 1317065193176240921 world base_link -233.8757539789658 63.653408729005605 -1.0210189819400028 -0.0018443775948777 0.0131136314555305 0.9920044559516182 0.1255061365570222
3380 1317065193284606809 0 1317065193286022901 world base_link -235.5456354871858 64.08489339007065 -1.018920898440001 -0.00318153071469 0.0125456235360163 0.9919481661433486 0.1259814306842543
3391 1317065193385839533 0 1317065193386040925 world base_link -237.06624573271256 64.48194088926539 -1.022583007809999 -0.0047435320312947 0.0129378614428644 0.9918841276649876 0.1263961547335201
