%time field.header.seq field.header.stamp field.header.frame_id field.orientation.x field.orientation.y field.orientation.z field.orientation.w field.orientation_covariance0 field.orientation_covariance1 field.orientation_covariance2 field.orientation_covariance3 field.orientation_covariance4 field.orientation_covariance5 field.orientation_covariance6 field.orientation_covariance7 field.orientation_covariance8 field.angular_velocity.x field.angular_velocity.y field.angular_velocity.z field.angular_velocity_covariance0 field.angular_velocity_covariance1 field.angular_velocity_covariance2 field.angular_velocity_covariance3 field.angular_velocity_covariance4 field.angular_velocity_covariance5 field.angular_velocity_covariance6 field.angular_velocity_covariance7 field.angular_velocity_covariance8 field.linear_acceleration.x field.linear_acceleration.y field.linear_acceleration.z field.linear_acceleration_covariance0 field.linear_acceleration_covariance1 field.linear_acceleration_covariance2 field.linear_acceleration_covariance3 field.linear_acceleration_covariance4 field.linear_acceleration_covariance5 field.linear_acceleration_covariance6 field.linear_acceleration_covariance7 field.linear_acceleration_covariance8
1317065162154764890 0 1317065162154764890 imu_link -0.014821379763695585 0.016046433749113548 0.9876010642923952 0.1554573139944334 0.0 0.0 0.0 0.0 0.0 0.0 0.0 0.0 0.0 -0.00053109380149303 0.00079332005894054 1.5004979385897e-05 0.0 0.0 0.0 0.0 0.0 0.0 0.0 0.0 0.0 0.0081967408732511 0.0056224780529875 9.8209075026544 0.0 0.0 0.0 0.0 0.0 0.0 0.0 0.0 0.0
1317065162254658937 0 1317065162254658937 imu_link -0.014802027389902276 0.016064423471944155 0.9876030618647054 0.155444609038466 0.0 0.0 0.0 0.0 0.0 0.0 0.0 0.0 0.0 -0.00038555185242407 5.2450414514348e-06 0.00051266840134796 0.0 0.0 0.0 0.0 0.0 0.0 0.0 0.0 0.0 -0.0024898429281042 0.013132841918429 9.795267512528 0.0 0.0 0.0 0.0 0.0 0.0 0.0 0.0 0.0
1317065162354669094 0 1317065162354669094 imu_link -0.014779036782188792 0.016096412841648984 0.9876057864591749 0.15542617578058318 0.0 0.0 0.0 0.0 0.0 0.0 0.0 0.0 0.0 0.00045448093688969 -0.00049138147620128 0.00098654047163071 0.0 0.0 0.0 0.0 0.0 0.0 0.0 0.0 0.0 0.0086015004788575 0.0039867026012962 9.8199363844945 0.0 0.0 0.0 0.0 0.0 0.0 0.0 0.0 0.0
1317065162464709043 0 1317065162464709043 imu_link -0.014756668973031482 0.016077839512106538 0.9876009051029742 0.15546123644571197 0.0 0.0 0.0 0.0 0.0 0.0 0.0 0.0 0.0 -0.0003742086228673 -0.0011767258563798 -0.0004187708113954 0.0 0.0 0.0 0.0 0.0 0.0 0.0 0.0 0.0 0.00576361225721 0.0022672769423371 9.8141976576301 0.0 0.0 0.0 0.0 0.0 0.0 0.0 0.0 0.0
1317065162564723014 0 1317065162564723014 imu_link -0.014802606252417028 0.016109452762890712 0.9876030582545 0.15543991670795013 0.0 0.0 0.0 0.0 0.0 0.0 0.0 0.0 0.0 0.0003081274103718 0.00041821372806368 -0.00018349566774133 0.0 0.0 0.0 0.0 0.0 0.0 0.0 0.0 0.0 -0.0014919102753014 0.010354589716371 9.8060369134347 0.0 0.0 0.0 0.0 0.0 0.0 0.0 0.0 0.0
1317065162664904117 0 1317065162664904117 imu_link -0.014749938289851237 0.016116753417394724 0.9876048658762292 0.15543268149692274 0.0 0.0 0.0 0.0 0.0 0.0 0.0 0.0 0.0 0.00026087225943215 -0.00088217525490784 -0.00013299331963855 0.0 0.0 0.0 0.0 0.0 0.0 0.0 0.0 0.0 0.00050563612044927 0.0038220621173966 9.8132494784651 0.0 0.0 0.0 0.0 0.0 0.0 0.0 0.0 0.0
1317065162774734973 0 1317065162774734973 imu_link -0.014787993472961693 0.016110852826471345 0.9876064559622191 0.15541957345197274 0.0 0.0 0.0 0.0 0.0 0.0 0.0 0.0 0.0 -0.00016969480556292 0.00075564099043488 -0.00079206329547242 0.0 0.0 0.0 0.0 0.0 0.0 0.0 0.0 0.0 -0.0075985971628774 0.011811353143762 9.7987714966037 0.0 0.0 0.0 0.0 0.0 0.0 0.0 0.0 0.0
1317065162874733924 0 1317065162874733924 imu_link -0.01474356298725699 0.01610851536419685 0.9876156133085999 0.15536583740410917 0.0 0.0 0.0 0.0 0.0 0.0 0.0 0.0 0.0 0.00018152088822694 -0.00040797008516532 0.00024215382883057 0.0 0.0 0.0 0.0 0.0 0.0 0.0 0.0 0.0 0.0085970634611241 0.0015399339329 9.8215771085571 0.0 0.0 0.0 0.0 0.0 0.0 0.0 0.0 0.0
1317065162974729061 0 1317065162974729061 imu_link -0.014766303104426472 0.016131612364874683 0.9876211759418685 0.15532591608079685 0.0 0.0 0.0 0.0 0.0 0.0 0.0 0.0 0.0 0.00049968414478539 0.00011235220823827 0.00023656723583732 0.0 0.0 0.0 0.0 0.0 0.0 0.0 0.0 0.0 -0.0076391039170221 0.012228194443942 9.8007931397798 0.0 0.0 0.0 0.0 0.0 0.0 0.0 0.0 0.0
1317065163084731101 0 1317065163084731101 imu_link -0.014754864756683368 0.016122398050783797 0.9876245644049225 0.15530641336110676 0.0 0.0 0.0 0.0 0.0 0.0 0.0 0.0 0.0 9.772613657995e-05 0.00010664684145999 0.00051087542138345 0.0 0.0 0.0 0.0 0.0 0.0 0.0 0.0 0.0 0.0020809054321598 0.0059736437272894 9.8089594195651 0.0 0.0 0.0 0.0 0.0 0.0 0.0 0.0 0.0
1317065163184813976 0 1317065163184813976 imu_link -0.01475172765725764 0.016138690189832328 0.9876235311994253 0.15531158949434734 0.0 0.0 0.0 0.0 0.0 0.0 0.0 0.0 0.0 3.329058994871e-05 0.00016176652486865 0.00064230349209111 0.0 0.0 0.0 0.0 0.0 0.0 0.0 0.0 0.0 -0.0016939366135216 0.0033774338493305 9.8047076814844 0.0 0.0 0.0 0.0 0.0 0.0 0.0 0.0 0.0
1317065163284739971 0 1317065163284739971 imu_link -0.014783256876228387 0.01614678179118885 0.987621855582367 0.15531840563810004 0.0 0.0 0.0 0.0 0.0 0.0 0.0 0.0 0.0 -1.6070029837672e-05 0.000758132582755 0.00016441749509658 0.0 0.0 0.0 0.0 0.0 0.0 0.0 0.0 0.0 0.0054688147125836 0.0040876758428054 9.8148881235169 0.0 0.0 0.0 0.0 0.0 0.0 0.0 0.0 0.0
1317065163394743919 0 1317065163394743919 imu_link -0.014738614842233162 0.016155110564180973 0.9876301883537449 0.1552687885170027 0.0 0.0 0.0 0.0 0.0 0.0 0.0 0.0 0.0 2.3178352767779e-05 -0.00077461681737222 0.0010957122502052 0.0 0.0 0.0 0.0 0.0 0.0 0.0 0.0 0.0 0.0057265448169247 -0.0038599595805838 9.8148608476779 0.0 0.0 0.0 0.0 0.0 0.0 0.0 0.0 0.0
1317065163494762897 0 1317065163494762897 imu_link -0.014786927589804414 0.016170596696126475 0.987630739077617 0.15525907961837507 0.0 0.0 0.0 0.0 0.0 0.0 0.0 0.0 0.0 -0.00014243244858476 0.00077163268186685 0.00099479380741261 0.0 0.0 0.0 0.0 0.0 0.0 0.0 0.0 0.0 -0.0055572756294191 0.010913900130758 9.8013585167378 0.0 0.0 0.0 0.0 0.0 0.0 0.0 0.0 0.0
1317065163604809999 0 1317065163604809999 imu_link -0.014772316119048955 0.01619568168075769 0.9876300361349418 0.1552623273542817 0.0 0.0 0.0 0.0 0.0 0.0 0.0 0.0 0.0 0.00037476624082875 0.00026551822849372 0.00030040713883296 0.0 0.0 0.0 0.0 0.0 0.0 0.0 0.0 0.0 0.0073469545073363 -0.0010721285840832 9.8171092244063 0.0 0.0 0.0 0.0 0.0 0.0 0.0 0.0 0.0
1317065163704807043 0 1317065163704807043 imu_link -0.014770542708966562 0.016175523346388 0.987631766546652 0.155253590040593 0.0 0.0 0.0 0.0 0.0 0.0 0.0 0.0 0.0 -0.00018833724918733 8.9270301011402e-05 0.00036574304639221 0.0 0.0 0.0 0.0 0.0 0.0 0.0 0.0 0.0 -0.0030211025723417 0.0089190837467237 9.7989592391214 0.0 0.0 0.0 0.0 0.0 0.0 0.0 0.0 0.0
1317065163804791927 0 1317065163804791927 imu_link -0.014738414326694661 0.016185001233061037 0.9876290048243241 0.15527322276534275 0.0 0.0 0.0 0.0 0.0 0.0 0.0 0.0 0.0 0.00016696911118506 -0.00082580511076573 -0.00023737935081242 0.0 0.0 0.0 0.0 0.0 0.0 0.0 0.0 0.0 0.0080186428104601 -0.00050019639587534 9.8230807179588 0.0 0.0 0.0 0.0 0.0 0.0 0.0 0.0 0.0
1317065163904766082 0 1317065163904766082 imu_link -0.01478365500556248 0.016187225297385505 0.9876401005753596 0.15519809604934548 0.0 0.0 0.0 0.0 0.0 0.0 0.0 0.0 0.0 -0.00011557697758262 0.00055777570868861 0.0018787463409317 0.0 0.0 0.0 0.0 0.0 0.0 0.0 0.0 0.0 -0.0072762661396535 0.014155841944529 9.7978703942265 0.0 0.0 0.0 0.0 0.0 0.0 0.0 0.0 0.0
1317065164014786958 0 1317065164014786958 imu_link -0.014784934000019305 0.016193774535190313 0.9876374725540753 0.15521401418659536 0.0 0.0 0.0 0.0 0.0 0.0 0.0 0.0 0.0 0.00036691523622345 0.00055889062055062 0.00037859284198093 0.0 0.0 0.0 0.0 0.0 0.0 0.0 0.0 0.0 0.0010169135389117 0.0087635072294806 9.8099389085157 0.0 0.0 0.0 0.0 0.0 0.0 0.0 0.0 0.0
1317065164114758014 0 1317065164114758014 imu_link -0.01475174615837019 0.016174406693132495 0.9876292991910005 0.15527118835410955 0.0 0.0 0.0 0.0 0.0 0.0 0.0 0.0 0.0 -0.0001783611805599 -0.00076010675455579 -0.00014814957410687 0.0 0.0 0.0 0.0 0.0 0.0 0.0 0.0 0.0 0.00027678027270681 0.00056994895883272 9.8084317661475 0.0 0.0 0.0 0.0 0.0 0.0 0.0 0.0 0.0
1317065164224845886 0 1317065164224845886 imu_link -0.014759909397340353 0.016181961266586345 0.987631740102543 0.15525409864532488 0.0 0.0 0.0 0.0 0.0 0.0 0.0 0.0 0.0 0.00010252753020847 -0.00024398496334536 0.00023964595478965 0.0 0.0 0.0 0.0 0.0 0.0 0.0 0.0 0.0 -0.0072146719570812 0.013542228128198 9.8033494491258 0.0 0.0 0.0 0.0 0.0 0.0 0.0 0.0 0.0
1317065164324821949 0 1317065164324821949 imu_link -0.014752710677869433 0.016190757966563853 0.9876288961301721 0.15527195629868543 0.0 0.0 0.0 0.0 0.0 0.0 0.0 0.0 0.0 0.0002429038409416 -0.00030376668591447 -0.00021869820063848 0.0 0.0 0.0 0.0 0.0 0.0 0.0 0.0 0.0 0.0087986880505971 -0.001437030492167 9.8147380800455 0.0 0.0 0.0 0.0 0.0 0.0 0.0 0.0 0.0
1317065164424833059 0 1317065164424833059 imu_link -0.014777710435148418 0.01619170488813705 0.9876324298378663 0.15524700158026394 0.0 0.0 0.0 0.0 0.0 0.0 0.0 0.0 0.0 -2.997843615496e-05 0.0002879601356332 0.00073219070877958 0.0 0.0 0.0 0.0 0.0 0.0 0.0 0.0 0.0 -0.0064959367012982 0.011548972134956 9.8033026456019 0.0 0.0 0.0 0.0 0.0 0.0 0.0 0.0 0.0
1317065164534794092 0 1317065164534794092 imu_link -0.014770177811839735 0.01620217996479506 0.9876231159533218 0.15530586610442923 0.0 0.0 0.0 0.0 0.0 0.0 0.0 0.0 0.0 0.00057992177472513 0.00012104323883536 -0.0012347347662348 0.0 0.0 0.0 0.0 0.0 0.0 0.0 0.0 0.0 0.009219342347013 -0.00075301627124922 9.8214749710174 0.0 0.0 0.0 0.0 0.0 0.0 0.0 0.0 0.0
1317065164635011911 0 1317065164635011911 imu_link -0.014804383444971068 0.0161877396281763 0.9876234532445703 0.15530197010281213 0.0 0.0 0.0 0.0 0.0 0.0 0.0 0.0 0.0 -0.00012869909797351 0.0012096820119166 -0.00058457949308691 0.0 0.0 0.0 0.0 0.0 0.0 0.0 0.0 0.0 -0.003049048189004 0.0091595379985152 9.7928263165694 0.0 0.0 0.0 0.0 0.0 0.0 0.0 0.0 0.0
1317065164734847068 0 1317065164734847068 imu_link -0.014781134086696936 0.016195765954434897 0.9876324522871207 0.15524610922528403 0.0 0.0 0.0 0.0 0.0 0.0 0.0 0.0 0.0 0.00049665929403058 0.00010041494524042 0.00053694011624384 0.0 0.0 0.0 0.0 0.0 0.0 0.0 0.0 0.0 0.0050963314423079 -0.0010308799379746 9.8221312389427 0.0 0.0 0.0 0.0 0.0 0.0 0.0 0.0 0.0
1317065164844993114 0 1317065164844993114 imu_link -0.014789041047274925 0.016173423185406897 0.9876309615849348 0.1552571684856605 0.0 0.0 0.0 0.0 0.0 0.0 0.0 0.0 0.0 -0.00027628446135978 4.1621357155576e-05 -0.00045500932979108 0.0 0.0 0.0 0.0 0.0 0.0 0.0 0.0 0.0 -0.0045613169253744 0.0046545707061437 9.7998795323753 0.0 0.0 0.0 0.0 0.0 0.0 0.0 0.0 0.0
1317065164944837093 0 1317065164944837093 imu_link -0.014789006219140994 0.016194811063133772 0.9876338167048312 0.1552367787952572 0.0 0.0 0.0 0.0 0.0 0.0 0.0 0.0 0.0 0.00027976202092844 0.00052172837006446 -0.00053782407496032 0.0 0.0 0.0 0.0 0.0 0.0 0.0 0.0 0.0 0.01365380409361 0.0012350175037995 9.8178826599503 0.0 0.0 0.0 0.0 0.0 0.0 0.0 0.0 0.0
1317065165044864892 0 1317065165044864892 imu_link -0.014799461756553469 0.01620185687033813 0.9876439876895665 0.15517032366506447 0.0 0.0 0.0 0.0 0.0 0.0 0.0 0.0 0.0 -8.9430444565968e-05 0.00032639567246504 0.00084692645762864 0.0 0.0 0.0 0.0 0.0 0.0 0.0 0.0 0.0 -0.0050766348461635 0.013706460009509 9.799950214708 0.0 0.0 0.0 0.0 0.0 0.0 0.0 0.0 0.0
1317065165155108928 0 1317065165155108928 imu_link -0.014809130310756735 0.01621416734700672 0.9876375445311499 0.1552091204445253 0.0 0.0 0.0 0.0 0.0 0.0 0.0 0.0 0.0 8.9284083364855e-05 0.00073918150208803 -0.00065405434932102 0.0 0.0 0.0 0.0 0.0 0.0 0.0 0.0 0.0 0.00077421502933265 0.0069722844575563 9.8103503245489 0.0 0.0 0.0 0.0 0.0 0.0 0.0 0.0 0.0
1317065165254817962 0 1317065165254817962 imu_link -0.014764579648394891 0.01622083168373488 0.9876382996657926 0.1552078633335194 0.0 0.0 0.0 0.0 0.0 0.0 0.0 0.0 0.0 -1.9523918072425e-06 -0.00064734584638987 -0.00036620334520925 0.0 0.0 0.0 0.0 0.0 0.0 0.0 0.0 0.0 -0.0010152023049752 0.0052213370550312 9.8015527336414 0.0 0.0 0.0 0.0 0.0 0.0 0.0 0.0 0.0
1317065165354795932 0 1317065165354795932 imu_link -0.014781403577269288 0.01624130147480306 0.987641050682489 0.15518661424710484 0.0 0.0 0.0 0.0 0.0 0.0 0.0 0.0 0.0 0.00020235442701499 0.00017620666053915 -0.00019410435143235 0.0 0.0 0.0 0.0 0.0 0.0 0.0 0.0 0.0 0.0112437624021 -0.0007023390940234 9.8211975981242 0.0 0.0 0.0 0.0 0.0 0.0 0.0 0.0 0.0
1317065165464827060 0 1317065165464827060 imu_link -0.014779829268382217 0.016259446738531684 0.98764367937393 0.15516813342719607 0.0 0.0 0.0 0.0 0.0 0.0 0.0 0.0 0.0 0.00020299960356379 0.00030825884645836 -4.7569494537805e-05 0.0 0.0 0.0 0.0 0.0 0.0 0.0 0.0 0.0 -0.00046475260703344 -0.0054722652560444 9.8084544410476 0.0 0.0 0.0 0.0 0.0 0.0 0.0 0.0 0.0
1317065165564841985 0 1317065165564841985 imu_link -0.014787363301928334 0.016266201138729675 0.9876433503920697 0.15516880167552613 0.0 0.0 0.0 0.0 0.0 0.0 0.0 0.0 0.0 1.2109779164543e-05 0.00040175429296351 7.3904899525247e-06 0.0 0.0 0.0 0.0 0.0 0.0 0.0 0.0 0.0 0.00079384631582619 0.0094812621852031 9.8038296662877 0.0 0.0 0.0 0.0 0.0 0.0 0.0 0.0 0.0
1317065165675028085 0 1317065165675028085 imu_link -0.014750836107151676 0.01625380295138 0.9876496112148665 0.1551337235770513 0.0 0.0 0.0 0.0 0.0 0.0 0.0 0.0 0.0 -0.00069865698644346 -0.00053172319053841 0.00054863386769545 0.0 0.0 0.0 0.0 0.0 0.0 0.0 0.0 0.0 0.012075702495705 -0.0052031852777187 9.8224208010276 0.0 0.0 0.0 0.0 0.0 0.0 0.0 0.0 0.0
1317065165774844884 0 1317065165774844884 imu_link -0.014807877182943213 0.016289117521868693 0.9876518864472094 0.15511009838486428 0.0 0.0 0.0 0.0 0.0 0.0 0.0 0.0 0.0 -9.139856098942e-05 0.0012201436244639 0.00068033850462422 0.0 0.0 0.0 0.0 0.0 0.0 0.0 0.0 0.0 -0.0056764532101596 0.0097947928303822 9.7933650802256 0.0 0.0 0.0 0.0 0.0 0.0 0.0 0.0 0.0
1317065165874872922 0 1317065165874872922 imu_link -0.014742949168923918 0.01628226458392963 0.9876505940396011 0.15512523135533 0.0 0.0 0.0 0.0 0.0 0.0 0.0 0.0 0.0 -0.00029352170897588 -0.00080450576643965 -5.5589604676623e-05 0.0 0.0 0.0 0.0 0.0 0.0 0.0 0.0 0.0 0.0022822385540425 -0.011987006330618 9.8154635198092 0.0 0.0 0.0 0.0 0.0 0.0 0.0 0.0 0.0
1317065165974857091 0 1317065165974857091 imu_link -0.014761233186302986 0.016324026581721367 0.9876500429559675 0.1551226121494042 0.0 0.0 0.0 0.0 0.0 0.0 0.0 0.0 0.0 -2.7093796320824e-05 0.00030078973403539 -3.4483315678593e-05 0.0 0.0 0.0 0.0 0.0 0.0 0.0 0.0 0.0 0.0019971050596097 0.012279520207319 9.8093549598709 0.0 0.0 0.0 0.0 0.0 0.0 0.0 0.0 0.0
1317065166084853887 0 1317065166084853887 imu_link -0.01475540067293164 0.01633475453667263 0.9876544308622196 0.155094097706628 0.0 0.0 0.0 0.0 0.0 0.0 0.0 0.0 0.0 -3.306796835121e-05 -0.00018848021122318 0.00029873192350749 0.0 0.0 0.0 0.0 0.0 0.0 0.0 0.0 0.0 0.0069493228685955 -0.0034744728308675 9.8170829487768 0.0 0.0 0.0 0.0 0.0 0.0 0.0 0.0 0.0
1317065166184905052 0 1317065166184905052 imu_link -0.014727581921193767 0.016359339405022162 0.9876580581251325 0.1550710500560246 0.0 0.0 0.0 0.0 0.0 0.0 0.0 0.0 0.0 0.00036064709852216 -0.00097335947733656 0.00029500035801927 0.0 0.0 0.0 0.0 0.0 0.0 0.0 0.0 0.0 -0.0076464000750187 0.0069219749509964 9.8046201559761 0.0 0.0 0.0 0.0 0.0 0.0 0.0 0.0 0.0
1317065166294842958 0 1317065166294842958 imu_link -0.014753374281372054 0.01636802057378244 0.9876611931573305 0.15504771323966104 0.0 0.0 0.0 0.0 0.0 0.0 0.0 0.0 0.0 0.0001219312606968 -3.1978739753264e-05 0.00039161494434132 0.0 0.0 0.0 0.0 0.0 0.0 0.0 0.0 0.0 0.0063106170577395 0.0036605061469398 9.8167438086597 0.0 0.0 0.0 0.0 0.0 0.0 0.0 0.0 0.0
1317065166394805908 0 1317065166394805908 imu_link -0.014749700035804765 0.016349702240536102 0.9876619133510808 0.15504540786873258 0.0 0.0 0.0 0.0 0.0 0.0 0.0 0.0 0.0 -0.00088880201318317 -0.00053381474749967 6.8446685104406e-05 0.0 0.0 0.0 0.0 0.0 0.0 0.0 0.0 0.0 -0.0042039562440483 0.0026148094523735 9.8003166242158 0.0 0.0 0.0 0.0 0.0 0.0 0.0 0.0 0.0
1317065166494882106 0 1317065166494882106 imu_link -0.014780325484865334 0.01637764786670199 0.9876619645913413 0.1550392154536647 0.0 0.0 0.0 0.0 0.0 0.0 0.0 0.0 0.0 1.2514184474267e-05 0.00039543230181158 -0.00032132189663647 0.0 0.0 0.0 0.0 0.0 0.0 0.0 0.0 0.0 0.0067593581879948 -0.0037436355297534 9.8201333309469 0.0 0.0 0.0 0.0 0.0 0.0 0.0 0.0 0.0
1317065166604878902 0 1317065166604878902 imu_link -0.01475313859598339 0.016393838548571595 0.9876693055300929 0.154993322026838 0.0 0.0 0.0 0.0 0.0 0.0 0.0 0.0 0.0 0.00050870037469923 -0.0001995732815679 0.0002129372729327 0.0 0.0 0.0 0.0 0.0 0.0 0.0 0.0 0.0 0.0061983232654098 -0.0041057528966475 9.8106053092641 0.0 0.0 0.0 0.0 0.0 0.0 0.0 0.0 0.0
1317065166704905033 0 1317065166704905033 imu_link -0.014759326955097388 0.01638047024068011 0.9876755040291773 0.15495464240621296 0.0 0.0 0.0 0.0 0.0 0.0 0.0 0.0 0.0 -9.4955065996519e-05 0.00016809128524858 0.00033053953720028 0.0 0.0 0.0 0.0 0.0 0.0 0.0 0.0 0.0 -0.0003953644101665 0.0063084163746244 9.804909682321 0.0 0.0 0.0 0.0 0.0 0.0 0.0 0.0 0.0
1317065166804852962 0 1317065166804852962 imu_link -0.014733863568166736 0.01638748046907681 0.987686085955078 0.15488886131342275 0.0 0.0 0.0 0.0 0.0 0.0 0.0 0.0 0.0 0.00030321203755374 -0.00085069922809262 0.0006130722534796 0.0 0.0 0.0 0.0 0.0 0.0 0.0 0.0 0.0 0.001129365749727 -0.004894414352383 9.8107276533364 0.0 0.0 0.0 0.0 0.0 0.0 0.0 0.0 0.0
1317065166914922952 0 1317065166914922952 imu_link -0.014702457460708179 0.01634767965557585 0.9876962613283796 0.15483115472163847 0.0 0.0 0.0 0.0 0.0 0.0 0.0 0.0 0.0 -0.00023272529025572 -0.0011686027069356 0.00055890651670118 0.0 0.0 0.0 0.0 0.0 0.0 0.0 0.0 0.0 0.12851031495383 0.020206451764623 9.7293567872271 0.0 0.0 0.0 0.0 0.0 0.0 0.0 0.0 0.0
1317065167014867067 0 1317065167014867067 imu_link -0.01450095243171462 0.016271373843158368 0.9877128080313683 0.1547526207294035 0.0 0.0 0.0 0.0 0.0 0.0 0.0 0.0 0.0 -0.00033284729438327 -0.0035592342566576 0.0010046067309876 0.0 0.0 0.0 0.0 0.0 0.0 0.0 0.0 0.0 0.1681558319207 -0.01278873197399 9.7759949088861 0.0 0.0 0.0 0.0 0.0 0.0 0.0 0.0 0.0
1317065167114837884 0 1317065167114837884 imu_link -0.014369828511733745 0.01623912617347055 0.9877259573279462 0.15468429794344876 0.0 0.0 0.0 0.0 0.0 0.0 0.0 0.0 0.0 0.00011455145745322 -0.0025711215452928 0.00080655674492578 0.0 0.0 0.0 0.0 0.0 0.0 0.0 0.0 0.0 0.16216727244868 0.013618876756784 9.8336637443133 0.0 0.0 0.0 0.0 0.0 0.0 0.0 0.0 0.0
1317065167225128889 0 1317065167225128889 imu_link -0.014268448193283503 0.016248390813045473 0.9877246064550337 0.15470133478865272 0.0 0.0 0.0 0.0 0.0 0.0 0.0 0.0 0.0 0.00059299438280037 -0.001064145592636 -0.00080819979025717 0.0 0.0 0.0 0.0 0.0 0.0 0.0 0.0 0.0 0.09708738148166 -0.012830625263196 9.8939218003939 0.0 0.0 0.0 0.0 0.0 0.0 0.0 0.0 0.0
1317065167324963092 0 1317065167324963092 imu_link -0.014352348626983306 0.016267940905178864 0.9877333444820087 0.1546357151048258 0.0 0.0 0.0 0.0 0.0 0.0 0.0 0.0 0.0 -2.5125016965402e-05 0.0012258859624163 -0.00024841701955849 0.0 0.0 0.0 0.0 0.0 0.0 0.0 0.0 0.0 0.06469666095114 0.011467300594502 9.8250804676333 0.0 0.0 0.0 0.0 0.0 0.0 0.0 0.0 0.0
1317065167424912929 0 1317065167424912929 imu_link -0.014427280047779737 0.016291962227378096 0.9877346318548006 0.1546179892246247 0.0 0.0 0.0 0.0 0.0 0.0 0.0 0.0 0.0 0.00040473533543042 0.0012298472740262 -0.00072439429154 0.0 0.0 0.0 0.0 0.0 0.0 0.0 0.0 0.0 0.025180429090152 0.014958333489609 9.8029478955664 0.0 0.0 0.0 0.0 0.0 0.0 0.0 0.0 0.0
1317065167534904003 0 1317065167534904003 imu_link -0.01444015672024317 0.016227827161165075 0.9877390433279426 0.15459534852356602 0.0 0.0 0.0 0.0 0.0 0.0 0.0 0.0 0.0 -0.00060022028404589 -0.00014656259010223 -0.00060539550720553 0.0 0.0 0.0 0.0 0.0 0.0 0.0 0.0 0.0 0.010399990802989 -0.014662455004314 9.791054263714 0.0 0.0 0.0 0.0 0.0 0.0 0.0 0.0 0.0
1317065167635086059 0 1317065167635086059 imu_link -0.01445134631102869 0.01624608812428711 0.9877539718061886 0.15449697211128624 0.0 0.0 0.0 0.0 0.0 0.0 0.0 0.0 0.0 0.00052366176042662 -0.00010649741715936 0.0010126054262354 0.0 0.0 0.0 0.0 0.0 0.0 0.0 0.0 0.0 -0.011080426671578 -0.011056028446229 9.8144641887525 0.0 0.0 0.0 0.0 0.0 0.0 0.0 0.0 0.0
1317065167744981050 0 1317065167744981050 imu_link -0.014452040080882668 0.01624216104527977 0.9877493229301388 0.1545270390356725 0.0 0.0 0.0 0.0 0.0 0.0 0.0 0.0 0.0 -8.2892068185756e-05 -0.00013950276195686 -0.0011042072607182 0.0 0.0 0.0 0.0 0.0 0.0 0.0 0.0 0.0 -0.014018677780554 -0.0071031366546672 9.816960776226 0.0 0.0 0.0 0.0 0.0 0.0 0.0 0.0 0.0
1317065167844963073 0 1317065167844963073 imu_link -0.014482870922208776 0.016285168378413775 0.9877548883497882 0.1544840453957448 0.0 0.0 0.0 0.0 0.0 0.0 0.0 0.0 0.0 0.00050747980841911 0.00080829374013159 7.9356215081072e-05 0.0 0.0 0.0 0.0 0.0 0.0 0.0 0.0 0.0 -0.039826681709042 0.0095021438983587 9.7961360023649 0.0 0.0 0.0 0.0 0.0 0.0 0.0 0.0 0.0
1317065167944896936 0 1317065167944896936 imu_link -0.014474864669626393 0.01625156223952598 0.9877600563028573 0.154455288644148 0.0 0.0 0.0 0.0 0.0 0.0 0.0 0.0 0.0 -0.00033390426752245 -0.00010695156786826 1.6226652792867e-05 0.0 0.0 0.0 0.0 0.0 0.0 0.0 0.0 0.0 -0.036867220466122 -0.0021817110380074 9.8125222995537 0.0 0.0 0.0 0.0 0.0 0.0 0.0 0.0 0.0
1317065168044974088 0 1317065168044974088 imu_link -0.014487590067589373 0.016247865607001657 0.9877655589446322 0.15441929011638605 0.0 0.0 0.0 0.0 0.0 0.0 0.0 0.0 0.0 -5.1811258260783e-05 0.00040493531915281 0.00014289179305382 0.0 0.0 0.0 0.0 0.0 0.0 0.0 0.0 0.0 -0.056744081169525 0.00098102367705327 9.810343055748 0.0 0.0 0.0 0.0 0.0 0.0 0.0 0.0 0.0
1317065168155154943 0 1317065168155154943 imu_link -0.014498981435855623 0.01626178643617664 0.9877696668578904 0.15439047598436575 0.0 0.0 0.0 0.0 0.0 0.0 0.0 0.0 0.0 0.00013819313477351 0.00050999227786779 0.00070527798341147 0.0 0.0 0.0 0.0 0.0 0.0 0.0 0.0 0.0 -0.061535213520649 -0.014667287219165 9.8105440001732 0.0 0.0 0.0 0.0 0.0 0.0 0.0 0.0 0.0
1317065168254976987 0 1317065168254976987 imu_link -0.014504022804269122 0.016272610363237832 0.9877655208640098 0.15441538545983852 0.0 0.0 0.0 0.0 0.0 0.0 0.0 0.0 0.0 0.0002559288677366 0.00029668828882967 0.00030493667242615 0.0 0.0 0.0 0.0 0.0 0.0 0.0 0.0 0.0 -0.080625510663852 0.017514744085955 9.8097349431659 0.0 0.0 0.0 0.0 0.0 0.0 0.0 0.0 0.0
1317065168354933023 0 1317065168354933023 imu_link -0.014479939666031954 0.01625381965682481 0.9877695828610984 0.15439363933868241 0.0 0.0 0.0 0.0 0.0 0.0 0.0 0.0 0.0 -0.00010866777372043 -0.0003656920841491 0.00056546444590153 0.0 0.0 0.0 0.0 0.0 0.0 0.0 0.0 0.0 -0.072954981344779 -0.0027110817583134 9.8195247258415 0.0 0.0 0.0 0.0 0.0 0.0 0.0 0.0 0.0
1317065168464952945 0 1317065168464952945 imu_link -0.014479713560264763 0.016243542971429527 0.9877663074812135 0.15441569548422543 0.0 0.0 0.0 0.0 0.0 0.0 0.0 0.0 0.0 -0.00056690815389148 -0.00036191749621498 -0.00045590118767776 0.0 0.0 0.0 0.0 0.0 0.0 0.0 0.0 0.0 -0.089375360236326 0.001819512501932 9.8065771447769 0.0 0.0 0.0 0.0 0.0 0.0 0.0 0.0 0.0
1317065168564963102 0 1317065168564963102 imu_link -0.014494254343624948 0.016271398015601804 0.9877674761215545 0.15440392259944227 0.0 0.0 0.0 0.0 0.0 0.0 0.0 0.0 0.0 0.00027770096879001 0.00021838666684648 -0.00050890283972145 0.0 0.0 0.0 0.0 0.0 0.0 0.0 0.0 0.0 -0.10198860673913 -9.3030669952799e-05 9.8207141679248 0.0 0.0 0.0 0.0 0.0 0.0 0.0 0.0 0.0
1317065168675160884 0 1317065168675160884 imu_link -0.014433295731222174 0.01624975326743958 0.9877734935384433 0.15437341401919297 0.0 0.0 0.0 0.0 0.0 0.0 0.0 0.0 0.0 -0.00023390551835398 -0.0011993997950547 2.9506655609542e-05 0.0 0.0 0.0 0.0 0.0 0.0 0.0 0.0 0.0 -0.086612839850416 -0.0027569978200387 9.8043755372311 0.0 0.0 0.0 0.0 0.0 0.0 0.0 0.0 0.0
1317065168774935960 0 1317065168774935960 imu_link -0.014402954382958626 0.016278475369792947 0.9877728930516367 0.15437706402531848 0.0 0.0 0.0 0.0 0.0 0.0 0.0 0.0 0.0 0.0010508964022361 -0.00062997174789901 -0.00026507292567288 0.0 0.0 0.0 0.0 0.0 0.0 0.0 0.0 0.0 0.02166920553431 0.006743955679119 9.8103496207372 0.0 0.0 0.0 0.0 0.0 0.0 0.0 0.0 0.0
1317065168874941110 0 1317065168874941110 imu_link -0.01438090479460341 0.016241538112750933 0.9877795781107375 0.1543402315807313 0.0 0.0 0.0 0.0 0.0 0.0 0.0 0.0 0.0 0.00029145907889335 -0.0005660483361532 0.00026099278880259 0.0 0.0 0.0 0.0 0.0 0.0 0.0 0.0 0.0 0.032080464479986 -0.00060460519160125 9.8209392913228 0.0 0.0 0.0 0.0 0.0 0.0 0.0 0.0 0.0
1317065168984967947 0 1317065168984967947 imu_link -0.01448643441692593 0.016235737932311072 0.9877824000778294 0.1543129097909836 0.0 0.0 0.0 0.0 0.0 0.0 0.0 0.0 0.0 -0.00010950238657905 0.0012617714693586 0.00022425304759536 0.0 0.0 0.0 0.0 0.0 0.0 0.0 0.0 0.0 -0.030161143672613 0.011189669730225 9.791121883457 0.0 0.0 0.0 0.0 0.0 0.0 0.0 0.0 0.0
1317065169084964990 0 1317065169084964990 imu_link -0.01441642085359058 0.016229047891099663 0.987786732025474 0.15429243937651335 0.0 0.0 0.0 0.0 0.0 0.0 0.0 0.0 0.0 0.00023732953646422 -0.0011184202351699 1.9107704310042e-05 0.0 0.0 0.0 0.0 0.0 0.0 0.0 0.0 0.0 -0.013489765701839 -0.0025085339749862 9.7994752355267 0.0 0.0 0.0 0.0 0.0 0.0 0.0 0.0 0.0
1317065169185192108 0 1317065169185192108 imu_link -0.014405586868973558 0.016227326891380345 0.9877872459599932 0.15429034204282677 0.0 0.0 0.0 0.0 0.0 0.0 0.0 0.0 0.0 0.00056136353609211 0.00016827699877171 0.00044480548842504 0.0 0.0 0.0 0.0 0.0 0.0 0.0 0.0 0.0 0.027338256750615 -0.0014642345059067 9.8197712466459 0.0 0.0 0.0 0.0 0.0 0.0 0.0 0.0 0.0
1317065169294966936 0 1317065169294966936 imu_link -0.014430194886787474 0.01620203096868619 0.9877807739695854 0.15433212965570667 0.0 0.0 0.0 0.0 0.0 0.0 0.0 0.0 0.0 -0.00025759910121868 0.00011432973306577 3.9991621229922e-05 0.0 0.0 0.0 0.0 0.0 0.0 0.0 0.0 0.0 0.0064168195666865 -0.0031008658797831 9.8159035565238 0.0 0.0 0.0 0.0 0.0 0.0 0.0 0.0 0.0
1317065169395010948 0 1317065169395010948 imu_link -0.014441236926045745 0.016208852480804167 0.9877800828779629 0.15433480374467137 0.0 0.0 0.0 0.0 0.0 0.0 0.0 0.0 0.0 -0.00010525291356579 0.00020884432369252 0.00019962137768009 0.0 0.0 0.0 0.0 0.0 0.0 0.0 0.0 0.0 -0.035255574131608 0.013386027464965 9.7973781518331 0.0 0.0 0.0 0.0 0.0 0.0 0.0 0.0 0.0
1317065169504977941 0 1317065169504977941 imu_link -0.014395906216898673 0.016207811460334842 0.9877812887971569 0.1543314298323201 0.0 0.0 0.0 0.0 0.0 0.0 0.0 0.0 0.0 0.0001755912452604 -0.00037539931646553 -6.6732358103491e-05 0.0 0.0 0.0 0.0 0.0 0.0 0.0 0.0 0.0 0.025090692633337 -0.0055094565150588 9.8200727952317 0.0 0.0 0.0 0.0 0.0 0.0 0.0 0.0 0.0
1317065169605036973 0 1317065169605036973 imu_link -0.014403672393550107 0.016206946752618145 0.9877816443103821 0.15432852057223603 0.0 0.0 0.0 0.0 0.0 0.0 0.0 0.0 0.0 -0.00017139336739199 8.9165641257888e-05 2.4557096806675e-05 0.0 0.0 0.0 0.0 0.0 0.0 0.0 0.0 0.0 0.0063864602917473 0.0044530441352723 9.8082581525862 0.0 0.0 0.0 0.0 0.0 0.0 0.0 0.0 0.0
1317065169705064058 0 1317065169705064058 imu_link -0.014417276395124135 0.016217047822319173 0.9877868682281207 0.15429274920538735 0.0 0.0 0.0 0.0 0.0 0.0 0.0 0.0 0.0 -0.00050013241394773 0.00028673744515336 0.00036787934147352 0.0 0.0 0.0 0.0 0.0 0.0 0.0 0.0 0.0 -0.014653457177583 0.0025044054765167 9.8158819728807 0.0 0.0 0.0 0.0 0.0 0.0 0.0 0.0 0.0
1317065169804991960 0 1317065169804991960 imu_link -0.01439443563036771 0.016218475533021404 0.9877832709969019 0.1543177592272809 0.0 0.0 0.0 0.0 0.0 0.0 0.0 0.0 0.0 -0.00026707356891464 -0.00054536898352547 -0.00049440990547377 0.0 0.0 0.0 0.0 0.0 0.0 0.0 0.0 0.0 -0.008078165484191 0.009855836689262 9.7936805180936 0.0 0.0 0.0 0.0 0.0 0.0 0.0 0.0 0.0
1317065169915023088 0 1317065169915023088 imu_link -0.014403919281244053 0.016243450964515824 0.9877851931234464 0.15430194313805173 0.0 0.0 0.0 0.0 0.0 0.0 0.0 0.0 0.0 0.00047120974449078 0.0007441446270952 0.00021778393688331 0.0 0.0 0.0 0.0 0.0 0.0 0.0 0.0 0.0 0.020612504347594 -0.0022362265989847 9.8226577117705 0.0 0.0 0.0 0.0 0.0 0.0 0.0 0.0 0.0
1317065170015047073 0 1317065170015047073 imu_link -0.014399509000782728 0.016242816886453893 0.9877801834024578 0.15433448842542172 0.0 0.0 0.0 0.0 0.0 0.0 0.0 0.0 0.0 8.2864979889666e-05 -0.0001657135167734 -0.00077956567318734 0.0 0.0 0.0 0.0 0.0 0.0 0.0 0.0 0.0 -0.010780174384669 0.0020727785968552 9.7942113446763 0.0 0.0 0.0 0.0 0.0 0.0 0.0 0.0 0.0
1317065170115009069 0 1317065170115009069 imu_link -0.014405076088407333 0.016277111902746062 0.9877883164806323 0.1542782915233086 0.0 0.0 0.0 0.0 0.0 0.0 0.0 0.0 0.0 0.00054464150721156 0.00016525576142877 0.00069929434364995 0.0 0.0 0.0 0.0 0.0 0.0 0.0 0.0 0.0 -0.010175983209964 0.0067556686537187 9.811806089359 0.0 0.0 0.0 0.0 0.0 0.0 0.0 0.0 0.0
1317065170225054025 0 1317065170225054025 imu_link -0.014139386726666186 0.016204674553950693 0.9877911134775352 0.15429258699109796 0.0 0.0 0.0 0.0 0.0 0.0 0.0 0.0 0.0 -0.00021760656665296 -0.0045202145675129 0.00018419361767322 0.0 0.0 0.0 0.0 0.0 0.0 0.0 0.0 0.0 0.40148683598744 -0.00092196079883093 9.7706928834132 0.0 0.0 0.0 0.0 0.0 0.0 0.0 0.0 0.0
1317065170325088024 0 1317065170325088024 imu_link -0.013884952730970831 0.01616025935219056 0.9877981473619042 0.15427531939269656 0.0 0.0 0.0 0.0 0.0 0.0 0.0 0.0 0.0 -0.00015894351531632 -0.0047308443507828 0.00047880553640731 0.0 0.0 0.0 0.0 0.0 0.0 0.0 0.0 0.0 0.58490931678502 0.0028906974469583 9.8122353735071 0.0 0.0 0.0 0.0 0.0 0.0 0.0 0.0 0.0
1317065170425057888 0 1317065170425057888 imu_link -0.013763444018670846 0.016147970258932495 0.9877949249431155 0.154308123317881 0.0 0.0 0.0 0.0 0.0 0.0 0.0 0.0 0.0 -1.1494586565541e-05 -0.0026958229197332 -0.00091634397076779 0.0 0.0 0.0 0.0 0.0 0.0 0.0 0.0 0.0 0.59787953719536 -0.0041172001748602 9.8378175083802 0.0 0.0 0.0 0.0 0.0 0.0 0.0 0.0 0.0
1317065170535034894 0 1317065170535034894 imu_link -0.013853644849491236 0.016182179290951972 0.9878031548082395 0.1542437711827251 0.0 0.0 0.0 0.0 0.0 0.0 0.0 0.0 0.0 0.00029262251777584 0.0014048794271657 0.00042643841094877 0.0 0.0 0.0 0.0 0.0 0.0 0.0 0.0 0.0 0.56962973943594 0.0097606052793378 9.8126747008164 0.0 0.0 0.0 0.0 0.0 0.0 0.0 0.0 0.0
1317065170635243892 0 1317065170635243892 imu_link -0.013864379010479704 0.016190474421313623 0.9878071514671495 0.15421633844383198 0.0 0.0 0.0 0.0 0.0 0.0 0.0 0.0 0.0 0.00036811197658742 0.00027566211218367 0.00058389889260166 0.0 0.0 0.0 0.0 0.0 0.0 0.0 0.0 0.0 0.56179805120379 -0.0029654894458243 9.7766881804346 0.0 0.0 0.0 0.0 0.0 0.0 0.0 0.0 0.0
1317065170745098114 0 1317065170745098114 imu_link -0.013793980505391334 0.016203179956055434 0.9878234122505637 0.15411712841466232 0.0 0.0 0.0 0.0 0.0 0.0 0.0 0.0 0.0 0.00056477782341296 -0.00055797073816472 0.0017495088410895 0.0 0.0 0.0 0.0 0.0 0.0 0.0 0.0 0.0 0.55178402930016 0.011427748535729 9.8030667880064 0.0 0.0 0.0 0.0 0.0 0.0 0.0 0.0 0.0
1317065170845036029 0 1317065170845036029 imu_link -0.013813922575493829 0.01624939716767296 0.9878259337935041 0.1540943125483784 0.0 0.0 0.0 0.0 0.0 0.0 0.0 0.0 0.0 0.00065354135988528 0.00019945899875744 0.000800772207226 0.0 0.0 0.0 0.0 0.0 0.0 0.0 0.0 0.0 0.54957948208127 -0.018690009086464 9.806017695574 0.0 0.0 0.0 0.0 0.0 0.0 0.0 0.0 0.0
1317065170945020914 0 1317065170945020914 imu_link -0.01383221222304103 0.016297739693465454 0.9878250476683873 0.15409324704492855 0.0 0.0 0.0 0.0 0.0 0.0 0.0 0.0 0.0 0.00078178440182688 0.00035885293828473 0.0006286878665862 0.0 0.0 0.0 0.0 0.0 0.0 0.0 0.0 0.0 0.54153862682722 0.0055438303874883 9.7884417877899 0.0 0.0 0.0 0.0 0.0 0.0 0.0 0.0 0.0
1317065171055079936 0 1317065171055079936 imu_link -0.013783106692779695 0.01632968462731511 0.9878240437228655 0.15410070088378686 0.0 0.0 0.0 0.0 0.0 0.0 0.0 0.0 0.0 0.00041053163640573 -0.0010618202440143 0.00018391833331597 0.0 0.0 0.0 0.0 0.0 0.0 0.0 0.0 0.0 0.58919194956851 0.0046794398954898 9.7896483719786 0.0 0.0 0.0 0.0 0.0 0.0 0.0 0.0 0.0
1317065171155294895 0 1317065171155294895 imu_link -0.013682128744240409 0.016337804593465018 0.9878249755043412 0.15410286585245297 0.0 0.0 0.0 0.0 0.0 0.0 0.0 0.0 0.0 -7.9182163175802e-06 -0.0021999279193016 0.00031229835334571 0.0 0.0 0.0 0.0 0.0 0.0 0.0 0.0 0.0 0.68662529284604 -0.0082448022426047 9.7574032070569 0.0 0.0 0.0 0.0 0.0 0.0 0.0 0.0 0.0
1317065171265090942 0 1317065171265090942 imu_link -0.013471102211204955 0.016279531477290634 0.9878453754574261 0.15399681960180792 0.0 0.0 0.0 0.0 0.0 0.0 0.0 0.0 0.0 -0.00094336498095231 -0.0042171796416474 0.0016944541613991 0.0 0.0 0.0 0.0 0.0 0.0 0.0 0.0 0.0 0.85062845925613 0.014194793860214 9.7374348138054 0.0 0.0 0.0 0.0 0.0 0.0 0.0 0.0 0.0
1317065171365077972 0 1317065171365077972 imu_link -0.013121127113107936 0.016099271018407517 0.9878578872613459 0.1539657236903964 0.0 0.0 0.0 0.0 0.0 0.0 0.0 0.0 0.0 -0.0023623755430258 -0.0073739337335789 0.0013030460017442 0.0 0.0 0.0 0.0 0.0 0.0 0.0 0.0 0.0 1.0200922790622 0.010929303069932 9.7524257907897 0.0 0.0 0.0 0.0 0.0 0.0 0.0 0.0 0.0
1317065171465120077 0 1317065171465120077 imu_link -0.012771325257776139 0.015945174052492853 0.9878665148566901 0.15395581671535774 0.0 0.0 0.0 0.0 0.0 0.0 0.0 0.0 0.0 -0.0021573173521324 -0.0068138111196538 0.00044863704366126 0.0 0.0 0.0 0.0 0.0 0.0 0.0 0.0 0.0 1.0405704203742 -0.011171188638134 9.8482604004226 0.0 0.0 0.0 0.0 0.0 0.0 0.0 0.0 0.0
1317065171565120935 0 1317065171565120935 imu_link -0.012711427211637767 0.015903990322228907 0.9878732860090247 0.15392158230672306 0.0 0.0 0.0 0.0 0.0 0.0 0.0 0.0 0.0 -0.00078256781769236 -0.0019615478193208 0.00068336034275024 0.0 0.0 0.0 0.0 0.0 0.0 0.0 0.0 0.0 0.99868867551358 -0.023811251323726 9.8797854222641 0.0 0.0 0.0 0.0 0.0 0.0 0.0 0.0 0.0
1317065171675190925 0 1317065171675190925 imu_link -0.012896616250002064 0.015961097915979525 0.9878898030919374 0.15379420531863283 0.0 0.0 0.0 0.0 0.0 0.0 0.0 0.0 0.0 0.00048553681062509 0.0021855488212604 0.0027146021343313 0.0 0.0 0.0 0.0 0.0 0.0 0.0 0.0 0.0 0.9515772399871 -0.012419299136039 9.7957427726146 0.0 0.0 0.0 0.0 0.0 0.0 0.0 0.0 0.0
1317065171785115003 0 1317065171785115003 imu_link -0.01293278599361031 0.01606461214777944 0.9878948242752552 0.15374812991756193 0.0 0.0 0.0 0.0 0.0 0.0 0.0 0.0 0.0 0.0016211767340961 0.0010738144871395 0.0017200147562085 0.0 0.0 0.0 0.0 0.0 0.0 0.0 0.0 0.0 0.88808390969281 0.030104403580277 9.7904939270544 0.0 0.0 0.0 0.0 0.0 0.0 0.0 0.0 0.0
1317065171875097990 0 1317065171875097990 imu_link -0.013065886528918408 0.016068473719249524 0.9878888123017516 0.1537750997092237 0.0 0.0 0.0 0.0 0.0 0.0 0.0 0.0 0.0 0.00010168745338452 0.0023768759683246 -0.00049260642869207 0.0 0.0 0.0 0.0 0.0 0.0 0.0 0.0 0.0 0.8054614563562 0.031801065644277 9.7691669218201 0.0 0.0 0.0 0.0 0.0 0.0 0.0 0.0 0.0
1317065171985101938 0 1317065171985101938 imu_link -0.013203270707513665 0.01585580684010146 0.9879083143564126 0.15366011017028872 0.0 0.0 0.0 0.0 0.0 0.0 0.0 0.0 0.0 -0.0028633256023332 0.0015330514053399 0.0012974265442689 0.0 0.0 0.0 0.0 0.0 0.0 0.0 0.0 0.0 0.77792123064438 0.013038531023953 9.7396858954076 0.0 0.0 0.0 0.0 0.0 0.0 0.0 0.0 0.0
1317065172085117101 0 1317065172085117101 imu_link -0.013100622076630531 0.015840913531639154 0.9879299098483448 0.1535315354796189 0.0 0.0 0.0 0.0 0.0 0.0 0.0 0.0 0.0 -0.00014788386689423 -0.00090280512756442 0.0023499666787141 0.0 0.0 0.0 0.0 0.0 0.0 0.0 0.0 0.0 0.74603419589703 -0.046680484554876 9.7571117736621 0.0 0.0 0.0 0.0 0.0 0.0 0.0 0.0 0.0
1317065172185183048 0 1317065172185183048 imu_link -0.013000253416743523 0.01593084257162678 0.9879421588828153 0.15345192200823293 0.0 0.0 0.0 0.0 0.0 0.0 0.0 0.0 0.0 0.0019115885033988 -0.00091761002618002 0.0018593120500258 0.0 0.0 0.0 0.0 0.0 0.0 0.0 0.0 0.0 0.76317305335952 0.013245037346686 9.7761306335366 0.0 0.0 0.0 0.0 0.0 0.0 0.0 0.0 0.0
1317065172295124053 0 1317065172295124053 imu_link -0.012728177006566354 0.0160001179626175 0.9879639124065309 0.15332741932756816 0.0 0.0 0.0 0.0 0.0 0.0 0.0 0.0 0.0 0.0019314933445035 -0.0042734653214884 0.0024358774053267 0.0 0.0 0.0 0.0 0.0 0.0 0.0 0.0 0.0 0.86267702824982 0.018038833670087 9.7441225641882 0.0 0.0 0.0 0.0 0.0 0.0 0.0 0.0 0.0
1317065172395091056 0 1317065172395091056 imu_link -0.012573336333287694 0.01596309162722302 0.9879864938759144 0.15319849489446263 0.0 0.0 0.0 0.0 0.0 0.0 0.0 0.0 0.0 -0.00044720124262419 -0.0033245927114416 0.0012948666566216 0.0 0.0 0.0 0.0 0.0 0.0 0.0 0.0 0.0 0.97303546066945 0.039645563881907 9.7954662510117 0.0 0.0 0.0 0.0 0.0 0.0 0.0 0.0 0.0
1317065172495142936 0 1317065172495142936 imu_link -0.01259741649079328 0.015854296840817884 0.9880007018938436 0.15311616317917923 0.0 0.0 0.0 0.0 0.0 0.0 0.0 0.0 0.0 -0.0025063398098641 -0.00072428485810761 0.00092144272242525 0.0 0.0 0.0 0.0 0.0 0.0 0.0 0.0 0.0 1.0165201923288 0.030678354995472 9.7863657766412 0.0 0.0 0.0 0.0 0.0 0.0 0.0 0.0 0.0
1317065172605186939 0 1317065172605186939 imu_link -0.012536059639394855 0.015645003733402735 0.9880313018752778 0.15294517835336688 0.0 0.0 0.0 0.0 0.0 0.0 0.0 0.0 0.0 -0.0032228065484163 -0.0022065185550324 0.0025164146128728 0.0 0.0 0.0 0.0 0.0 0.0 0.0 0.0 0.0 1.0895059604086 -0.012279689754231 9.8142145484493 0.0 0.0 0.0 0.0 0.0 0.0 0.0 0.0 0.0
1317065172705226898 0 1317065172705226898 imu_link -0.012466294199915906 0.015583033293828505 0.9880397428535339 0.1529026720636598 0.0 0.0 0.0 0.0 0.0 0.0 0.0 0.0 0.0 -0.00096626181027465 -0.0022631800618602 0.001022657668873 0.0 0.0 0.0 0.0 0.0 0.0 0.0 0.0 0.0 1.1242411249962 -0.009991312540311 9.8199498709927 0.0 0.0 0.0 0.0 0.0 0.0 0.0 0.0 0.0
1317065172815159082 0 1317065172815159082 imu_link -0.012291933137169558 0.015804400262796565 0.9880494936180907 0.15283104224312363 0.0 0.0 0.0 0.0 0.0 0.0 0.0 0.0 0.0 0.0041001196885304 -0.0040824090342142 0.0013168086250316 0.0 0.0 0.0 0.0 0.0 0.0 0.0 0.0 0.0 1.1275520848388 -0.071393154454786 9.8333281453844 0.0 0.0 0.0 0.0 0.0 0.0 0.0 0.0 0.0
1317065172915143966 0 1317065172915143966 imu_link -0.011922821016076475 0.016242067708265813 0.9880741092910224 0.1526551542671633 0.0 0.0 0.0 0.0 0.0 0.0 0.0 0.0 0.0 0.0094763396523894 -0.0072384683773717 0.002278711147323 0.0 0.0 0.0 0.0 0.0 0.0 0.0 0.0 0.0 1.2378823490075 -0.0072904605440083 9.7487258014648 0.0 0.0 0.0 0.0 0.0 0.0 0.0 0.0 0.0
1317065173025166988 0 1317065173025166988 imu_link -0.011804182067405284 0.01594477223437148 0.9880683512601894 0.15273296553817248 0.0 0.0 0.0 0.0 0.0 0.0 0.0 0.0 0.0 -0.0049434732869561 -0.0022935080925397 -0.00072886020025985 0.0 0.0 0.0 0.0 0.0 0.0 0.0 0.0 0.0 1.4393484745234 0.13378349161938 9.6870425123931 0.0 0.0 0.0 0.0 0.0 0.0 0.0 0.0 0.0
1317065173125196933 0 1317065173125196933 imu_link -0.011865665240572466 0.01546195605352637 0.9881102343356425 0.15250671691620457 0.0 0.0 0.0 0.0 0.0 0.0 0.0 0.0 0.0 -0.0092149165212648 -0.001175192787495 0.0041112198857717 0.0 0.0 0.0 0.0 0.0 0.0 0.0 0.0 0.0 1.5230655844145 0.025395114014761 9.6761522118915 0.0 0.0 0.0 0.0 0.0 0.0 0.0 0.0 0.0
1317065173225176095 0 1317065173225176095 imu_link -0.011424612869993123 0.015232151677852353 0.9881597903899922 0.152242203190969 0.0 0.0 0.0 0.0 0.0 0.0 0.0 0.0 0.0 -0.00068727180722409 -0.0093633545985932 0.0045661216143929 0.0 0.0 0.0 0.0 0.0 0.0 0.0 0.0 0.0 1.6076330945739 -0.13419179834798 9.8636012076245 0.0 0.0 0.0 0.0 0.0 0.0 0.0 0.0 0.0
1317065173325215101 0 1317065173325215101 imu_link -0.010758778636073565 0.015765509952662387 0.9881538176088102 0.15227517894695405 0.0 0.0 0.0 0.0 0.0 0.0 0.0 0.0 0.0 0.010641229901251 -0.011352424298141 -0.0010185815850931 0.0 0.0 0.0 0.0 0.0 0.0 0.0 0.0 0.0 1.7407258677081 -0.063179987707789 9.8598607624485 0.0 0.0 0.0 0.0 0.0 0.0 0.0 0.0 0.0
1317065173435297012 0 1317065173435297012 imu_link -0.010383698375440478 0.01679922288381094 0.9881465259316535 0.1522379985672161 0.0 0.0 0.0 0.0 0.0 0.0 0.0 0.0 0.0 0.0173769727233 -0.0042157852995142 0.0015676298482582 0.0 0.0 0.0 0.0 0.0 0.0 0.0 0.0 0.0 1.8756473615451 -0.0069344058153928 9.7966552766712 0.0 0.0 0.0 0.0 0.0 0.0 0.0 0.0 0.0
1317065173535376071 0 1317065173535376071 imu_link -0.010413697158580383 0.01711902302067749 0.9881684428486068 0.15205795776764314 0.0 0.0 0.0 0.0 0.0 0.0 0.0 0.0 0.0 0.0075388822117164 0.00023517518948771 0.0028025041145002 0.0 0.0 0.0 0.0 0.0 0.0 0.0 0.0 0.0 2.0392716817727 0.13539724790841 9.6516202763349 0.0 0.0 0.0 0.0 0.0 0.0 0.0 0.0 0.0
1317065173645251989 0 1317065173645251989 imu_link -0.01036900058550622 0.016860979727149124 0.9881896479097991 0.15195200213687735 0.0 0.0 0.0 0.0 0.0 0.0 0.0 0.0 0.0 -0.0030358620748436 -0.0025173761125111 0.0014616984961016 0.0 0.0 0.0 0.0 0.0 0.0 0.0 0.0 0.0 2.1173132416401 0.13310847661661 9.6848782756465 0.0 0.0 0.0 0.0 0.0 0.0 0.0 0.0 0.0
1317065173745212078 0 1317065173745212078 imu_link -0.010374757235407268 0.0164062527589141 0.9882091744113668 0.15187437865526215 0.0 0.0 0.0 0.0 0.0 0.0 0.0 0.0 0.0 -0.0070585348872373 -0.0010952921693791 0.0011527478097597 0.0 0.0 0.0 0.0 0.0 0.0 0.0 0.0 0.0 2.1009916628086 0.013418754201037 9.8464504034855 0.0 0.0 0.0 0.0 0.0 0.0 0.0 0.0 0.0
1317065173845196962 0 1317065173845196962 imu_link -0.010739978889519525 0.016406306963118317 0.988231309182249 0.1517048631297718 0.0 0.0 0.0 0.0 0.0 0.0 0.0 0.0 0.0 -0.0048932596743896 0.0083059085576451 0.0038814423815521 0.0 0.0 0.0 0.0 0.0 0.0 0.0 0.0 0.0 2.1611648782683 -0.073006248610774 9.5034216612088 0.0 0.0 0.0 0.0 0.0 0.0 0.0 0.0 0.0
1317065173945374965 0 1317065173945374965 imu_link -0.010534007375712993 0.01578507664233775 0.9882570581764129 0.15161745614706096 0.0 0.0 0.0 0.0 0.0 0.0 0.0 0.0 0.0 -0.0064011133619369 -0.0021244800379889 0.00052779528147598 0.0 0.0 0.0 0.0 0.0 0.0 0.0 0.0 0.0 1.9486652597165 0.13478691096201 9.7902710858047 0.0 0.0 0.0 0.0 0.0 0.0 0.0 0.0 0.0
1317065174055182933 0 1317065174055182933 imu_link -0.010694018401285489 0.016407816593447457 0.9882556614178762 0.15154923028700829 0.0 0.0 0.0 0.0 0.0 0.0 0.0 0.0 0.0 0.0074007139482151 0.0046091783394463 0.0022153925452309 0.0 0.0 0.0 0.0 0.0 0.0 0.0 0.0 0.0 1.8105547146737 -0.33847941202529 10.049756135951 0.0 0.0 0.0 0.0 0.0 0.0 0.0 0.0 0.0
1317065174155235052 0 1317065174155235052 imu_link -0.010958809430837999 0.017364861590004416 0.9882769552182715 0.15128458567323003 0.0 0.0 0.0 0.0 0.0 0.0 0.0 0.0 0.0 0.017862496573593 0.0082069596669702 0.0037108237517225 0.0 0.0 0.0 0.0 0.0 0.0 0.0 0.0 0.0 1.813112001508 0.049548146632071 9.7595294156868 0.0 0.0 0.0 0.0 0.0 0.0 0.0 0.0 0.0
1317065174265285968 0 1317065174265285968 imu_link -0.011491730342333983 0.018488112941940745 0.9882236715273413 0.15145991168162817 0.0 0.0 0.0 0.0 0.0 0.0 0.0 0.0 0.0 0.014707616544615 0.013514602268096 -0.0028164826895318 0.0 0.0 0.0 0.0 0.0 0.0 0.0 0.0 0.0 1.5755272034235 0.20311854950429 9.5912996974288 0.0 0.0 0.0 0.0 0.0 0.0 0.0 0.0 0.0
1317065174365185976 0 1317065174365185976 imu_link -0.011659244784317105 0.01791026344244408 0.9882243052263903 0.1515123989457621 0.0 0.0 0.0 0.0 0.0 0.0 0.0 0.0 0.0 -0.0073221855963826 0.0041371761027877 -0.0016506667711014 0.0 0.0 0.0 0.0 0.0 0.0 0.0 0.0 0.0 1.5983723398952 0.064486359105803 9.6451166915646 0.0 0.0 0.0 0.0 0.0 0.0 0.0 0.0 0.0
1317065174465200901 0 1317065174465200901 imu_link -0.011568556753654662 0.017433408987707715 0.9881571904895374 0.15201187989604265 0.0 0.0 0.0 0.0 0.0 0.0 0.0 0.0 0.0 -0.0080469381561918 -0.0016153528369945 -0.0096876870652409 0.0 0.0 0.0 0.0 0.0 0.0 0.0 0.0 0.0 1.6768851936424 0.0059930411950368 9.6237824507525 0.0 0.0 0.0 0.0 0.0 0.0 0.0 0.0 0.0
1317065174565208911 0 1317065174565208911 imu_link -0.011107739648705352 0.01730589856056323 0.9880278027467553 0.15289926420466113 0.0 0.0 0.0 0.0 0.0 0.0 0.0 0.0 0.0 -0.0012940428324874 -0.0067331735778939 -0.016916231645545 0.0 0.0 0.0 0.0 0.0 0.0 0.0 0.0 0.0 1.6918766674751 -0.1613554607505 9.7504347915851 0.0 0.0 0.0 0.0 0.0 0.0 0.0 0.0 0.0
1317065174675348997 0 1317065174675348997 imu_link -0.010842665619987198 0.017477326393060863 0.9879317895876201 0.15351794288162554 0.0 0.0 0.0 0.0 0.0 0.0 0.0 0.0 0.0 0.0023443411312604 -0.0046425812477356 -0.010258142086042 0.0 0.0 0.0 0.0 0.0 0.0 0.0 0.0 0.0 1.6749458559731 -0.29885778222372 9.8143339845738 0.0 0.0 0.0 0.0 0.0 0.0 0.0 0.0 0.0
1317065174775228023 0 1317065174775228023 imu_link -0.01026870675089577 0.018238623835239724 0.9878597157775382 0.1539320895920742 0.0 0.0 0.0 0.0 0.0 0.0 0.0 0.0 0.0 0.013412420926308 -0.0085506646811279 -0.0086505508015171 0.0 0.0 0.0 0.0 0.0 0.0 0.0 0.0 0.0 1.6868674510989 0.020632080320012 9.8528490370306 0.0 0.0 0.0 0.0 0.0 0.0 0.0 0.0 0.0
1317065174875197887 0 1317065174875197887 imu_link -0.010095063938006004 0.01849991546438925 0.987779313509692 0.15442755781990353 0.0 0.0 0.0 0.0 0.0 0.0 0.0 0.0 0.0 0.0058353379403624 -0.001977574628058 -0.0089698896267293 0.0 0.0 0.0 0.0 0.0 0.0 0.0 0.0 0.0 1.6816476248278 0.03884049850142 9.8185989888376 0.0 0.0 0.0 0.0 0.0 0.0 0.0 0.0 0.0
1317065174985191106 0 1317065174985191106 imu_link -0.010185735187133787 0.01829072688493546 0.9877430067387348 0.15467854650028878 0.0 0.0 0.0 0.0 0.0 0.0 0.0 0.0 0.0 -0.0037746745142835 3.6339060737512e-05 -0.0034200885323473 0.0 0.0 0.0 0.0 0.0 0.0 0.0 0.0 0.0 1.5836098528781 -0.0056799575460705 9.6695311819665 0.0 0.0 0.0 0.0 0.0 0.0 0.0 0.0 0.0
1317065175085241079 0 1317065175085241079 imu_link -0.009998497985588049 0.01794730990860007 0.9877458955828063 0.1547125394542953 0.0 0.0 0.0 0.0 0.0 0.0 0.0 0.0 0.0 -0.0053544133834157 -0.004009960898323 -0.0012527257572821 0.0 0.0 0.0 0.0 0.0 0.0 0.0 0.0 0.0 1.6257992703335 -0.0084840961896547 9.8080200308599 0.0 0.0 0.0 0.0 0.0 0.0 0.0 0.0 0.0
1317065175185379981 0 1317065175185379981 imu_link -0.009845652577635148 0.01822211546659086 0.9877092791776306 0.15492384406426352 0.0 0.0 0.0 0.0 0.0 0.0 0.0 0.0 0.0 0.0033460339206537 -0.0024113896766858 -0.0030624767412558 0.0 0.0 0.0 0.0 0.0 0.0 0.0 0.0 0.0 1.5992774503685 -0.11896076433965 9.9674613021185 0.0 0.0 0.0 0.0 0.0 0.0 0.0 0.0 0.0
1317065175295244932 0 1317065175295244932 imu_link -0.009996652720629277 0.018708053922958486 0.9876748211821639 0.15507586290451378 0.0 0.0 0.0 0.0 0.0 0.0 0.0 0.0 0.0 0.0093833114851137 0.0020973785841346 -0.0011733211511583 0.0 0.0 0.0 0.0 0.0 0.0 0.0 0.0 0.0 1.5642878072456 -0.12449220188125 9.8119708865397 0.0 0.0 0.0 0.0 0.0 0.0 0.0 0.0 0.0
1317065175395239114 0 1317065175395239114 imu_link -0.010203253970954514 0.019444092160278603 0.9876816735966358 0.15492815279933878 0.0 0.0 0.0 0.0 0.0 0.0 0.0 0.0 0.0 0.01269688780802 0.0052859021937059 0.0028698401609604 0.0 0.0 0.0 0.0 0.0 0.0 0.0 0.0 0.0 1.506556769516 0.073568661374129 9.7879836080416 0.0 0.0 0.0 0.0 0.0 0.0 0.0 0.0 0.0
1317065175505239963 0 1317065175505239963 imu_link -0.010737147678135476 0.018402648717755613 0.9877451567333979 0.15461423456339346 0.0 0.0 0.0 0.0 0.0 0.0 0.0 0.0 0.0 -0.021368011794209 0.0055630262063061 0.0064851567750588 0.0 0.0 0.0 0.0 0.0 0.0 0.0 0.0 0.0 1.5578831803721 0.23605874238187 9.6463368527085 0.0 0.0 0.0 0.0 0.0 0.0 0.0 0.0 0.0
1317065175605299949 0 1317065175605299949 imu_link -0.010838946524700646 0.01824912630184436 0.9877975157087544 0.15429048767525247 0.0 0.0 0.0 0.0 0.0 0.0 0.0 0.0 0.0 -0.0019876386394947 0.0014369563204669 0.0063422225466605 0.0 0.0 0.0 0.0 0.0 0.0 0.0 0.0 0.0 1.642024906368 0.12180450427603 9.8319136558261 0.0 0.0 0.0 0.0 0.0 0.0 0.0 0.0 0.0
1317065175705312967 0 1317065175705312967 imu_link -0.010690356717121487 0.018486614450631263 0.9878854763161228 0.15370831806731128 0.0 0.0 0.0 0.0 0.0 0.0 0.0 0.0 0.0 0.0073504450341511 -0.0031788997861678 0.011164786019385 0.0 0.0 0.0 0.0 0.0 0.0 0.0 0.0 0.0 1.5743417270283 -0.1564523265113 9.8409469418828 0.0 0.0 0.0 0.0 0.0 0.0 0.0 0.0 0.0
1317065175815227985 0 1317065175815227985 imu_link -0.010244733951275306 0.019472540130873812 0.9879717080711112 0.15306132646155196 0.0 0.0 0.0 0.0 0.0 0.0 0.0 0.0 0.0 0.016029538094105 -0.0059850740736937 0.012793062848782 0.0 0.0 0.0 0.0 0.0 0.0 0.0 0.0 0.0 1.5407146873576 0.31620534669723 9.3557928781089 0.0 0.0 0.0 0.0 0.0 0.0 0.0 0.0 0.0
1317065175915273904 0 1317065175915273904 imu_link -0.009103649832647533 0.018578818551063653 0.988065050287423 0.15264143428795354 0.0 0.0 0.0 0.0 0.0 0.0 0.0 0.0 0.0 -0.0091354086766163 -0.024213311428543 0.0097535376646409 0.0 0.0 0.0 0.0 0.0 0.0 0.0 0.0 0.0 1.6086749289998 0.62782630294984 9.6407371413061 0.0 0.0 0.0 0.0 0.0 0.0 0.0 0.0 0.0
1317065176015239000 0 1317065176015239000 imu_link -0.009260430764763046 0.018155632354554332 0.9881258606759713 0.15228887319574072 0.0 0.0 0.0 0.0 0.0 0.0 0.0 0.0 0.0 0.002886489344185 0.0018318852983832 0.007475282602137 0.0 0.0 0.0 0.0 0.0 0.0 0.0 0.0 0.0 1.3930412747312 0.13009379691269 10.054300006872 0.0 0.0 0.0 0.0 0.0 0.0 0.0 0.0 0.0
1317065176125282049 0 1317065176125282049 imu_link -0.009257599583939697 0.01784926564428063 0.9881697510868204 0.15204026967522402 0.0 0.0 0.0 0.0 0.0 0.0 0.0 0.0 0.0 0.00047056092722133 -0.0017159520452263 0.0049434725926809 0.0 0.0 0.0 0.0 0.0 0.0 0.0 0.0 0.0 1.5964024522762 0.17456515733691 9.7453882379818 0.0 0.0 0.0 0.0 0.0 0.0 0.0 0.0 0.0
1317065176225378990 0 1317065176225378990 imu_link -0.009614901499704006 0.018270106101550387 0.9881776427198139 0.1519167644498152 0.0 0.0 0.0 0.0 0.0 0.0 0.0 0.0 0.0 0.0054756158528557 0.0027662549733111 0.0033710750056286 0.0 0.0 0.0 0.0 0.0 0.0 0.0 0.0 0.0 1.4870438104048 -0.056538689446422 10.00031242388 0.0 0.0 0.0 0.0 0.0 0.0 0.0 0.0 0.0
1317065176325263023 0 1317065176325263023 imu_link -0.010096302278670172 0.018929902962586193 0.9881776760694769 0.15180449259509013 0.0 0.0 0.0 0.0 0.0 0.0 0.0 0.0 0.0 0.010715569419603 0.006376346167959 0.0029635297416353 0.0 0.0 0.0 0.0 0.0 0.0 0.0 0.0 0.0 1.3207878596066 0.0058649737884116 9.8207627457007 0.0 0.0 0.0 0.0 0.0 0.0 0.0 0.0 0.0
1317065176435549974 0 1317065176435549974 imu_link -0.010639928202229417 0.018804360286277765 0.9882126505160789 0.1515550900565913 0.0 0.0 0.0 0.0 0.0 0.0 0.0 0.0 0.0 -0.0029196269685162 0.0090229538104517 0.0058871568153676 0.0 0.0 0.0 0.0 0.0 0.0 0.0 0.0 0.0 1.1357461729317 0.10399926482402 9.6492340608146 0.0 0.0 0.0 0.0 0.0 0.0 0.0 0.0 0.0
1317065176535293102 0 1317065176535293102 imu_link -0.010993491663130414 0.018458206444267156 0.9882342390218466 0.15143159043219864 0.0 0.0 0.0 0.0 0.0 0.0 0.0 0.0 0.0 -0.0083424147157474 0.0056736517187744 0.0034377235368128 0.0 0.0 0.0 0.0 0.0 0.0 0.0 0.0 0.0 1.0055068626244 0.043278111496559 9.7579778709922 0.0 0.0 0.0 0.0 0.0 0.0 0.0 0.0 0.0
1317065176635516881 0 1317065176635516881 imu_link -0.011237068066009666 0.017905931739229008 0.9882626747071784 0.15129438750476965 0.0 0.0 0.0 0.0 0.0 0.0 0.0 0.0 0.0 -0.010730276947856 0.0018795609077274 0.0040982169489078 0.0 0.0 0.0 0.0 0.0 0.0 0.0 0.0 0.0 1.0302626437932 0.0002346333213676 9.7289921257823 0.0 0.0 0.0 0.0 0.0 0.0 0.0 0.0 0.0
1317065176745313882 0 1317065176745313882 imu_link -0.010760084226633762 0.017468154659763632 0.988327266904504 0.15095793338970792 0.0 0.0 0.0 0.0 0.0 0.0 0.0 0.0 0.0 -0.0076591219776587 -0.008557361733861 0.0064476205799162 0.0 0.0 0.0 0.0 0.0 0.0 0.0 0.0 0.0 1.0804419240939 0.0088196298639328 9.7518196076753 0.0 0.0 0.0 0.0 0.0 0.0 0.0 0.0 0.0
1317065176845309019 0 1317065176845309019 imu_link -0.010187982671498223 0.017713535348886866 0.9883851799709664 0.1505894142637167 0.0 0.0 0.0 0.0 0.0 0.0 0.0 0.0 0.0 0.0013262360391333 -0.010271388369785 0.0084758464857835 0.0 0.0 0.0 0.0 0.0 0.0 0.0 0.0 0.0 1.2424447988095 -0.091060078533086 9.8221799006781 0.0 0.0 0.0 0.0 0.0 0.0 0.0 0.0 0.0
1317065176955286979 0 1317065176955286979 imu_link -0.010334416877818145 0.017768805749732688 0.9884912967470624 0.1498746997506072 0.0 0.0 0.0 0.0 0.0 0.0 0.0 0.0 0.0 0.0036951944515144 -0.00053638223825387 0.01223480476131 0.0 0.0 0.0 0.0 0.0 0.0 0.0 0.0 0.0 1.3174771846797 0.059550108146862 10.041090204143 0.0 0.0 0.0 0.0 0.0 0.0 0.0 0.0 0.0
1317065177055309057 0 1317065177055309057 imu_link -0.011140722753607701 0.0176649855964916 0.9885569847361562 0.1493951823512464 0.0 0.0 0.0 0.0 0.0 0.0 0.0 0.0 0.0 -0.0051917069551753 0.012929218936871 0.011881890113502 0.0 0.0 0.0 0.0 0.0 0.0 0.0 0.0 0.0 1.2152544396627 -0.17989566159133 9.9789909748987 0.0 0.0 0.0 0.0 0.0 0.0 0.0 0.0 0.0
1317065177155520915 0 1317065177155520915 imu_link -0.011422928479582433 0.019354643164136535 0.9886009051639464 0.14887298210879346 0.0 0.0 0.0 0.0 0.0 0.0 0.0 0.0 0.0 0.023945716059795 0.012301344045496 0.010840709602139 0.0 0.0 0.0 0.0 0.0 0.0 0.0 0.0 0.0 1.0498091529458 0.13711437948913 9.6850348730495 0.0 0.0 0.0 0.0 0.0 0.0 0.0 0.0 0.0
1317065177255273103 0 1317065177255273103 imu_link -0.011464082980846235 0.019062519147615403 0.9887122257973177 0.14816656074860046 0.0 0.0 0.0 0.0 0.0 0.0 0.0 0.0 0.0 -0.0057432422727841 0.0054271997949509 0.014205398153971 0.0 0.0 0.0 0.0 0.0 0.0 0.0 0.0 0.0 1.2644668586706 0.48731899534679 9.4366395583939 0.0 0.0 0.0 0.0 0.0 0.0 0.0 0.0 0.0
1317065177365295886 0 1317065177365295886 imu_link -0.012020970174085837 0.018365883756099027 0.9888148458140776 0.14752420576845365 0.0 0.0 0.0 0.0 0.0 0.0 0.0 0.0 0.0 -0.012596783923278 0.0051076449512709 0.013536491905826 0.0 0.0 0.0 0.0 0.0 0.0 0.0 0.0 0.0 0.98050001170265 0.37995645007931 9.7675614327061 0.0 0.0 0.0 0.0 0.0 0.0 0.0 0.0 0.0
1317065177465282917 0 1317065177465282917 imu_link -0.011325916924708043 0.019230453067657173 0.9888782690220042 0.1470431308721086 0.0 0.0 0.0 0.0 0.0 0.0 0.0 0.0 0.0 0.013935446587882 -0.011887457982611 0.010388870310122 0.0 0.0 0.0 0.0 0.0 0.0 0.0 0.0 0.0 0.88395078017931 -0.14753329764326 9.8231538784531 0.0 0.0 0.0 0.0 0.0 0.0 0.0 0.0 0.0
1317065177575339078 0 1317065177575339078 imu_link -0.007864861870032977 0.019148313727850173 0.9889925705802446 0.14651000432129258 0.0 0.0 0.0 0.0 0.0 0.0 0.0 0.0 0.0 0.007113029029104 -0.056726370246079 0.0080642919624695 0.0 0.0 0.0 0.0 0.0 0.0 0.0 0.0 0.0 1.0733948402886 0.26875748345642 8.5688058930581 0.0 0.0 0.0 0.0 0.0 0.0 0.0 0.0 0.0
1317065177675425052 0 1317065177675425052 imu_link -0.0028399058305212796 0.019365439018298465 0.9890355562907633 0.1463748034981512 0.0 0.0 0.0 0.0 0.0 0.0 0.0 0.0 0.0 0.012916277598249 -0.08256720867138 0.0027502727647873 0.0 0.0 0.0 0.0 0.0 0.0 0.0 0.0 0.0 1.141768522264 0.013585322726963 10.456127031744 0.0 0.0 0.0 0.0 0.0 0.0 0.0 0.0 0.0
1317065177775346040 0 1317065177775346040 imu_link -0.0008990325869532283 0.01832515227025395 0.9891448340449898 0.14579395672245515 0.0 0.0 0.0 0.0 0.0 0.0 0.0 0.0 0.0 -0.010049474305089 -0.042627815428733 0.010452248092253 0.0 0.0 0.0 0.0 0.0 0.0 0.0 0.0 0.0 1.3581576414096 0.058539474895453 11.190136707928 0.0 0.0 0.0 0.0 0.0 0.0 0.0 0.0 0.0
1317065177885379076 0 1317065177885379076 imu_link -0.0030395610381662125 0.01836121522708674 0.9891779441136432 0.14553563729611357 0.0 0.0 0.0 0.0 0.0 0.0 0.0 0.0 0.0 -0.0031871589581218 0.027677172356304 0.0061110197282251 0.0 0.0 0.0 0.0 0.0 0.0 0.0 0.0 0.0 0.97782411353143 -0.23375411041791 9.8831325949828 0.0 0.0 0.0 0.0 0.0 0.0 0.0 0.0 0.0
1317065177985349893 0 1317065177985349893 imu_link -0.004521258305904238 0.0182115538274249 0.9892126326732255 0.14527995350435835 0.0 0.0 0.0 0.0 0.0 0.0 0.0 0.0 0.0 -0.012538338135545 0.026333342909793 0.0056881619274885 0.0 0.0 0.0 0.0 0.0 0.0 0.0 0.0 0.0 0.86394350146727 0.20137244697334 9.6438559169055 0.0 0.0 0.0 0.0 0.0 0.0 0.0 0.0 0.0
1317065178085369110 0 1317065178085369110 imu_link -0.0061713282708280425 0.01683339332618056 0.9892126585731802 0.14538523891743876 0.0 0.0 0.0 0.0 0.0 0.0 0.0 0.0 0.0 -0.033065075469978 0.028143486255886 -0.00060198662864396 0.0 0.0 0.0 0.0 0.0 0.0 0.0 0.0 0.0 0.89828475969097 0.11942070750061 9.2784353346154 0.0 0.0 0.0 0.0 0.0 0.0 0.0 0.0 0.0
1317065178195590019 0 1317065178195590019 imu_link -0.005820687665119078 0.015663307566978014 0.9891901093144572 0.1456835887312635 0.0 0.0 0.0 0.0 0.0 0.0 0.0 0.0 0.0 -0.023065724396438 -0.0060836755935978 -0.0055444735592088 0.0 0.0 0.0 0.0 0.0 0.0 0.0 0.0 0.0 0.80950630488777 -0.13042713663713 9.502008690954 0.0 0.0 0.0 0.0 0.0 0.0 0.0 0.0 0.0
1317065178295381069 0 1317065178295381069 imu_link -0.004619773820438137 0.014153299844434884 0.9890883511645101 0.14656935349530767 0.0 0.0 0.0 0.0 0.0 0.0 0.0 0.0 0.0 -0.028937968724861 -0.019113548226276 -0.01512550800408 0.0 0.0 0.0 0.0 0.0 0.0 0.0 0.0 0.0 0.81377712339772 -0.21117820163 9.4686609100137 0.0 0.0 0.0 0.0 0.0 0.0 0.0 0.0 0.0
1317065178395358085 0 1317065178395358085 imu_link -0.0026444505706411884 0.013633980653829413 0.9889797020053823 0.1473983394548783 0.0 0.0 0.0 0.0 0.0 0.0 0.0 0.0 0.0 -0.0063574538463857 -0.02855740068203 -0.017046247825358 0.0 0.0 0.0 0.0 0.0 0.0 0.0 0.0 0.0 1.0126228877175 -0.35875430742937 10.063075890951 0.0 0.0 0.0 0.0 0.0 0.0 0.0 0.0 0.0
1317065178505386114 0 1317065178505386114 imu_link -0.0026071277159734475 0.014751953892416052 0.9887954052639101 0.14852349736795376 0.0 0.0 0.0 0.0 0.0 0.0 0.0 0.0 0.0 0.012956251950434 0.0060568970041572 -0.019140702956646 0.0 0.0 0.0 0.0 0.0 0.0 0.0 0.0 0.0 1.1078133770411 -0.36182789711395 10.500102198409 0.0 0.0 0.0 0.0 0.0 0.0 0.0 0.0 0.0
1317065178605428934 0 1317065178605428934 imu_link -0.005003292084795096 0.015158452589105045 0.9886523590976055 0.14937101872236624 0.0 0.0 0.0 0.0 0.0 0.0 0.0 0.0 0.0 0.0025099204645711 0.037670822593782 -0.017396943937301 0.0 0.0 0.0 0.0 0.0 0.0 0.0 0.0 0.0 0.97686886704811 -0.090803753298225 9.787410406161 0.0 0.0 0.0 0.0 0.0 0.0 0.0 0.0 0.0
1317065178705447912 0 1317065178705447912 imu_link -0.0056515882155323185 0.015765895004886003 0.9885244163686262 0.1501298582840998 0.0 0.0 0.0 0.0 0.0 0.0 0.0 0.0 0.0 0.0068008636706755 0.013676978519305 -0.014181811366186 0.0 0.0 0.0 0.0 0.0 0.0 0.0 0.0 0.0 0.75785000559257 -0.29638761596588 9.1960424314838 0.0 0.0 0.0 0.0 0.0 0.0 0.0 0.0 0.0
1317065178815407037 0 1317065178815407037 imu_link -0.004125096614060695 0.01619962812063363 0.9884516209319342 0.15061191421567466 0.0 0.0 0.0 0.0 0.0 0.0 0.0 0.0 0.0 0.011073054098962 -0.023755453215737 -0.0098422436469507 0.0 0.0 0.0 0.0 0.0 0.0 0.0 0.0 0.0 0.80618107042584 -0.058820955561682 9.3020974412994 0.0 0.0 0.0 0.0 0.0 0.0 0.0 0.0 0.0
1317065178915416002 0 1317065178915416002 imu_link -0.00242208359959361 0.01542058687938323 0.9884266615222274 0.1508942470850237 0.0 0.0 0.0 0.0 0.0 0.0 0.0 0.0 0.0 -0.0077261256231532 -0.028405197770075 -0.0053586858301656 0.0 0.0 0.0 0.0 0.0 0.0 0.0 0.0 0.0 0.92941739543863 0.090040210746438 10.186973156812 0.0 0.0 0.0 0.0 0.0 0.0 0.0 0.0 0.0
1317065179015460014 0 1317065179015460014 imu_link -0.00301542656852428 0.014577849232379021 0.9883985091920362 0.1511515151803914 0.0 0.0 0.0 0.0 0.0 0.0 0.0 0.0 0.0 -0.012431104039769 0.007979980448751 -0.0046556362523159 0.0 0.0 0.0 0.0 0.0 0.0 0.0 0.0 0.0 1.0562801929283 0.07597087361353 9.9762182284364 0.0 0.0 0.0 0.0 0.0 0.0 0.0 0.0 0.0
1317065179125377893 0 1317065179125377893 imu_link -0.004908194302380703 0.014307711489895342 0.9883903168683045 0.15118128370133774 0.0 0.0 0.0 0.0 0.0 0.0 0.0 0.0 0.0 -0.0089651947874092 0.033798449380919 -0.00048637861411344 0.0 0.0 0.0 0.0 0.0 0.0 0.0 0.0 0.0 0.89721359275913 0.099791401351352 10.106140570212 0.0 0.0 0.0 0.0 0.0 0.0 0.0 0.0 0.0
1317065179225553035 0 1317065179225553035 imu_link -0.005702849063354228 0.014889416440083117 0.9883544875300163 0.1513313905636005 0.0 0.0 0.0 0.0 0.0 0.0 0.0 0.0 0.0 0.0074539286066409 0.015999472926856 -0.0017420081729256 0.0 0.0 0.0 0.0 0.0 0.0 0.0 0.0 0.0 0.78907805422952 -0.21310224857443 9.0832387136695 0.0 0.0 0.0 0.0 0.0 0.0 0.0 0.0 0.0
1317065179325390100 0 1317065179325390100 imu_link -0.0054054714163479815 0.016378414529626222 0.9883305461186945 0.1513448381180727 0.0 0.0 0.0 0.0 0.0 0.0 0.0 0.0 0.0 0.026696609959561 0.0021415763701784 -0.00052540254079307 0.0 0.0 0.0 0.0 0.0 0.0 0.0 0.0 0.0 0.8666848457728 -0.13501493386602 9.5476627565885 0.0 0.0 0.0 0.0 0.0 0.0 0.0 0.0 0.0
